,t,q_1,q_2,q_3,q_4,q_5,q_6,camera_x,camera_y,camera_z,camera_roll,camera_pitch,camera_yaw,f_1,f_2,f_3,f_4,f_5,f_6,desired_f_1,desired_f_2,desired_f_3,desired_f_4,desired_f_5,desired_f_6
0,0.0,8.821487426757812e-06,0.00015425682067871094,1.5707957744598389,0.0001304149627685547,-1.5707952976226807,7.152557373046875e-07,0.680819034576416,0.16908136010169983,0.6382145881652832,-3.1409235490667897,0.00014262589818666297,1.5708377616351568,205.71618625277162,161.3569844789357,181.67405764966742,137.32594235033258,157.62334801762114,161.33920704845815,149.5,167.5,126.5,143.5,100.5,167.5
1,0.05,6.699562072753906e-05,0.0011992454528808594,1.570993185043335,-8.58306884765625e-06,-1.5719807147979736,-0.0011746883392333984,0.6813456416130066,0.16899146139621735,0.6373796463012695,-3.139809471133782,0.0013273122306797266,1.5720738086399233,205.5253863134658,161.40397350993376,181.5,137.27631578947367,157.37665198237886,161.33920704845815,149.5,167.5,126.5,143.5,100.5,167.5
2,0.1,0.00010704994201660156,0.00225830078125,1.5710933208465576,-6.532669067382812e-05,-1.5731408596038818,-0.0023398399353027344,0.6818826198577881,0.16889148950576782,0.6365951299667358,-3.1386968381347224,0.00248357025022413,1.5732831394341689,205.24503311258277,161.4459161147903,181.30752212389382,137.34513274336283,157.12334801762114,161.38325991189427,149.5,167.5,126.5,143.5,100.5,167.5
3,0.15000000000000002,0.00013494491577148438,0.003260374069213867,1.5712368488311768,-0.00016498565673828125,-1.5742909908294678,-0.0034627914428710938,0.6823870539665222,0.16878408193588257,0.6358290314674377,-3.1376438606656225,0.0036272376056080634,1.5744409533324661,205.0,161.5,181.06153846153848,137.378021978022,156.77802197802197,161.37582417582416,149.5,167.5,126.5,143.5,100.5,167.5
4,0.2,0.00019812583923339844,0.004235029220581055,1.5713965892791748,-0.00029969215393066406,-1.575474500656128,-0.0044841766357421875,0.6828723549842834,0.16869817674160004,0.6350741982460022,-3.1366346285327427,0.004801628506684314,1.5755348738923793,204.75496688741723,161.5540838852097,180.77802197802197,137.37582417582416,156.56263736263736,161.36703296703297,149.5,167.5,126.5,143.5,100.5,167.5
5,0.25,0.00026702880859375,0.00527644157409668,1.5715186595916748,-0.00040602684020996094,-1.5766589641571045,-0.005532741546630859,0.6833911538124084,0.16861633956432343,0.6342957019805908,-3.135565478218677,0.005975499672723035,1.576664439450105,204.4581497797357,161.61674008810573,180.58771929824562,137.375,156.3186813186813,161.39340659340658,149.5,167.5,126.5,143.5,100.5,167.5
6,0.30000000000000004,0.00028705596923828125,0.006304025650024414,1.5715858936309814,-0.0004591941833496094,-1.5777919292449951,-0.0065937042236328125,0.6839104890823364,0.1685056835412979,0.6335574388504028,-3.134509861069613,0.007094726761435051,1.5777591265690225,204.24229074889868,161.6409691629956,180.35824175824175,137.35824175824175,156.0,161.45414847161572,149.5,167.5,126.5,143.5,100.5,167.5
7,0.35000000000000003,0.00030231475830078125,0.007310390472412109,1.5715749263763428,-0.00044608116149902344,-1.5789062976837158,-0.007639646530151367,0.6844201683998108,0.16839398443698883,0.6328800320625305,-3.133485084136253,0.008193972637155227,1.5788362335318553,203.97350993377484,161.67770419426049,180.11816192560175,137.47702407002188,155.6688596491228,161.41666666666666,149.5,167.5,126.5,143.5,100.5,167.5
8,0.4,0.00038623809814453125,0.008243083953857422,1.5717289447784424,-0.0006089210510253906,-1.5801002979278564,-0.008511781692504883,0.684880793094635,0.1683230996131897,0.6321593523025513,-3.132543495270409,0.009372504147724444,1.579810814597343,203.66153846153847,161.76043956043955,179.859649122807,137.46271929824562,155.39387308533918,161.39387308533918,149.5,167.5,126.5,143.5,100.5,167.5
9,0.45,0.0004475116729736328,0.00921010971069336,1.5718247890472412,-0.0007238388061523438,-1.581268072128296,-0.009383916854858398,0.6853631734848022,0.16823919117450714,0.6314492225646973,-3.131575454462869,0.010523860166237756,1.5807650809241482,203.47577092511014,161.84801762114537,179.6528384279476,137.45414847161572,155.14410480349346,161.47161572052403,149.5,167.5,126.5,143.5,100.5,167.5
10,0.5,0.0004906654357910156,0.010204553604125977,1.5717980861663818,-0.0007264614105224609,-1.5824048519134521,-0.010281562805175781,0.685863733291626,0.16814564168453217,0.6307903528213501,-3.130589199941804,0.011640727735815266,1.5817283239921531,203.2869757174393,161.83885209713026,179.36601307189542,137.47712418300654,154.86899563318778,161.5,149.5,167.5,126.5,143.5,100.5,167.5
11,0.55,0.0005795955657958984,0.01120448112487793,1.5717852115631104,-0.0007531642913818359,-1.58357834815979,-0.011150836944580078,0.6863596439361572,0.16808032989501953,0.6301213502883911,-3.1296048300670187,0.012793717209466569,1.582711308873674,202.98434004474274,161.92170022371366,179.2292576419214,137.5240174672489,154.65,161.54347826086956,149.5,167.5,126.5,143.5,100.5,167.5
12,0.6000000000000001,0.0006113052368164062,0.012157201766967773,1.5717604160308838,-0.0007624626159667969,-1.5846965312957764,-0.012011528015136719,0.6868396997451782,0.16798125207424164,0.6294905543327332,-3.1286619218718843,0.01389023485297475,1.5836297484833353,202.63736263736263,162.03956043956043,178.96069868995633,137.52620087336246,154.35791757049893,161.48156182212583,149.5,167.5,126.5,143.5,100.5,167.5
13,0.65,0.0006284713745117188,0.013150930404663086,1.571704626083374,-0.0007541179656982422,-1.585803747177124,-0.012837409973144531,0.6873440146446228,0.1678735613822937,0.6288501620292664,-3.127688977159005,0.0149737459441926,1.5845013901272869,202.47368421052633,162.0921052631579,178.69213973799125,137.53711790393012,154.13100436681222,161.5,149.5,167.5,126.5,143.5,100.5,167.5
14,0.7000000000000001,0.0006821155548095703,0.014201164245605469,1.5716121196746826,-0.0007236003875732422,-1.5869390964508057,-0.013659000396728516,0.6878718733787537,0.16778862476348877,0.6281922459602356,-3.1266715482729404,0.01608383766478452,1.5854080749175399,202.29166666666666,162.14473684210526,178.53246753246754,137.6060606060606,153.8217391304348,161.54782608695652,149.5,167.5,126.5,143.5,100.5,167.5
15,0.75,0.0007617473602294922,0.015177249908447266,1.571547269821167,-0.0007295608520507812,-1.5880963802337646,-0.014368295669555664,0.688357949256897,0.167720228433609,0.6275714635848999,-3.1257377002797777,0.017217139589760778,1.5862299634748522,201.8650442477876,162.28982300884957,178.28416485900217,137.54880694143168,153.58747300215984,161.58747300215984,149.5,167.5,126.5,143.5,100.5,167.5
16,0.8,0.0007181167602539062,0.01622176170349121,1.5712954998016357,-0.0005443096160888672,-1.589123010635376,-0.015217304229736328,0.6888993382453918,0.16757836937904358,0.6270085573196411,-3.124728711254943,0.01821437192987816,1.5870689096048245,201.7017543859649,162.26315789473685,178.05194805194805,137.5952380952381,153.3,161.5695652173913,149.5,167.5,126.5,143.5,100.5,167.5
17,0.8500000000000001,0.0007429122924804688,0.017223358154296875,1.5711305141448975,-0.00045680999755859375,-1.5902159214019775,-0.015952348709106445,0.6894077658653259,0.16747841238975525,0.6264265775680542,-3.123773199984035,0.01927992518638625,1.5878649520053019,201.46491228070175,162.28728070175438,177.82721382289418,137.63066954643628,153.05194805194805,161.5952380952381,149.5,167.5,126.5,143.5,100.5,167.5
18,0.9,0.0007741451263427734,0.018207788467407227,1.5709812641143799,-0.0003879070281982422,-1.5913116931915283,-0.0166623592376709,0.6899057030677795,0.1673830896615982,0.625847578048706,-3.1228364302756475,0.02034721657400921,1.5886439848957212,201.2901098901099,162.36483516483517,177.56399132321042,137.63340563991324,152.792656587473,161.60043196544277,149.5,167.5,126.5,143.5,100.5,167.5
19,0.9500000000000001,0.0008397102355957031,0.019245624542236328,1.5707790851593018,-0.0002837181091308594,-1.592433214187622,-0.017347097396850586,0.6904271841049194,0.16730915009975433,0.6252633929252625,-3.1218619112813384,0.021439348872417333,1.5894351629153107,200.92747252747253,162.38901098901098,177.3644251626898,137.68763557483732,152.54347826086956,161.65,149.5,167.5,126.5,143.5,100.5,167.5
20,1.0,0.0008504390716552734,0.020220041275024414,1.5706064701080322,-0.00019621849060058594,-1.593501329421997,-0.018039703369140625,0.6909235119819641,0.16720236837863922,0.6247036457061768,-3.1209372094079337,0.022476399740371363,1.5901797131910682,200.6718061674009,162.41189427312776,177.20697167755992,137.66230936819173,152.3030303030303,161.66017316017317,149.5,167.5,126.5,143.5,100.5,167.5
21,1.05,0.0008192062377929688,0.021164655685424805,1.5703856945037842,-5.8650970458984375e-05,-1.5945227146148682,-0.018733739852905273,0.6914113759994507,0.16707123816013336,0.6241925358772278,-3.1200413700432073,0.023465923307144757,1.590883871369956,200.46491228070175,162.44298245614036,176.9030172413793,137.61853448275863,152.02591792656588,161.59827213822894,149.5,167.5,126.5,143.5,100.5,167.5
22,1.1,0.0008296966552734375,0.022174835205078125,1.570124864578247,9.846687316894531e-05,-1.595578908920288,-0.019398927688598633,0.6919273734092712,0.16696587204933167,0.6236597299575806,-3.1190966729264127,0.02448942012319384,1.5916044813105201,200.19078947368422,162.49561403508773,176.70043103448276,137.73491379310346,151.76293103448276,161.6594827586207,149.5,167.5,126.5,143.5,100.5,167.5
23,1.1500000000000001,0.0008444786071777344,0.023120880126953125,1.5699427127838135,0.00018215179443359375,-1.59663987159729,-0.019999980926513672,0.6924092173576355,0.1668636053800583,0.6231257915496826,-3.118212328979925,0.02551952250651659,1.592265485734844,199.93406593406593,162.52307692307693,176.52483801295895,137.7624190064795,151.54310344827587,161.74353448275863,149.5,167.5,126.5,143.5,100.5,167.5
24,1.2000000000000002,0.0008156299591064453,0.024030208587646484,1.5697290897369385,0.00030541419982910156,-1.597651720046997,-0.02063441276550293,0.6928786635398865,0.1667357087135315,0.6226339340209961,-3.1173552759243472,0.02649735346381483,1.5929162926927936,199.71115973741794,162.58424507658643,176.32467532467533,137.77489177489178,151.32754880694142,161.72017353579176,149.5,167.5,126.5,143.5,100.5,167.5
25,1.25,0.0007908344268798828,0.024956703186035156,1.5695078372955322,0.0004291534423828125,-1.5986664295196533,-0.021237611770629883,0.6933563947677612,0.1666106879711151,0.6221349835395813,-3.1164879959268212,0.027479095418921344,1.5935422764095442,199.4561403508772,162.6140350877193,176.03455723542118,137.68250539956804,151.01295896328293,161.6414686825054,149.5,167.5,126.5,143.5,100.5,167.5
26,1.3,0.0007755756378173828,0.02593827247619629,1.5691993236541748,0.0006225109100341797,-1.599682092666626,-0.021825075149536133,0.6938625574111938,0.16649219393730164,0.6216487288475037,-3.115581643394935,0.02845943621290562,1.5941644058211848,199.24122807017545,162.640350877193,175.71612903225807,137.84086021505377,150.7247311827957,161.7247311827957,149.5,167.5,126.5,143.5,100.5,167.5
27,1.35,0.000835418701171875,0.026888132095336914,1.5690181255340576,0.0006847381591796875,-1.6007697582244873,-0.022330045700073242,0.6943392753601074,0.16641950607299805,0.6211122870445251,-3.114710045014787,0.02951505591579363,1.5947821822468653,199.09492273730683,162.66887417218544,175.58189655172413,137.86422413793105,150.51403887688986,161.79913606911447,149.5,167.5,126.5,143.5,100.5,167.5
28,1.4000000000000001,0.0008857250213623047,0.027801990509033203,1.5688025951385498,0.0007829666137695312,-1.6018397808074951,-0.02282428741455078,0.6947996616363525,0.166342094540596,0.6206203699111938,-3.1138739964461335,0.03055197789242225,1.5953799512183828,198.70240700218818,162.6805251641138,175.42489270386267,137.90987124463518,150.38279569892472,161.79354838709676,149.5,167.5,126.5,143.5,100.5,167.5
29,1.4500000000000002,0.0008563995361328125,0.028678178787231445,1.5686495304107666,0.0008378028869628906,-1.6028387546539307,-0.02336573600769043,0.6952502727508545,0.16621559858322144,0.6201158165931702,-3.1130545678258734,0.031515974528090795,1.5959441630635824,198.53070175438597,162.76315789473685,175.29677419354837,137.88172043010752,150.03418803418805,161.82264957264957,149.5,167.5,126.5,143.5,100.5,167.5
30,1.5,0.0008139610290527344,0.02950763702392578,1.5683891773223877,0.0009911060333251953,-1.603811502456665,-0.023831844329833984,0.6956824064254761,0.16608326137065887,0.6197065711021423,-3.1122937172398246,0.032456945293156875,1.5964186179681816,198.3230769230769,162.74505494505493,174.8531914893617,137.89787234042552,149.741452991453,161.82478632478632,149.5,167.5,126.5,143.5,100.5,167.5
31,1.55,0.0008597373962402344,0.030417203903198242,1.5681531429290771,0.0011022090911865234,-1.6048634052276611,-0.02429366111755371,0.6961413025856018,0.16600510478019714,0.619227945804596,-3.111466556194998,0.033474443434802735,1.5969834725048915,198.16444444444446,162.75333333333333,174.64957264957266,137.9145299145299,149.54193548387096,161.89032258064515,149.5,167.5,126.5,143.5,100.5,167.5
32,1.6,0.0009107589721679688,0.0313265323638916,1.5678927898406982,0.0012369155883789062,-1.6059114933013916,-0.024773359298706055,0.6965997815132141,0.16593049466609955,0.6187639236450195,-3.1106389412032005,0.03448762903459637,1.5975729836288877,197.79868708971554,162.81181619256017,174.5301724137931,137.9655172413793,149.42489270386267,161.90987124463518,149.5,167.5,126.5,143.5,100.5,167.5
33,1.6500000000000001,0.0008726119995117188,0.03220677375793457,1.5676567554473877,0.0013649463653564453,-1.6068775653839111,-0.02530694007873535,0.6970552802085876,0.16580143570899963,0.6183033585548401,-3.1098214492888925,0.035416079064945864,1.5981254258241988,197.57205240174673,162.9061135371179,174.38841201716738,138.04935622317598,149.08704883227176,161.91295116772824,149.5,167.5,126.5,143.5,100.5,167.5
34,1.7000000000000002,0.0008504390716552734,0.03300642967224121,1.5674593448638916,0.0014505386352539062,-1.607858419418335,-0.02568840980529785,0.697467029094696,0.16568312048912048,0.6178779006004333,-3.1090940356120833,0.036364549587935974,1.5985412033348456,197.42637362637362,162.88131868131867,174.16101694915255,138.02966101694915,148.79148936170213,161.8808510638298,149.5,167.5,126.5,143.5,100.5,167.5
35,1.75,0.0008761882781982422,0.03378772735595703,1.567267656326294,0.0015194416046142578,-1.608877420425415,-0.02599024772644043,0.6978635191917419,0.1655954122543335,0.6174629330635071,-3.10839683900418,0.03735569435174534,1.5989262697953968,197.21729490022173,162.83148558758316,173.77398720682302,138.0042643923241,148.58886509635974,161.96359743040685,149.5,167.5,126.5,143.5,100.5,167.5
36,1.8,0.0009222030639648438,0.03464865684509277,1.5670263767242432,0.0016336441040039062,-1.6099050045013428,-0.026414871215820312,0.6982972621917725,0.16552028059959412,0.6170204877853394,-3.1076173901849833,0.03834734695269894,1.5994594075506356,196.90486725663717,163.00884955752213,173.58333333333334,138.0405982905983,148.41630901287553,162.0107296137339,149.5,167.5,126.5,143.5,100.5,167.5
37,1.85,0.0009086132049560547,0.035567283630371094,1.5666983127593994,0.0018351078033447266,-1.6108720302581787,-0.026898622512817383,0.6987705230712891,0.1654086709022522,0.6165863275527954,-3.106778364414876,0.03927464673871973,1.5999934113676744,196.64537444933922,163.11894273127754,173.44111349036402,138.07066381156318,148.19027484143763,162.0909090909091,149.5,167.5,126.5,143.5,100.5,167.5
38,1.9000000000000001,0.0008394718170166016,0.03646993637084961,1.5662953853607178,0.0021173954010009766,-1.6117775440216064,-0.027406930923461914,0.6992443203926086,0.16526389122009277,0.616205096244812,-3.1059497498858817,0.040138717225708276,1.600495157743108,196.49234135667396,163.11378555798686,173.33475479744138,138.10660980810235,147.9327731092437,161.99579831932772,149.5,167.5,126.5,143.5,100.5,167.5
39,1.9500000000000002,0.0008141994476318359,0.03729534149169922,1.5659902095794678,0.0022954940795898438,-1.6127288341522217,-0.0277407169342041,0.6996719241142273,0.1651471108198166,0.6158233880996704,-3.1052100518682604,0.04105681202945279,1.6008665037191223,196.33552631578948,163.13377192982455,173.0614406779661,138.17796610169492,147.58333333333334,162.0405982905983,149.5,167.5,126.5,143.5,100.5,167.5
40,2.0,0.0008571147918701172,0.03808188438415527,1.5657246112823486,0.0024251937866210938,-1.6137378215789795,-0.027966022491455078,0.7000691294670105,0.16507354378700256,0.6154468655586243,-3.1045201002803653,0.0420376474199133,1.6011991013621676,195.96,163.16666666666666,172.71794871794873,138.1239316239316,147.45842217484008,162.0405117270789,149.5,167.5,126.5,143.5,100.5,167.5
41,2.0500000000000003,0.0008456707000732422,0.03899097442626953,1.565385103225708,0.002628803253173828,-1.6146910190582275,-0.0283658504486084,0.7005370259284973,0.16496548056602478,0.615025520324707,-3.103699879358916,0.04295196211692417,1.601655988100714,195.77827050997783,163.22172949002217,172.57478632478632,138.13675213675214,147.2808510638298,162.14255319148936,149.5,167.5,126.5,143.5,100.5,167.5
42,2.1,0.0007939338684082031,0.03989386558532715,1.5649707317352295,0.002913236618041992,-1.6155965328216553,-0.028821706771850586,0.7010088562965393,0.16483353078365326,0.6146499514579773,-3.102878628667011,0.04381523681971365,1.6021278246927995,195.56483516483516,163.2,172.36402569593147,138.19271948608136,147.0398322851153,162.1341719077568,149.5,167.5,126.5,143.5,100.5,167.5
43,2.15,0.0007703304290771484,0.04075169563293457,1.5646393299102783,0.0031147003173828125,-1.6165287494659424,-0.029205799102783203,0.7014520764350891,0.16471928358078003,0.6142592430114746,-3.102104370644253,0.04470866705120997,1.6025571561455787,195.375,163.265350877193,172.23566878980893,138.23991507430998,146.71398305084745,162.11016949152543,149.5,167.5,126.5,143.5,100.5,167.5
44,2.2,0.0007665157318115234,0.041535139083862305,1.5643317699432373,0.0032901763916015625,-1.6174752712249756,-0.029441356658935547,0.7018547654151917,0.16461887955665588,0.6139072179794312,-3.1014131588907268,0.04562479258883326,1.602856163360252,195.19603524229075,163.26211453744494,172.04690831556502,138.27505330490405,146.5353319057816,162.14775160599572,149.5,167.5,126.5,143.5,100.5,167.5
45,2.25,0.0007681846618652344,0.04230499267578125,1.5640466213226318,0.0034449100494384766,-1.6184237003326416,-0.029676198959350586,0.7022493481636047,0.16452202200889587,0.6135514974594116,-3.100732552074608,0.04654212810632109,1.6031603917455952,194.84070796460176,163.29646017699116,171.66021505376344,138.2774193548387,146.36247334754796,162.17057569296375,149.5,167.5,126.5,143.5,100.5,167.5
46,2.3000000000000003,0.0007555484771728516,0.04317951202392578,1.5637381076812744,0.003618478775024414,-1.6193568706512451,-0.030033349990844727,0.7026984691619873,0.16441579163074493,0.61313396692276,-3.0999443811142666,0.04743585993978673,1.6035779246434725,194.68791208791208,163.2901098901099,171.52238805970148,138.2409381663113,146.15822784810126,162.24261603375527,149.5,167.5,126.5,143.5,100.5,167.5
47,2.35,0.0007100105285644531,0.04403090476989746,1.563349962234497,0.0038776397705078125,-1.620246171951294,-0.03043508529663086,0.703142523765564,0.1642901599407196,0.6127786636352539,-3.099173567421816,0.04828398448275994,1.6040064182747118,194.4835164835165,163.35824175824175,171.39232409381663,138.27931769722815,145.9322033898305,162.20974576271186,149.5,167.5,126.5,143.5,100.5,167.5
48,2.4000000000000004,0.0006678104400634766,0.04485368728637695,1.5629832744598389,0.004113197326660156,-1.621138334274292,-0.03075122833251953,0.7035712003707886,0.1641674041748047,0.6124313473701477,-3.098437183105636,0.049138172537103536,1.6043521853961749,194.29978118161927,163.36980306345734,171.22174840085287,138.28784648187633,145.58029978586723,162.23768736616702,149.5,167.5,126.5,143.5,100.5,167.5
49,2.45,0.00063323974609375,0.04560112953186035,1.562596082687378,0.004371166229248047,-1.622025728225708,-0.030982255935668945,0.7039615511894226,0.16405124962329865,0.612148106098175,-3.0977776457263615,0.0499941318076741,1.604618019564884,193.97550111358575,163.39420935412028,170.9978540772532,138.3862660944206,145.48619957537156,162.27813163481954,149.5,167.5,126.5,143.5,100.5,167.5
50,2.5,0.0005698204040527344,0.046358346939086914,1.56229567527771,0.004552364349365234,-1.6228907108306885,-0.03126931190490723,0.7043582797050476,0.16391633450984955,0.6118066906929016,-3.0970955611187425,0.050823818571346664,1.6049116374325085,193.77582417582417,163.3208791208791,170.6952789699571,138.39055793991417,145.2595744680851,162.2851063829787,149.5,167.5,126.5,143.5,100.5,167.5
51,2.5500000000000003,0.0005431175231933594,0.047121524810791016,1.5620396137237549,0.004685878753662109,-1.6237871646881104,-0.03155994415283203,0.7047523260116577,0.16380442678928375,0.6114356517791748,-3.0964087624315226,0.05168455436128366,1.6052490526257743,193.57395143487858,163.39293598233996,170.5244161358811,138.36942675159236,145.07021276595745,162.32127659574468,149.5,167.5,126.5,143.5,100.5,167.5
52,2.6,0.00048732757568359375,0.047913312911987305,1.561697244644165,0.0049037933349609375,-1.624647855758667,-0.03189206123352051,0.7051660418510437,0.1636749804019928,0.6110934019088745,-3.095693140184608,0.05250578444583278,1.6055993892041285,193.43201754385964,163.44736842105263,170.39102564102564,138.33333333333334,144.82553191489362,162.35531914893616,149.5,167.5,126.5,143.5,100.5,167.5
53,2.6500000000000004,0.0004150867462158203,0.048696279525756836,1.5612590312957764,0.005216121673583984,-1.6254818439483643,-0.032216787338256836,0.7055804133415222,0.16353662312030792,0.6108123660087585,-3.0949895823056064,0.05330042640245988,1.6059248303983598,193.18241758241757,163.47472527472527,170.1932059447983,138.36093418259023,144.5266524520256,162.36886993603412,149.5,167.5,126.5,143.5,100.5,167.5
54,2.7,0.00033783912658691406,0.04943370819091797,1.5608255863189697,0.0055277347564697266,-1.6263039112091064,-0.03249025344848633,0.7059724926948547,0.16339629888534546,0.6105605363845825,-3.0943306584427743,0.054086728087274064,1.6061924285016975,192.9689578713969,163.44345898004434,169.97210300429185,138.431330472103,144.36786469344608,162.3150105708245,149.5,167.5,126.5,143.5,100.5,167.5
55,2.75,0.000301361083984375,0.05015826225280762,1.5605218410491943,0.0057070255279541016,-1.6271708011627197,-0.03269505500793457,0.7063490748405457,0.16328106820583344,0.6102426052093506,-3.093687798874101,0.05492176408026236,1.6064355468811002,192.76548672566372,163.44247787610618,169.6931330472103,138.42918454935622,144.1932059447983,162.31210191082803,149.5,167.5,126.5,143.5,100.5,167.5
56,2.8000000000000003,0.00028777122497558594,0.0509343147277832,1.5602214336395264,0.005875349044799805,-1.6280577182769775,-0.03292703628540039,0.706747829914093,0.1631799340248108,0.6098873615264893,-3.092998093641871,0.055772833653244876,1.6067320731169483,192.56923076923076,163.4879120879121,169.55414012738854,138.40976645435245,144.0212314225053,162.3736730360934,149.5,167.5,126.5,143.5,100.5,167.5
57,2.85,0.00022935867309570312,0.05171489715576172,1.5598399639129639,0.006129264831542969,-1.6288931369781494,-0.033219337463378906,0.7071569561958313,0.1630512923002243,0.6095743775367737,-3.092297325738329,0.056569037076886236,1.6070438048288764,192.37610619469027,163.50442477876106,169.37446808510637,138.36808510638298,143.74468085106383,162.4468085106383,149.5,167.5,126.5,143.5,100.5,167.5
58,2.9000000000000004,0.00013828277587890625,0.05247354507446289,1.559358835220337,0.006487846374511719,-1.629683256149292,-0.03354811668395996,0.7075623273849487,0.16290365159511566,0.6093335747718811,-3.091613429130976,0.057318263293754425,1.607356666189795,192.16114790286974,163.55849889624724,169.1872340425532,138.44893617021276,143.55414012738854,162.40976645435245,149.5,167.5,126.5,143.5,100.5,167.5
59,2.95,7.557868957519531e-05,0.05322408676147461,1.5589582920074463,0.006762027740478516,-1.6305034160614014,-0.033791303634643555,0.70795738697052,0.162773996591568,0.6090524196624756,-3.0909440978970455,0.0581021043069708,1.607614541885285,191.94039735099338,163.51655629139074,169.01918976545844,138.4818763326226,143.35306553911204,162.35306553911204,149.5,167.5,126.5,143.5,100.5,167.5
60,3.0,2.6464462280273438e-05,0.05392718315124512,1.5586488246917725,0.006948947906494141,-1.6313374042510986,-0.033962249755859375,0.7083247303962708,0.16265332698822021,0.6087515950202942,-3.090321621223792,0.05890423031612524,1.6078133358356308,191.67472527472526,163.54725274725274,168.71948608137046,138.47751605995717,143.13135593220338,162.385593220339,149.5,167.5,126.5,143.5,100.5,167.5
61,3.0500000000000003,-2.6226043701171875e-05,0.054679155349731445,1.5583031177520752,0.007167339324951172,-1.63216233253479,-0.03418850898742676,0.7087178230285645,0.16253052651882172,0.6084376573562622,-3.0896516701457135,0.05969318830089745,1.6080665050583745,191.56043956043956,163.52747252747253,168.59023354564755,138.44585987261146,142.95348837209303,162.44820295983087,149.5,167.5,126.5,143.5,100.5,167.5
62,3.1,-9.703636169433594e-05,0.05541181564331055,1.5578968524932861,0.007451057434082031,-1.632960557937622,-0.03445243835449219,0.7091047167778015,0.16239677369594574,0.6081708669662476,-3.08899531494428,0.06045294724103524,1.6083377397802259,191.33849557522123,163.5862831858407,168.40339702760085,138.5095541401274,142.70464135021098,162.48945147679325,149.5,167.5,126.5,143.5,100.5,167.5
63,3.1500000000000004,-0.00016808509826660156,0.056114912033081055,1.5575039386749268,0.0077250003814697266,-1.6337535381317139,-0.03467512130737305,0.709476888179779,0.16226403415203094,0.6079172492027283,-3.088366918091161,0.06121024707956508,1.6085668500577723,191.158940397351,163.60927152317882,168.23617021276596,138.46170212765958,142.52320675105486,162.45358649789029,149.5,167.5,126.5,143.5,100.5,167.5
64,3.2,-0.0002465248107910156,0.05684328079223633,1.5570638179779053,0.008041143417358398,-1.6345350742340088,-0.03490114212036133,0.7098639011383057,0.1621270477771759,0.6076722145080566,-3.0877175141106434,0.06195503896936934,1.6087936748956466,190.97327394209353,163.59688195991092,168.0,138.5,142.3787234042553,162.5,149.5,167.5,126.5,143.5,100.5,167.5
65,3.25,-0.0003123283386230469,0.05758976936340332,1.556652307510376,0.008327007293701172,-1.6353275775909424,-0.03516077995300293,0.7102571725845337,0.16199761629104614,0.6073980927467346,-3.0870485740380498,0.06270780418769907,1.609069231709386,190.6578947368421,163.56798245614036,167.8127659574468,138.55106382978724,142.1536842105263,162.4463157894737,149.5,167.5,126.5,143.5,100.5,167.5
66,3.3000000000000003,-0.00038886070251464844,0.058278560638427734,1.556344747543335,0.008518695831298828,-1.6361100673675537,-0.03536081314086914,0.7106205821037292,0.1618620604276657,0.6071046590805054,-3.0864318636884516,0.06345560427476611,1.609272076694047,190.5219298245614,163.5767543859649,167.63113006396588,138.4733475479744,141.97473684210527,162.49473684210525,149.5,167.5,126.5,143.5,100.5,167.5
67,3.35,-0.0004870891571044922,0.05900406837463379,1.5559203624725342,0.008823871612548828,-1.6368615627288818,-0.03564023971557617,0.7110078930854797,0.1617133915424347,0.60685133934021,-3.085777336223957,0.06416651711150263,1.6095340701367826,190.35761589403972,163.6953642384106,167.4300847457627,138.5699152542373,141.7478813559322,162.51483050847457,149.5,167.5,126.5,143.5,100.5,167.5
68,3.4000000000000004,-0.0005447864532470703,0.0597386360168457,1.55552077293396,0.009096860885620117,-1.637650728225708,-0.035831451416015625,0.7113935947418213,0.16159050166606903,0.6065782308578491,-3.0851249071946754,0.0649187853819472,1.6097511454770086,190.1769911504425,163.6283185840708,167.3254817987152,138.51605995717344,141.5,162.5,149.5,167.5,126.5,143.5,100.5,167.5
69,3.45,-0.0006315708160400391,0.06039929389953613,1.555103063583374,0.009399652481079102,-1.6384012699127197,-0.036002159118652344,0.7117468118667603,0.16145087778568268,0.6063670516014099,-3.084537497039865,0.06563686863833719,1.6099133522922795,190.0,163.63169642857142,167.07430997876858,138.48619957537156,141.36942675159236,162.5244161358811,149.5,167.5,126.5,143.5,100.5,167.5
70,3.5,-0.0007143020629882812,0.0611269474029541,1.554642915725708,0.009736061096191406,-1.639153242111206,-0.03624868392944336,0.7121341228485107,0.16131356358528137,0.6061325669288635,-3.0838858554712876,0.06634879724797933,1.6101599095944172,189.72566371681415,163.63274336283186,166.864406779661,138.54661016949152,141.17970401691332,162.50105708245243,149.5,167.5,126.5,143.5,100.5,167.5
71,3.5500000000000003,-0.0007946491241455078,0.061835527420043945,1.5542633533477783,0.009994745254516602,-1.6399085521697998,-0.036460161209106445,0.712509036064148,0.16117754578590393,0.6058642864227295,-3.083251747183017,0.0670663929072314,1.6103741769892546,189.5287610619469,163.65486725663717,166.6624203821656,138.56263269639066,140.96428571428572,162.53781512605042,149.5,167.5,126.5,143.5,100.5,167.5
72,3.6,-0.0008771419525146484,0.06254053115844727,1.5538690090179443,0.010269403457641602,-1.6406562328338623,-0.03667569160461426,0.7128831744194031,0.16104085743427277,0.6056077480316162,-3.082620454978411,0.067775947251688,1.610590929895343,189.36283185840708,163.7212389380531,166.4904051172708,138.59701492537314,140.7957894736842,162.55789473684212,149.5,167.5,126.5,143.5,100.5,167.5
73,3.6500000000000004,-0.0009522438049316406,0.0632634162902832,1.5534651279449463,0.010550498962402344,-1.6414082050323486,-0.03687691688537598,0.7132649421691895,0.16090914607048035,0.6053438186645508,-3.0819749578128515,0.06848965085054169,1.6108027662509923,189.19690265486724,163.72345132743362,166.38510638297873,138.5468085106383,140.51271186440678,162.58262711864407,149.5,167.5,126.5,143.5,100.5,167.5
74,3.7,-0.0010607242584228516,0.06392788887023926,1.5529839992523193,0.010918855667114258,-1.6421153545379639,-0.0370631217956543,0.7136242985725403,0.16075792908668518,0.6051642298698425,-3.0813805024101426,0.06916071212116512,1.61096120890944,189.0178970917226,163.6510067114094,166.1897654584222,138.52878464818764,140.4300847457627,162.5699152542373,149.5,167.5,126.5,143.5,100.5,167.5
75,3.75,-0.0011696815490722656,0.06461381912231445,1.5525381565093994,0.01125025749206543,-1.642822504043579,-0.03730297088623047,0.7139936685562134,0.16060592234134674,0.6049491167068481,-3.080762050083929,0.06982830771091811,1.6111741534842212,188.75496688741723,163.6953642384106,165.91313559322035,138.60381355932202,140.20675105485233,162.50632911392404,149.5,167.5,126.5,143.5,100.5,167.5
76,3.8000000000000003,-0.0012331008911132812,0.06531834602355957,1.5521838665008545,0.011481523513793945,-1.64357590675354,-0.037455081939697266,0.7143633961677551,0.16048289835453033,0.6046687364578247,-3.0801365058478227,0.07054655837612216,1.6113498635240944,188.52980132450332,163.6953642384106,165.7674418604651,138.61310782241014,139.98523206751054,162.584388185654,149.5,167.5,126.5,143.5,100.5,167.5
77,3.85,-0.0013408660888671875,0.06597638130187988,1.55179762840271,0.01175832748413086,-1.6442782878875732,-0.03764700889587402,0.714716374874115,0.1603326052427292,0.6044383645057678,-3.0795438259344277,0.07121163120646354,1.611517038160769,188.38852097130243,163.72626931567328,165.62420382165604,138.65817409766456,139.81052631578947,162.63368421052633,149.5,167.5,126.5,143.5,100.5,167.5
78,3.9000000000000004,-0.0014460086822509766,0.06661510467529297,1.5514147281646729,0.012034416198730469,-1.6449787616729736,-0.03782367706298828,0.7150593996047974,0.16018423438072205,0.6042195558547974,-3.078968703152667,0.07187671668588412,1.611669725220647,188.27555555555554,163.77333333333334,165.47457627118644,138.65677966101694,139.6,162.66947368421052,149.5,167.5,126.5,143.5,100.5,167.5
79,3.95,-0.0015442371368408203,0.06725263595581055,1.550980806350708,0.012359380722045898,-1.6456778049468994,-0.03798270225524902,0.7154021263122559,0.1600411832332611,0.6040307879447937,-3.078397650987464,0.07254160303714428,1.6118129221519848,188.1006711409396,163.74049217002238,165.33901918976545,138.59701492537314,139.44585987261146,162.59023354564755,149.5,167.5,126.5,143.5,100.5,167.5
80,4.0,-0.0016491413116455078,0.06789278984069824,1.5505425930023193,0.012687921524047852,-1.6463677883148193,-0.03812861442565918,0.715747594833374,0.1598944365978241,0.6038421392440796,-3.077825888046146,0.0731977760521825,1.6119363754868123,187.8791946308725,163.7628635346756,165.07383966244726,138.64978902953587,139.32773109243698,162.56302521008402,149.5,167.5,126.5,143.5,100.5,167.5
81,4.05,-0.001720428466796875,0.0685877799987793,1.550170660018921,0.012938976287841797,-1.6470940113067627,-0.03826737403869629,0.7161134481430054,0.15976805984973907,0.6035771369934082,-3.0772086543596724,0.07388876981778433,1.6120929550683096,187.64615384615385,163.71868131868132,164.87605042016807,138.69327731092437,139.05263157894737,162.58315789473684,149.5,167.5,126.5,143.5,100.5,167.5
82,4.1000000000000005,-0.0017917156219482422,0.06921029090881348,1.5498545169830322,0.013145685195922852,-1.6478140354156494,-0.0383608341217041,0.7164419293403625,0.1596430391073227,0.603331446647644,-3.076656182746129,0.0745784987155748,1.612199921823584,187.46017699115043,163.73008849557522,164.70675105485233,138.69620253164558,138.85684210526315,162.68421052631578,149.5,167.5,126.5,143.5,100.5,167.5
83,4.15,-0.001895904541015625,0.06981825828552246,1.549483060836792,0.01341557502746582,-1.648494005203247,-0.03852105140686035,0.7167683839797974,0.1594971865415573,0.6031264662742615,-3.076108011986556,0.0752240414115494,1.6123381210412682,187.27555555555554,163.77333333333334,164.53177966101694,138.73093220338984,138.73473684210526,162.68842105263158,149.5,167.5,126.5,143.5,100.5,167.5
84,4.2,-0.0019965171813964844,0.07045245170593262,1.5491268634796143,0.013666391372680664,-1.6491773128509521,-0.03868460655212402,0.7171074748039246,0.15935371816158295,0.6028940081596375,-3.0755355527474686,0.0758718094114998,1.6124863757095653,187.19419642857142,163.78794642857142,164.47457627118644,138.65677966101694,138.584388185654,162.70675105485233,149.5,167.5,126.5,143.5,100.5,167.5
85,4.25,-0.002128124237060547,0.07108163833618164,1.5486700534820557,0.014020442962646484,-1.6498229503631592,-0.0388796329498291,0.7174509763717651,0.15919150412082672,0.6027216911315918,-3.074964282981243,0.07647889516162205,1.6126326781926807,187.03131991051455,163.79642058165547,164.27118644067798,138.70550847457628,138.4449152542373,162.6165254237288,149.5,167.5,126.5,143.5,100.5,167.5
86,4.3,-0.0022051334381103516,0.0717310905456543,1.5483081340789795,0.014269113540649414,-1.6505234241485596,-0.038980722427368164,0.7177940607070923,0.15906383097171783,0.6024820804595947,-3.0743875404257,0.07714752318735048,1.6127453742436009,186.78270509977827,163.85587583148558,163.97463002114165,138.67653276955602,138.17255717255716,162.68814968814968,149.5,167.5,126.5,143.5,100.5,167.5
87,4.3500000000000005,-0.0022945404052734375,0.07242774963378906,1.547847032546997,0.014612197875976562,-1.6512038707733154,-0.03915143013000488,0.7181652188301086,0.1589284986257553,0.6022651195526123,-3.0737639444770926,0.07778858454571416,1.6129174787217078,186.56541019955654,163.76940133037695,163.82911392405063,138.73206751054852,137.95198329853864,162.73277661795407,149.5,167.5,126.5,143.5,100.5,167.5
88,4.4,-0.0024018287658691406,0.07302498817443848,1.547466516494751,0.014893293380737305,-1.6518614292144775,-0.03930306434631348,0.718487024307251,0.15878279507160187,0.60207200050354,-3.0732238904063522,0.0784112965282841,1.613045402176193,186.3968957871397,163.7738359201774,163.70127118644066,138.74364406779662,137.82983193277312,162.74159663865547,149.5,167.5,126.5,143.5,100.5,167.5
89,4.45,-0.0025224685668945312,0.07361841201782227,1.5470941066741943,0.015169382095336914,-1.6525037288665771,-0.03946805000305176,0.7188082337379456,0.15862877666950226,0.601876437664032,-3.072684543877027,0.07901839045263769,1.6131729627722484,186.2694877505568,163.79955456570156,163.5042194092827,138.74894514767934,137.63312368972746,162.74633123689728,149.5,167.5,126.5,143.5,100.5,167.5
90,4.5,-0.002616405487060547,0.07422685623168945,1.546708345413208,0.01545262336730957,-1.653167963027954,-0.039604902267456055,0.7191339135169983,0.15849217772483826,0.6016780138015747,-3.0721364101794038,0.07964804852267443,1.6133022093238856,186.10267857142858,163.828125,163.47257383966246,138.70886075949366,137.4968287526427,162.7293868921776,149.5,167.5,126.5,143.5,100.5,167.5
91,4.55,-0.0027608871459960938,0.07481265068054199,1.546271562576294,0.015796184539794922,-1.653777837753296,-0.039754390716552734,0.7194564342498779,0.15832416713237762,0.6015229225158691,-3.0716028460816776,0.08022281336582218,1.6133896232995675,185.93497757847533,163.83632286995515,163.24683544303798,138.73206751054852,137.30977130977132,162.76923076923077,149.5,167.5,126.5,143.5,100.5,167.5
92,4.6000000000000005,-0.002889871597290039,0.07541060447692871,1.5458357334136963,0.016135692596435547,-1.6543991565704346,-0.03991293907165527,0.7197824716567993,0.15816615521907806,0.6013591289520264,-3.0710589165293447,0.08080822985243148,1.613503246000094,185.76169265033408,163.9042316258352,162.9140461215933,138.75262054507337,137.03958333333333,162.81458333333333,149.5,167.5,126.5,143.5,100.5,167.5
93,4.65,-0.002969503402709961,0.0760660171508789,1.5453593730926514,0.016500234603881836,-1.655061960220337,-0.04006028175354004,0.7201319336891174,0.15803971886634827,0.6011788845062256,-3.0704708970140757,0.08143425159068048,1.613662023593035,185.49330357142858,163.81919642857142,162.82773109243698,138.78361344537817,136.90396659707724,162.75156576200416,149.5,167.5,126.5,143.5,100.5,167.5
94,4.7,-0.003084421157836914,0.07664203643798828,1.5449965000152588,0.0167694091796875,-1.6556904315948486,-0.0401763916015625,0.7204431295394897,0.15789148211479187,0.600989043712616,-3.069949406963229,0.0820299882337122,1.6137481383404872,185.33482142857142,163.80580357142858,162.6778947368421,138.8084210526316,136.7941176470588,162.77731092436974,149.5,167.5,126.5,143.5,100.5,167.5
95,4.75,-0.0032036304473876953,0.07721614837646484,1.5446569919586182,0.017016172409057617,-1.656313180923462,-0.040314674377441406,0.7207532525062561,0.15774035453796387,0.6007859706878662,-3.0694260148806145,0.08261877314187442,1.6138515623057699,185.24330357142858,163.796875,162.53911205073996,138.8076109936575,136.64150943396226,162.79454926624737,149.5,167.5,126.5,143.5,100.5,167.5
96,4.800000000000001,-0.0033092498779296875,0.07778382301330566,1.5443103313446045,0.017269372940063477,-1.656944990158081,-0.04044198989868164,0.7210584878921509,0.15759821236133575,0.600592315196991,-3.068910748004681,0.08321724407157124,1.6139581588862177,185.0913140311804,163.85300668151447,162.47798742138366,138.77987421383648,136.51162790697674,162.7737843551797,149.5,167.5,126.5,143.5,100.5,167.5
97,4.8500000000000005,-0.0034461021423339844,0.0783545970916748,1.5439140796661377,0.017575502395629883,-1.6575424671173096,-0.040570735931396484,0.721371054649353,0.15743690729141235,0.6004241108894348,-3.068390101215414,0.08378049898396618,1.6140340417439238,184.90358744394618,163.86322869955157,162.29621848739495,138.8172268907563,136.25625,162.8625,149.5,167.5,126.5,143.5,100.5,167.5
98,4.9,-0.0035965442657470703,0.07888054847717285,1.543501615524292,0.017908096313476562,-1.6581189632415771,-0.04070639610290527,0.7216634154319763,0.1572677195072174,0.600296139717102,-3.0679049972322763,0.08432374238385659,1.6140994932455193,184.74107142857142,163.921875,161.9937369519833,138.82463465553235,136.06639004149378,162.84647302904565,149.5,167.5,126.5,143.5,100.5,167.5
99,4.95,-0.003692626953125,0.07948613166809082,1.5430762767791748,0.018233299255371094,-1.6587464809417725,-0.04082226753234863,0.7219878435134888,0.15713298320770264,0.6001200079917908,-3.067358089458982,0.08491715296742901,1.6142087097315267,184.50335570469798,163.84340044742729,161.8781512605042,138.7920168067227,135.90833333333333,162.82708333333332,149.5,167.5,126.5,143.5,100.5,167.5
100,5.0,-0.003834247589111328,0.08004498481750488,1.5426709651947021,0.018551349639892578,-1.6593258380889893,-0.04097294807434082,0.7222951054573059,0.15696975588798523,0.5999640226364136,-3.066844078820239,0.0854609902742807,1.6143011587527556,184.337807606264,163.83221476510067,161.68987341772151,138.831223628692,135.7928870292887,162.8284518828452,149.5,167.5,126.5,143.5,100.5,167.5
101,5.050000000000001,-0.003958463668823242,0.08061480522155762,1.5423157215118408,0.01881551742553711,-1.6599228382110596,-0.04111909866333008,0.7226040959358215,0.15681709349155426,0.5997722148895264,-3.066322838480202,0.08602185500601517,1.614409107081268,184.24608501118567,163.82326621923937,161.53911205073996,138.8076109936575,135.64435146443515,162.82008368200837,149.5,167.5,126.5,143.5,100.5,167.5
102,5.1000000000000005,-0.004064798355102539,0.08119559288024902,1.5419437885284424,0.01909184455871582,-1.6605331897735596,-0.041254281997680664,0.722916305065155,0.15667636692523956,0.5995829105377197,-3.06579533129534,0.0865968658218522,1.6145262452775446,184.08988764044943,163.9056179775281,161.50315789473683,138.82315789473685,135.51572327044025,162.92872117400418,149.5,167.5,126.5,143.5,100.5,167.5
103,5.15,-0.004237174987792969,0.08175516128540039,1.541489839553833,0.019463777542114258,-1.6610734462738037,-0.04146003723144531,0.723229169845581,0.15649384260177612,0.5994534492492676,-3.0652730269969197,0.08709637679369216,1.6146426071993356,183.91685393258427,163.9123595505618,161.30188679245282,138.86373165618448,135.26195426195426,162.93970893970894,149.5,167.5,126.5,143.5,100.5,167.5
104,5.2,-0.004388570785522461,0.08228278160095215,1.5410616397857666,0.019812822341918945,-1.661628007888794,-0.04160737991333008,0.7235223650932312,0.15632577240467072,0.5993315577507019,-3.064783597376623,0.08761579491619284,1.6147201569426268,183.74107142857142,163.921875,161.04781704781703,138.9043659043659,135.11180124223603,162.9544513457557,149.5,167.5,126.5,143.5,100.5,167.5
105,5.25,-0.004506587982177734,0.08284521102905273,1.5406677722930908,0.020118236541748047,-1.6622140407562256,-0.04175257682800293,0.7238276600837708,0.1561785489320755,0.5991663336753845,-3.0642668836216562,0.08816587074167391,1.6148345045506283,183.53932584269663,163.8808988764045,160.8781512605042,138.7920168067227,134.93139293139293,162.88565488565487,149.5,167.5,126.5,143.5,100.5,167.5
106,5.300000000000001,-0.004647016525268555,0.08343076705932617,1.5402157306671143,0.02047896385192871,-1.6627743244171143,-0.04193472862243652,0.7241489291191101,0.1560175120830536,0.5990172624588013,-3.063727226172221,0.08868549001824795,1.614963961402481,183.37303370786518,163.86292134831461,160.73839662447259,138.81856540084388,134.7987421383648,162.85324947589098,149.5,167.5,126.5,143.5,100.5,167.5
107,5.3500000000000005,-0.0047795772552490234,0.08400154113769531,1.5398170948028564,0.020787954330444336,-1.6633408069610596,-0.042083024978637695,0.7244599461555481,0.15586170554161072,0.5988479256629944,-3.063203345564415,0.08921467217165886,1.6150670910027836,183.2561797752809,163.87191011235956,160.5970464135021,138.8523206751055,134.69456066945608,162.82635983263597,149.5,167.5,126.5,143.5,100.5,167.5
108,5.4,-0.004885673522949219,0.08458185195922852,1.5394632816314697,0.02104806900024414,-1.6639320850372314,-0.0421900749206543,0.7247709631919861,0.1557227522134781,0.59864741563797,-3.0626766897231272,0.08977162811470539,1.6151580747496643,183.1121076233184,163.91928251121075,160.49789915966386,138.84873949579833,134.51046025104603,162.9539748953975,149.5,167.5,126.5,143.5,100.5,167.5
109,5.45,-0.005042314529418945,0.08513998985290527,1.5390150547027588,0.02141284942626953,-1.6644670963287354,-0.042376041412353516,0.7250803709030151,0.15555210411548615,0.5985144376754761,-3.06215677166481,0.09026608666173916,1.615272626678311,182.91685393258427,163.9123595505618,160.39121338912133,138.9246861924686,134.26141078838174,162.97510373443984,149.5,167.5,126.5,143.5,100.5,167.5
110,5.5,-0.005210399627685547,0.0856025218963623,1.538628339767456,0.021735668182373047,-1.664982557296753,-0.04248809814453125,0.7253415584564209,0.15537552535533905,0.5984140038490295,-3.06172179585201,0.09075072472817959,1.6152937429933247,182.7897091722595,163.93288590604027,160.13361169102296,138.91858037578288,134.13636363636363,162.94628099173553,149.5,167.5,126.5,143.5,100.5,167.5
111,5.550000000000001,-0.005328178405761719,0.08613944053649902,1.5382435321807861,0.022036314010620117,-1.6655476093292236,-0.04259085655212402,0.7256330251693726,0.1552308350801468,0.5982602834701538,-3.061229422757872,0.09128284342049968,1.615365709585598,182.61678004535148,163.91609977324262,159.92275574112736,138.84759916492692,134.01446280991735,162.94214876033058,149.5,167.5,126.5,143.5,100.5,167.5
112,5.6000000000000005,-0.005452632904052734,0.08673501014709473,1.5378048419952393,0.022380590438842773,-1.6661055088043213,-0.0427699089050293,0.7259566783905029,0.15508118271827698,0.5980957746505737,-3.060681612662259,0.09179895360299185,1.6155115191255058,182.44494382022472,163.89662921348315,159.78991596638656,138.81302521008402,133.86458333333334,162.8875,149.5,167.5,126.5,143.5,100.5,167.5
113,5.65,-0.005583524703979492,0.08732962608337402,1.5373680591583252,0.022722959518432617,-1.666654348373413,-0.04293680191040039,0.7262802720069885,0.15492740273475647,0.5979302525520325,-3.060136013277074,0.09230649964747616,1.615638505860716,182.28314606741574,163.90112359550562,159.68421052631578,138.85684210526315,133.74947807933194,162.93528183716074,149.5,167.5,126.5,143.5,100.5,167.5
114,5.7,-0.005734920501708984,0.08789968490600586,1.536952257156372,0.023052215576171875,-1.6671812534332275,-0.04312396049499512,0.7265933752059937,0.15476098656654358,0.5977696776390076,-3.05960700401359,0.09279130118145545,1.6157620410865412,182.1123595505618,163.94606741573034,159.5337552742616,138.87974683544303,133.5397489539749,162.96861924686192,149.5,167.5,126.5,143.5,100.5,167.5
115,5.75,-0.005893707275390625,0.0884542465209961,1.5365164279937744,0.023406267166137695,-1.667694330215454,-0.04329729080200195,0.7269001603126526,0.15459051728248596,0.5976316332817078,-3.0590906857574813,0.09326442451941791,1.6158630426401857,182.01809954751133,163.92307692307693,159.4602510460251,138.88493723849373,133.40501043841337,162.99791231732777,149.5,167.5,126.5,143.5,100.5,167.5
116,5.800000000000001,-0.006064891815185547,0.08896923065185547,1.5360805988311768,0.023769378662109375,-1.6681911945343018,-0.043470144271850586,0.727189838886261,0.15441282093524933,0.5975209474563599,-3.0586058796784017,0.09372177416042328,1.6159473421682153,181.8426966292135,163.92584269662922,159.3172268907563,138.98739495798318,133.19461697722568,162.98757763975155,149.5,167.5,126.5,143.5,100.5,167.5
117,5.8500000000000005,-0.0062139034271240234,0.08941841125488281,1.5357449054718018,0.024042844772338867,-1.6687042713165283,-0.04353833198547363,0.727439820766449,0.15425056219100952,0.5974001884460449,-3.0581852855407043,0.09420686356561526,1.6159454812288174,181.66139954853273,163.9255079006772,159.09166666666667,138.9375,133.07453416149067,162.98343685300208,149.5,167.5,126.5,143.5,100.5,167.5
118,5.9,-0.006361246109008789,0.08993172645568848,1.5353686809539795,0.02434396743774414,-1.6692187786102295,-0.043669700622558594,0.7277228832244873,0.1540888398885727,0.5972560048103333,-3.0577060775316323,0.0946858964954752,1.616014543327063,181.52488687782807,163.95927601809956,158.89352818371609,138.86221294363256,132.91752577319588,162.97113402061856,149.5,167.5,126.5,143.5,100.5,167.5
119,5.95,-0.006503582000732422,0.09051012992858887,1.5349061489105225,0.024718046188354492,-1.6697351932525635,-0.04383969306945801,0.7280399799346924,0.1539296954870224,0.597114622592926,-3.057170236378395,0.09516056697175239,1.61613268521299,181.36507936507937,163.9387755102041,158.7405857740586,138.8807531380753,132.77754677754677,162.97089397089397,149.5,167.5,126.5,143.5,100.5,167.5
120,6.0,-0.006642818450927734,0.09107756614685059,1.534475564956665,0.025062084197998047,-1.6702525615692139,-0.04400324821472168,0.7283509373664856,0.1537727415561676,0.5969640016555786,-3.056645059577495,0.09563637609955743,1.6162470313343136,181.25675675675674,163.89864864864865,158.62605042016807,138.9033613445378,132.65762004175366,162.94363256784968,149.5,167.5,126.5,143.5,100.5,167.5
121,6.050000000000001,-0.0067653656005859375,0.09161853790283203,1.534099817276001,0.025353670120239258,-1.670783281326294,-0.04412364959716797,0.7286438941955566,0.1536271721124649,0.5968005061149597,-3.0561471585751385,0.09613106953439905,1.6163341966702112,181.0900900900901,163.93243243243242,158.5157894736842,138.89894736842106,132.4759916492693,163.01043841336116,149.5,167.5,126.5,143.5,100.5,167.5
122,6.1000000000000005,-0.006925344467163086,0.09214091300964355,1.533667802810669,0.025710105895996094,-1.6712720394134521,-0.04428744316101074,0.7289342880249023,0.15345780551433563,0.5966814756393433,-3.0556572439030023,0.09657990820400592,1.6164232305794737,180.91666666666666,163.9391891891892,158.4246861924686,138.9225941422594,132.26875,163.04583333333332,149.5,167.5,126.5,143.5,100.5,167.5
123,6.15,-0.00711512565612793,0.0926048755645752,1.533233404159546,0.02608513832092285,-1.6717250347137451,-0.04444074630737305,0.7292003631591797,0.1532706320285797,0.5966049432754517,-3.055213789645346,0.09699601696459027,1.6164647454180885,180.7897091722595,163.93288590604027,158.24528301886792,138.99580712788259,132.1801242236025,163.0062111801242,149.5,167.5,126.5,143.5,100.5,167.5
124,6.2,-0.007256507873535156,0.0930793285369873,1.532897710800171,0.026353836059570312,-1.6722257137298584,-0.04452633857727051,0.729461669921875,0.15311458706855774,0.5964647531509399,-3.054769933920548,0.09746576790612278,1.6164920660969397,180.63945578231292,163.93424036281178,158.0625,138.975,132.04742268041238,162.9938144329897,149.5,167.5,126.5,143.5,100.5,167.5
125,6.25,-0.007388114929199219,0.09358525276184082,1.5325491428375244,0.026627540588378906,-1.672734022140503,-0.04462552070617676,0.729737401008606,0.15296460688114166,0.5963089466094971,-3.0542994799931655,0.097940064956769,1.616546567303151,180.47737556561086,163.96153846153845,157.89144050104383,138.90814196242172,131.91752577319588,162.97113402061856,149.5,167.5,126.5,143.5,100.5,167.5
126,6.300000000000001,-0.007527589797973633,0.0941476821899414,1.532135248184204,0.026957035064697266,-1.6732332706451416,-0.044768333435058594,0.7300444841384888,0.1528090536594391,0.596150815486908,-3.0537788827043606,0.0983988179265749,1.6166407003505838,180.36507936507937,163.9387755102041,157.7405857740586,138.8807531380753,131.75416666666666,162.96041666666667,149.5,167.5,126.5,143.5,100.5,167.5
127,6.3500000000000005,-0.007657289505004883,0.09470820426940918,1.531708002090454,0.027298927307128906,-1.6737382411956787,-0.04490232467651367,0.7303493618965149,0.15266014635562897,0.5960013270378113,-3.053261210413015,0.09886406867352354,1.616736875779566,180.21846846846847,163.92792792792793,157.62605042016807,138.9033613445378,131.57083333333333,162.99375,149.5,167.5,126.5,143.5,100.5,167.5
128,6.4,-0.007799863815307617,0.09522461891174316,1.5312888622283936,0.027642488479614258,-1.6742241382598877,-0.045027732849121094,0.7306337952613831,0.1525035947561264,0.5958787798881531,-3.0527800934225198,0.09931331364541568,1.6168069255843456,180.06546275395033,163.9232505643341,157.5157894736842,138.89894736842106,131.4125,163.04583333333332,149.5,167.5,126.5,143.5,100.5,167.5
129,6.45,-0.007972240447998047,0.09571647644042969,1.5308425426483154,0.028021812438964844,-1.6746776103973389,-0.04519319534301758,0.7309108376502991,0.1523284614086151,0.5957882404327393,-3.0523130619464593,0.09972655629742075,1.6168827648726887,179.89140271493213,163.93665158371041,157.4246861924686,138.9225941422594,131.25052192066806,163.06471816283926,149.5,167.5,126.5,143.5,100.5,167.5
130,6.5,-0.008170604705810547,0.09617233276367188,1.5304014682769775,0.028405427932739258,-1.6751010417938232,-0.04535531997680664,0.7311736345291138,0.15213719010353088,0.5957194566726685,-3.0518734821663314,0.10011126722295996,1.6169243976141454,179.76905829596413,163.9170403587444,157.26987447698744,139.0020920502092,131.1614906832298,163.05383022774328,149.5,167.5,126.5,143.5,100.5,167.5
131,6.550000000000001,-0.00833439826965332,0.0966176986694336,1.5300571918487549,0.02869129180908203,-1.6755578517913818,-0.045465707778930664,0.7314234972000122,0.1519685536623001,0.5956034660339355,-3.051449630335114,0.10053516839367882,1.61695106163083,179.61363636363637,163.9431818181818,157.0625,138.975,131.01855670103092,163.03092783505156,149.5,167.5,126.5,143.5,100.5,167.5
132,6.6000000000000005,-0.008480072021484375,0.09711503982543945,1.5296857357025146,0.0289919376373291,-1.6760308742523193,-0.04558229446411133,0.7316974997520447,0.15181151032447815,0.5954654216766357,-3.050983123868705,0.10097203269169883,1.6170083923869805,179.47737556561086,163.96153846153845,156.9206680584551,138.94363256784968,130.86363636363637,163.05371900826447,149.5,167.5,126.5,143.5,100.5,167.5
133,6.65,-0.008637189865112305,0.0976266860961914,1.5292637348175049,0.0293426513671875,-1.6764891147613525,-0.0457308292388916,0.7319813370704651,0.15164682269096375,0.5953466296195984,-3.0505012083439467,0.1013904623641283,1.6170858565511463,179.36507936507937,163.9387755102041,156.7405857740586,138.8807531380753,130.77639751552795,163.00828157349898,149.5,167.5,126.5,143.5,100.5,167.5
134,6.7,-0.00877523422241211,0.09819579124450684,1.528817892074585,0.029702425003051758,-1.6769664287567139,-0.04590296745300293,0.7322919964790344,0.15149357914924622,0.5952001214027405,-3.049971956694342,0.10182302180357318,1.61721331485489,179.2398190045249,163.92760180995475,156.65271966527197,138.9142259414226,130.58091286307055,163.0124481327801,149.5,167.5,126.5,143.5,100.5,167.5
135,6.75,-0.008916854858398438,0.09870219230651855,1.5284011363983154,0.03004622459411621,-1.6774332523345947,-0.046021461486816406,0.7325708866119385,0.1513395756483078,0.59508216381073,-3.0494981055969395,0.10225245393958891,1.6172776140388274,179.05203619909503,163.9004524886878,156.53781512605042,138.91176470588235,130.4125,163.04583333333332,149.5,167.5,126.5,143.5,100.5,167.5
136,6.800000000000001,-0.009093046188354492,0.09917140007019043,1.5279791355133057,0.03040599822998047,-1.6778619289398193,-0.04617476463317871,0.7328363060951233,0.15116353332996368,0.5949922800064087,-3.0490500549223944,0.10264193744500455,1.6173362829841307,178.92986425339367,163.92760180995475,156.4560669456067,138.92887029288704,130.27291666666667,163.07708333333332,149.5,167.5,126.5,143.5,100.5,167.5
137,6.8500000000000005,-0.009286165237426758,0.09961986541748047,1.5275428295135498,0.030787229537963867,-1.6782705783843994,-0.04632925987243652,0.7330937385559082,0.15097717940807343,0.594925045967102,-3.0486169438668598,0.1030119279851102,1.6173756379368318,178.77878103837472,163.91873589164786,156.31302521008402,139.02100840336135,130.17708333333334,163.12291666666667,149.5,167.5,126.5,143.5,100.5,167.5
138,6.9,-0.00947117805480957,0.10004544258117676,1.5271837711334229,0.031094789505004883,-1.6786859035491943,-0.04647541046142578,0.7333368062973022,0.15079635381698608,0.594830334186554,-3.048203388651739,0.10339084469436814,1.617414596734962,178.63945578231292,163.93424036281178,156.12889812889813,138.987525987526,130.06404958677686,163.0888429752066,149.5,167.5,126.5,143.5,100.5,167.5
139,6.95,-0.00963902473449707,0.10052347183227539,1.5268042087554932,0.03140997886657715,-1.6791179180145264,-0.046628713607788086,0.7336041331291199,0.15062616765499115,0.5947092175483704,-3.04774701569662,0.10378269908862145,1.6174840211407662,178.50113378684807,163.94784580498867,155.9874739039666,138.97286012526095,129.91322314049586,163.03925619834712,149.5,167.5,126.5,143.5,100.5,167.5
140,7.0,-0.009794473648071289,0.1010124683380127,1.5264251232147217,0.0317232608795166,-1.6795580387115479,-0.04674530029296875,0.7338749170303345,0.15046456456184387,0.5945806503295898,-3.047285545624796,0.10418561924520765,1.6175307625410351,178.38181818181818,163.95909090909092,155.87265135699374,138.93945720250522,129.80618556701032,163.04742268041238,149.5,167.5,126.5,143.5,100.5,167.5
141,7.050000000000001,-0.009961366653442383,0.10152220726013184,1.526005506515503,0.03207278251647949,-1.6799852848052979,-0.04689645767211914,0.7341583371162415,0.15029510855674744,0.5944597721099854,-3.046802914503904,0.10457141856088402,1.6176016035839906,178.26636568848758,163.9232505643341,155.67714884696016,138.9056603773585,129.67427385892117,163.0207468879668,149.5,167.5,126.5,143.5,100.5,167.5
142,7.1000000000000005,-0.010102272033691406,0.10205960273742676,1.5255863666534424,0.03241300582885742,-1.680436372756958,-0.04704761505126953,0.7344525456428528,0.15014216303825378,0.594319760799408,-3.04630096695867,0.10497971081964884,1.6177031827925932,178.06575963718822,163.92290249433105,155.58909853249475,138.958071278826,129.44375,163.07083333333333,149.5,167.5,126.5,143.5,100.5,167.5
143,7.15,-0.01028132438659668,0.10251283645629883,1.5251867771148682,0.032755374908447266,-1.6808421611785889,-0.04718446731567383,0.7347087860107422,0.14996621012687683,0.5942272543907166,-3.045865288603712,0.10534751733020505,1.6177415549052465,177.99544419134395,163.90205011389523,155.4560669456067,138.92887029288704,129.31732776617955,163.11273486430062,149.5,167.5,126.5,143.5,100.5,167.5
144,7.2,-0.010457992553710938,0.10297131538391113,1.524749994277954,0.03313255310058594,-1.681248426437378,-0.04735589027404785,0.7349686622619629,0.1497914344072342,0.5941530466079712,-3.045423379230318,0.1057117561743153,1.6178176503805926,177.84841628959276,163.93665158371041,155.37735849056602,138.97903563941298,129.22594142259413,163.13807531380752,149.5,167.5,126.5,143.5,100.5,167.5
145,7.25,-0.010650873184204102,0.10341715812683105,1.524334192276001,0.033493995666503906,-1.6816365718841553,-0.047528982162475586,0.7352238893508911,0.14960642158985138,0.5940744280815125,-3.0449896839202224,0.10605896881595263,1.6178767938532994,177.64172335600907,163.93424036281178,155.2375,139.02916666666667,129.09128630705393,163.10165975103735,149.5,167.5,126.5,143.5,100.5,167.5
146,7.300000000000001,-0.010843276977539062,0.10384464263916016,1.523986577987671,0.033791303634643555,-1.6820228099822998,-0.04766225814819336,0.7354681491851807,0.14942264556884766,0.5939698219299316,-3.044574042118458,0.10640781533176058,1.6178956851981037,177.5899772209567,163.93166287015944,155.0625,138.975,128.96273291925465,163.0848861283644,149.5,167.5,126.5,143.5,100.5,167.5
147,7.3500000000000005,-0.011001825332641602,0.10431623458862305,1.5235941410064697,0.034121036529541016,-1.6824400424957275,-0.04779243469238281,0.7357308864593506,0.14926043152809143,0.5938599705696106,-3.0441253554429326,0.10678633152518087,1.6179516377448802,177.4512471655329,163.95691609977325,154.89583333333334,138.95,128.84536082474227,163.0721649484536,149.5,167.5,126.5,143.5,100.5,167.5
148,7.4,-0.011152029037475586,0.10483026504516602,1.523174524307251,0.03446841239929199,-1.682863473892212,-0.047936439514160156,0.7360137104988098,0.14910317957401276,0.5937351584434509,-3.0436407421851954,0.10716806350606269,1.6180346728200379,177.31292517006804,163.94557823129253,154.75991649269312,138.9248434237996,128.74380165289256,163.03719008264463,149.5,167.5,126.5,143.5,100.5,167.5
149,7.45,-0.01129913330078125,0.10536503791809082,1.5227558612823486,0.034809112548828125,-1.6832892894744873,-0.04808473587036133,0.73630690574646,0.14894774556159973,0.5935952663421631,-3.043140160015649,0.10754976438726493,1.6181273637079672,177.1640091116173,163.91571753986332,154.65271966527197,138.9142259414226,128.52598752598752,163.04989604989606,149.5,167.5,126.5,143.5,100.5,167.5
