,t,q_1,q_2,q_3,q_4,q_5,q_6,camera_x,camera_y,camera_z,camera_roll,camera_pitch,camera_yaw,f_1,f_2,f_3,f_4,f_5,f_6,desired_f_1,desired_f_2,desired_f_3,desired_f_4,desired_f_5,desired_f_6
0,0.0,9.298324584960938e-06,-0.39263248443603516,1.963494062423706,7.224082946777344e-05,-1.5707952976226807,-2.384185791015625e-07,0.44632619619369507,0.1690625101327896,0.5921626687049866,-3.1413076666281032,0.00012220975734266807,1.5708383127210188,212.0,82.81939163498099,186.06118546845124,56.89866156787763,160.08365019011407,82.79657794676807,153.5,144.5,125.5,116.5,99.5,144.5
1,0.05,0.0007441043853759766,-0.39315271377563477,1.966808557510376,-0.00439453125,-1.572840929031372,0.00087738037109375,0.44608110189437866,0.16919083893299103,0.5906280875205994,3.1402043025474438,0.0021699745430893446,1.5706944523627115,211.69128787878788,83.04356060606061,185.69128787878788,57.04356060606061,159.69128787878788,83.04356060606061,153.5,144.5,125.5,116.5,99.5,144.5
2,0.1,0.0014472007751464844,-0.39366912841796875,1.9700148105621338,-0.008754730224609375,-1.57485032081604,0.001722097396850586,0.44583839178085327,0.1693073809146881,0.5891556143760681,3.138528869389691,0.004176698770721523,1.5705437354432419,211.5,83.32830188679246,185.44571428571427,57.21142857142857,159.44507575757575,83.20075757575758,153.5,144.5,125.5,116.5,99.5,144.5
3,0.15000000000000002,0.002096414566040039,-0.39412569999694824,1.9730656147003174,-0.012971878051757812,-1.576812982559204,0.0025281906127929688,0.4456290006637573,0.16940250992774963,0.5877477526664734,3.136897167731208,0.006132389249704733,1.5703708274895403,211.24667931688805,83.44781783681215,185.19128787878788,57.354166666666664,159.14716981132077,83.3754716981132,153.5,144.5,125.5,116.5,99.5,144.5
4,0.2,0.0027747154235839844,-0.39458537101745605,1.9761335849761963,-0.017214536666870117,-1.5787947177886963,0.0033562183380126953,0.4454103112220764,0.16950859129428864,0.5863326787948608,3.13525072166722,0.008104511865450775,1.570199163347738,210.99239543726236,83.56273764258555,184.86200378071834,57.482041587901705,158.73831775700936,83.51028037383178,153.5,144.5,125.5,116.5,99.5,144.5
5,0.25,0.0035190582275390625,-0.3949859142303467,1.979151964187622,-0.021434783935546875,-1.5808122158050537,0.004210710525512695,0.44520682096481323,0.1696406751871109,0.5849235653877258,3.133632139399452,0.010109224337610027,1.5700594769055949,210.72693032015067,83.7608286252354,184.54323308270676,57.607142857142854,158.49250936329588,83.63483146067416,153.5,144.5,125.5,116.5,99.5,144.5
6,0.30000000000000004,0.0041866302490234375,-0.3953404426574707,1.9820425510406494,-0.025526046752929688,-1.5827677249908447,0.004981040954589844,0.4450339376926422,0.16974399983882904,0.5835675001144409,3.1320586742730234,0.012050368834649371,1.5699225413041171,210.46110056925997,83.94686907020873,184.28248587570621,57.73258003766478,158.26355140186917,83.8018691588785,153.5,144.5,125.5,116.5,99.5,144.5
7,0.35000000000000003,0.004792213439941406,-0.3957071304321289,1.9848787784576416,-0.0295560359954834,-1.58467698097229,0.005711555480957031,0.44486141204833984,0.16982367634773254,0.5822470784187317,3.130478161873364,0.013942792932881825,1.5697579591097832,210.21804511278197,84.24624060150376,184.0093984962406,57.97744360902256,157.83858998144711,84.11317254174396,153.5,144.5,125.5,116.5,99.5,144.5
8,0.4,0.005457162857055664,-0.3960721492767334,1.9876744747161865,-0.033563852310180664,-1.5866167545318604,0.006519317626953125,0.4446783661842346,0.1699274480342865,0.5809520483016968,3.1288762333656774,0.015862827990205632,1.569568499827606,209.8924528301887,84.37924528301886,183.69172932330827,58.19924812030075,157.57777777777778,84.31296296296296,153.5,144.5,125.5,116.5,99.5,144.5
9,0.45,0.00612640380859375,-0.3964219093322754,1.9905188083648682,-0.03761863708496094,-1.5885646343231201,0.007293224334716797,0.44449731707572937,0.1700320541858673,0.579623281955719,3.1272876915115457,0.017788550779383728,1.569411647530082,209.63992537313433,84.53731343283582,183.41154562383613,58.357541899441344,157.39074074074074,84.43518518518519,153.5,144.5,125.5,116.5,99.5,144.5
10,0.5,0.006743431091308594,-0.3967280387878418,1.9933054447174072,-0.041614532470703125,-1.5904743671417236,0.007989883422851562,0.444341778755188,0.1701163500547409,0.5783078074455261,3.125744160099034,0.019675156289272515,1.5692747448503748,209.40747663551403,84.70841121495327,183.16165413533835,58.494360902255636,157.02025782688767,84.62430939226519,153.5,144.5,125.5,116.5,99.5,144.5
11,0.55,0.0074083805084228516,-0.39703369140625,1.9960696697235107,-0.04560446739196777,-1.5924098491668701,0.008749008178710938,0.44417646527290344,0.17021982371807098,0.5770072340965271,3.1241795933464016,0.021584539624313403,1.569117346093617,209.26404494382024,84.87453183520599,182.81378026070763,58.58100558659218,156.63351749539595,84.73112338858195,153.5,144.5,125.5,116.5,99.5,144.5
12,0.6000000000000001,0.008094549179077148,-0.3972177505493164,1.9986116886138916,-0.049398183822631836,-1.5943324565887451,0.009459495544433594,0.4440654218196869,0.1703340709209442,0.5757836103439331,3.122708807226918,0.023480233797224616,1.5690252185451599,208.82803738317756,85.22056074766355,182.52238805970148,58.66977611940298,156.3908256880734,84.90091743119267,153.5,144.5,125.5,116.5,99.5,144.5
13,0.65,0.008586645126342773,-0.39751505851745605,2.0010669231414795,-0.053069114685058594,-1.5961158275604248,0.010141849517822266,0.44392937421798706,0.170375257730484,0.5746558904647827,3.1211597266925404,0.025232934313431765,1.5687633224957023,208.64285714285714,85.3984962406015,182.28917910447763,58.90485074626866,156.07650273224044,85.12386156648452,153.5,144.5,125.5,116.5,99.5,144.5
14,0.7000000000000001,0.00915980339050293,-0.3977668285369873,2.0035297870635986,-0.05676865577697754,-1.5979530811309814,0.010863780975341797,0.4437994956970215,0.17044751346111298,0.5735063552856445,3.1196309536711944,0.027037605415294184,1.5685360003904942,208.41308411214953,85.5570093457944,181.9109461966605,59.1873840445269,155.72710622710622,85.35897435897436,153.5,144.5,125.5,116.5,99.5,144.5
15,0.75,0.00980520248413086,-0.3979024887084961,2.0059454441070557,-0.06044173240661621,-1.59983229637146,0.01153254508972168,0.44371041655540466,0.17054793238639832,0.5723349452018738,3.1181968845596173,0.028884184931193817,1.5684312087679273,208.21455223880596,85.67164179104478,181.71828358208955,59.343283582089555,155.5,85.5,153.5,144.5,125.5,116.5,99.5,144.5
16,0.8,0.010483980178833008,-0.3980221748352051,2.0083887577056885,-0.06415343284606934,-1.6017372608184814,0.012223482131958008,0.44361990690231323,0.17066064476966858,0.5711427330970764,3.1167637279198415,0.03075469576185555,1.5683321229135923,207.90316573556797,85.9608938547486,181.44362292051756,59.473197781885396,155.32051282051282,85.64652014652015,153.5,144.5,125.5,116.5,99.5,144.5
17,0.8500000000000001,0.011020898818969727,-0.39816713333129883,2.0107204914093018,-0.06773138046264648,-1.6035349369049072,0.012842655181884766,0.44353848695755005,0.17072033882141113,0.5700234770774841,3.1153282834060185,0.03251680741320446,1.5681598422793044,207.67228464419475,86.21722846441948,181.22242990654206,59.64859813084112,154.96028880866427,85.90252707581227,153.5,144.5,125.5,116.5,99.5,144.5
18,0.9,0.011587142944335938,-0.3983428478240967,2.013028860092163,-0.07129287719726562,-1.6053450107574463,0.013537883758544922,0.44343674182891846,0.17079195380210876,0.5689331889152527,3.1138490167633,0.03428667163436161,1.567933925561726,207.43228200371058,86.40074211502782,180.9313543599258,59.788497217068645,154.67572463768116,86.07065217391305,153.5,144.5,125.5,116.5,99.5,144.5
19,0.9500000000000001,0.012134075164794922,-0.3984968662261963,2.015260934829712,-0.07477855682373047,-1.6071312427520752,0.014202594757080078,0.44334691762924194,0.17085766792297363,0.5678765177726746,3.1123903366218957,0.03603164926853386,1.5677152761784232,207.21601489757916,86.56610800744879,180.58812615955472,60.05380333951763,154.40363636363637,86.31636363636363,153.5,144.5,125.5,116.5,99.5,144.5
20,1.0,0.012708663940429688,-0.39856672286987305,2.0174458026885986,-0.07822346687316895,-1.608928918838501,0.014788627624511719,0.4432893991470337,0.17093434929847717,0.566811203956604,3.1110096952883146,0.037789922909220466,1.5676019117427638,206.84082397003746,86.68164794007491,180.36968576709796,60.30314232902033,154.1043165467626,86.41546762589928,153.5,144.5,125.5,116.5,99.5,144.5
21,1.05,0.013364076614379883,-0.39862966537475586,2.0198185443878174,-0.08188223838806152,-1.610809087753296,0.01548457145690918,0.443215936422348,0.171039417386055,0.5656383037567139,3.1096028599169068,0.039625345635838145,1.5674503938569058,206.61623616236162,86.96125461254613,180.1090573012939,60.399260628465804,153.8086642599278,86.59386281588448,153.5,144.5,125.5,116.5,99.5,144.5
22,1.1,0.013953924179077148,-0.39870715141296387,2.022043466567993,-0.08538413047790527,-1.6126234531402588,0.01616954803466797,0.4431469142436981,0.17112170159816742,0.5645566582679749,3.1081877511478107,0.04139222063245933,1.5672402109292198,206.48059149722735,87.19778188539742,179.75185185185185,60.47962962962963,153.557761732852,86.79602888086643,153.5,144.5,125.5,116.5,99.5,144.5
23,1.1500000000000001,0.014447927474975586,-0.3987300395965576,2.0239908695220947,-0.08859062194824219,-1.6143314838409424,0.016702890396118164,0.4431214928627014,0.17117127776145935,0.5636072754859924,3.1068517300790575,0.04305804062578031,1.567088940209946,206.23191094619665,87.39332096474953,179.54898336414047,60.66173752310536,153.25311942959001,87.06417112299465,153.5,144.5,125.5,116.5,99.5,144.5
24,1.2000000000000002,0.014972686767578125,-0.3988068103790283,2.0259878635406494,-0.09184670448303223,-1.6160609722137451,0.017301559448242188,0.44306355714797974,0.17123255133628845,0.5626540780067444,3.105455897820291,0.04474019848307095,1.5668947424451891,205.89385474860336,87.50837988826815,179.26617375231055,60.84658040665435,153.0392156862745,87.14081996434938,153.5,144.5,125.5,116.5,99.5,144.5
25,1.25,0.015482902526855469,-0.39885425567626953,2.0280344486236572,-0.09515762329101562,-1.617790937423706,0.01787734031677246,0.44301751255989075,0.17128773033618927,0.5616603493690491,3.104083874803881,0.04642152400821794,1.5667052221110789,205.64944649446494,87.68265682656826,178.93382352941177,61.1360294117647,152.68705035971223,87.46043165467626,153.5,144.5,125.5,116.5,99.5,144.5
26,1.3,0.01606440544128418,-0.39885830879211426,2.0300962924957275,-0.09849286079406738,-1.6195671558380127,0.018438339233398438,0.44297683238983154,0.1713697761297226,0.5606403350830078,3.1027425742607484,0.04814898810852514,1.5665970834940823,205.4391143911439,87.93357933579335,178.71666666666667,61.28333333333333,152.43682310469313,87.56317689530685,153.5,144.5,125.5,116.5,99.5,144.5
27,1.35,0.016620874404907227,-0.3988316059112549,2.032069444656372,-0.1017453670501709,-1.6213161945343018,0.019013166427612305,0.442954421043396,0.17144379019737244,0.5596587657928467,3.101424047006714,0.049848273937125584,1.5664483968875227,205.28176795580112,88.20626151012891,178.47522935779816,61.44587155963303,152.0705467372134,87.77954144620811,153.5,144.5,125.5,116.5,99.5,144.5
28,1.4000000000000001,0.017207622528076172,-0.39877820014953613,2.033926248550415,-0.10489153861999512,-1.6230671405792236,0.01963067054748535,0.44294124841690063,0.17153170704841614,0.5587330460548401,3.10011813031266,0.05154583891468693,1.5662836540824838,204.87940630797775,88.38589981447124,178.26247689463955,61.654343807763404,151.88318584070797,87.88318584070797,153.5,144.5,125.5,116.5,99.5,144.5
29,1.4500000000000002,0.017759323120117188,-0.39876341819763184,2.035909414291382,-0.10816407203674316,-1.624814748764038,0.020288944244384766,0.44290992617607117,0.1716044694185257,0.557753324508667,3.098768470656753,0.053234692279887585,1.566036013364681,204.66173752310536,88.54898336414048,177.92307692307693,61.72893772893773,151.59435626102294,88.08641975308642,153.5,144.5,125.5,116.5,99.5,144.5
30,1.5,0.01825857162475586,-0.39874911308288574,2.037752389907837,-0.11127805709838867,-1.6264994144439697,0.020864248275756836,0.442888081073761,0.17165960371494293,0.5568518042564392,3.097439996993812,0.05486347746871746,1.565817850286497,204.44362292051756,88.73937153419594,177.6441605839416,61.99087591240876,151.28798586572438,88.273851590106,153.5,144.5,125.5,116.5,99.5,144.5
31,1.55,0.018815040588378906,-0.39865779876708984,2.0395824909210205,-0.11439847946166992,-1.6282236576080322,0.021442651748657227,0.44289061427116394,0.1717369556427002,0.5559262037277222,3.096166887902123,0.0565314945720301,1.5656519266319426,204.3162705667276,88.9762340036563,177.43933823529412,62.19485294117647,151.04240282685512,88.49293286219081,153.5,144.5,125.5,116.5,99.5,144.5
32,1.6,0.019390106201171875,-0.3985280990600586,2.0413362979888916,-0.1174473762512207,-1.6299502849578857,0.0220184326171875,0.4429077208042145,0.17182280123233795,0.5550282597541809,3.0949245487900092,0.05820036806560095,1.5655045987458867,203.9537037037037,89.22222222222223,177.21389396709324,62.40036563071298,150.83893805309734,88.78053097345133,153.5,144.5,125.5,116.5,99.5,144.5
33,1.6500000000000001,0.019901752471923828,-0.3985023498535156,2.043166399002075,-0.12055063247680664,-1.6316368579864502,0.02260875701904297,0.4428832232952118,0.17188353836536407,0.5541305541992188,3.0935982022865245,0.05982517702134886,1.565272386283747,203.73840445269016,89.41187384044527,176.94128440366973,62.51926605504587,150.55887521968364,88.9261862917399,153.5,144.5,125.5,116.5,99.5,144.5
34,1.7000000000000002,0.020395278930664062,-0.39845848083496094,2.044907331466675,-0.12356114387512207,-1.6332952976226807,0.02317953109741211,0.44287076592445374,0.17193922400474548,0.553276002407074,3.092292498604701,0.06142199004023076,1.5650393172216837,203.51386321626617,89.58595194085028,176.62935779816513,62.675229357798166,150.23508771929824,89.09473684210526,153.5,144.5,125.5,116.5,99.5,144.5
35,1.75,0.020900726318359375,-0.39837217330932617,2.0465710163116455,-0.1264972686767578,-1.6349494457244873,0.023728370666503906,0.4428759515285492,0.17200109362602234,0.5524473190307617,3.0910257669024546,0.06301393094378101,1.5648391482751154,203.271719038817,89.74121996303143,176.43327239488116,62.94149908592322,150.03146853146853,89.27272727272727,153.5,144.5,125.5,116.5,99.5,144.5
36,1.8,0.021447181701660156,-0.3982546329498291,2.048319101333618,-0.129533052444458,-1.6366465091705322,0.02429819107055664,0.44288378953933716,0.17207708954811096,0.5515584945678711,3.0897715256686697,0.06464786753748072,1.5646541663945208,203.0239852398524,90.00184501845018,176.19890510948906,63.166058394160586,149.81786339754817,89.57092819614711,153.5,144.5,125.5,116.5,99.5,144.5
37,1.85,0.021958112716674805,-0.3981754779815674,2.0500571727752686,-0.13254332542419434,-1.6383130550384521,0.02484917640686035,0.44287779927253723,0.17214003205299377,0.5506917238235474,3.0884930780247424,0.06624844908840662,1.5644473024475183,202.77449168207025,90.25693160813309,175.83639705882354,63.33455882352941,149.52447552447552,89.7604895104895,153.5,144.5,125.5,116.5,99.5,144.5
38,1.9000000000000001,0.022417545318603516,-0.3980569839477539,2.0516440868377686,-0.1353895664215088,-1.6399176120758057,0.02532219886779785,0.44290077686309814,0.17218612134456635,0.5498918294906616,3.0872724980009902,0.06779214601934312,1.5642706272327203,202.53860294117646,90.44301470588235,175.62201834862384,63.47889908256881,149.18134715025906,89.86701208981002,153.5,144.5,125.5,116.5,99.5,144.5
39,1.9500000000000002,0.022922515869140625,-0.3979196548461914,2.0532238483428955,-0.1382455825805664,-1.6415531635284424,0.025876760482788086,0.44292446970939636,0.17225031554698944,0.5490902066230774,3.0860455048483924,0.06936097194382636,1.5640528552557298,202.32037037037037,90.56851851851852,175.38929889298893,63.61070110701107,148.99826689774696,90.06065857885615,153.5,144.5,125.5,116.5,99.5,144.5
40,2.0,0.023400306701660156,-0.39780211448669434,2.054797410964966,-0.1410832405090332,-1.643164873123169,0.026388883590698242,0.4429413676261902,0.1723044514656067,0.5483004450798035,3.0848115148678996,0.07090576650223464,1.563846008298907,202.1626617375231,90.76894639556377,175.20109689213893,63.79890310786106,148.83132530120483,90.16867469879519,153.5,144.5,125.5,116.5,99.5,144.5
41,2.0500000000000003,0.023870229721069336,-0.3976309299468994,2.0563175678253174,-0.14387297630310059,-1.6447670459747314,0.026882410049438477,0.4429836571216583,0.17235662043094635,0.5475179553031921,3.0836261159029026,0.07244264564392869,1.56365194656144,201.7967032967033,91.00549450549451,174.7536496350365,64.0948905109489,148.44887348353552,90.37954939341421,153.5,144.5,125.5,116.5,99.5,144.5
42,2.1,0.024347305297851562,-0.39737844467163086,2.057786226272583,-0.14661669731140137,-1.6463654041290283,0.027317523956298828,0.44306060671806335,0.17241257429122925,0.5467289686203003,3.0825199414896596,0.07398080312181184,1.563525198816697,201.62867647058823,91.2279411764706,174.58639705882354,64.25367647058823,148.17586206896553,90.76724137931035,153.5,144.5,125.5,116.5,99.5,144.5
43,2.15,0.024837732315063477,-0.39722394943237305,2.0592682361602783,-0.14935660362243652,-1.6479628086090088,0.027798175811767578,0.4430898129940033,0.17247436940670013,0.5459754467010498,3.0813265650179154,0.07550996151891459,1.5633561793703918,201.40366972477065,91.45688073394496,174.3941605839416,64.42335766423358,148.03454231433506,90.90673575129534,153.5,144.5,125.5,116.5,99.5,144.5
44,2.2,0.025274038314819336,-0.39707422256469727,2.0607168674468994,-0.1520533561706543,-1.6495163440704346,0.028256893157958984,0.4431251883506775,0.17251604795455933,0.5452419519424438,3.080139221591789,0.07699641196315236,1.5631544233494699,201.20887245841035,91.59704251386322,174.08211678832117,64.57299270072993,147.7753001715266,91.06689536878216,153.5,144.5,125.5,116.5,99.5,144.5
45,2.25,0.025706052780151367,-0.39687514305114746,2.0620787143707275,-0.15465927124023438,-1.6510522365570068,0.028649091720581055,0.4431845545768738,0.17255789041519165,0.5445349216461182,3.079010393055713,0.07846922859244841,1.563017702713151,200.93014705882354,91.8125,173.86980108499097,64.76130198915008,147.51379310344828,91.18448275862069,153.5,144.5,125.5,116.5,99.5,144.5
46,2.3000000000000003,0.026142120361328125,-0.3966679573059082,2.0634572505950928,-0.15729093551635742,-1.6525943279266357,0.029089927673339844,0.4432451128959656,0.1726016104221344,0.5438166856765747,3.077874826854754,0.07994430024720868,1.562831981304522,200.63619744058502,92.05118829981718,173.58727272727273,65.00363636363636,147.17525773195877,91.45017182130584,153.5,144.5,125.5,116.5,99.5,144.5
47,2.35,0.026601552963256836,-0.3964676856994629,2.0648529529571533,-0.1599419116973877,-1.6541516780853271,0.029561519622802734,0.44329649209976196,0.17265449464321136,0.5430926084518433,3.0767251250894962,0.08143063432562085,1.562632955586328,200.50735294117646,92.24632352941177,173.45338208409507,65.21023765996344,147.03938356164383,91.6986301369863,153.5,144.5,125.5,116.5,99.5,144.5
48,2.4000000000000004,0.027062177658081055,-0.39627933502197266,2.0662567615509033,-0.1625957489013672,-1.6557085514068604,0.030028104782104492,0.4433404803276062,0.1727074682712555,0.5423696041107178,3.0755670865017866,0.08291581499893749,1.5624375754197835,200.28545119705342,92.48618784530387,173.18511796733213,65.39745916515426,146.79245283018867,91.88679245283019,153.5,144.5,125.5,116.5,99.5,144.5
49,2.45,0.027499675750732422,-0.3960723876953125,2.0675861835479736,-0.16516780853271484,-1.6572344303131104,0.030467987060546875,0.44339731335639954,0.17275354266166687,0.5416784882545471,3.0744370746141487,0.08437189623366402,1.5622464329144492,200.11970534069982,92.60957642725599,172.9744990892532,65.5464480874317,146.5,92.0,153.5,144.5,125.5,116.5,99.5,144.5
50,2.5,0.027994155883789062,-0.39581727981567383,2.068901300430298,-0.1677417755126953,-1.6588003635406494,0.030941247940063477,0.44346630573272705,0.17282187938690186,0.5409777760505676,3.0733328773857393,0.08586430340080448,1.562075212694182,199.75182481751824,92.83211678832117,172.68670309653916,65.7431693989071,146.20034246575344,92.13527397260275,153.5,144.5,125.5,116.5,99.5,144.5
51,2.5500000000000003,0.02847146987915039,-0.3955669403076172,2.070239305496216,-0.17034149169921875,-1.6603562831878662,0.031444549560546875,0.4435332119464874,0.17288395762443542,0.5402666330337524,3.072217074087322,0.08734383898355626,1.561853643077905,199.5732600732601,93.03846153846153,172.47992700729927,65.96715328467154,145.99149659863946,92.328231292517,153.5,144.5,125.5,116.5,99.5,144.5
52,2.6,0.028960227966308594,-0.39528489112854004,2.071559190750122,-0.1729264259338379,-1.6619184017181396,0.03193974494934082,0.44361093640327454,0.17295081913471222,0.5395524501800537,3.0711281854173214,0.08882944924387147,1.5616500918831797,199.4160583941606,93.23357664233576,172.30434782608697,66.125,145.82051282051282,92.591452991453,153.5,144.5,125.5,116.5,99.5,144.5
53,2.6500000000000004,0.029428958892822266,-0.39504170417785645,2.072857618331909,-0.17547345161437988,-1.663456678390503,0.032419443130493164,0.4436742961406708,0.17301079630851746,0.5388661026954651,3.07001670938746,0.09028962114664407,1.561438726813502,199.22283609576428,93.46408839779005,171.99636363636364,66.41272727272727,145.5,92.8078231292517,153.5,144.5,125.5,116.5,99.5,144.5
54,2.7,0.02994561195373535,-0.39470744132995605,2.074096918106079,-0.17797327041625977,-1.6650216579437256,0.03287529945373535,0.44377079606056213,0.17309026420116425,0.5381747484207153,3.0689844209615673,0.09178146012468061,1.5613015294081816,198.91544117647058,93.65625,171.78244972577696,66.47166361974406,145.24701873935265,92.91822827938671,153.5,144.5,125.5,116.5,99.5,144.5
55,2.75,0.030413389205932617,-0.3944413661956787,2.075327157974243,-0.1804506778717041,-1.6665441989898682,0.03337597846984863,0.4438445270061493,0.17315226793289185,0.5375175476074219,3.0678922788185004,0.09322238315993585,1.5610648245894536,198.6818181818182,93.87636363636364,171.52727272727273,66.65636363636364,145.02047781569965,93.160409556314,153.5,144.5,125.5,116.5,99.5,144.5
56,2.8000000000000003,0.030854463577270508,-0.3941941261291504,2.0765230655670166,-0.18287944793701172,-1.6680362224578857,0.03384971618652344,0.44391459226608276,0.1732049286365509,0.5368865132331848,3.0667983836029684,0.0946338749650761,1.5608271724433942,198.50182481751824,94.04744525547446,171.37568058076226,66.88566243194192,144.9,93.31186440677966,153.5,144.5,125.5,116.5,99.5,144.5
57,2.85,0.031296730041503906,-0.3939180374145508,2.077751398086548,-0.1853477954864502,-1.669536828994751,0.03431510925292969,0.44399380683898926,0.17325752973556519,0.5362256765365601,3.065724484425613,0.09605532586132459,1.560598425814544,198.3651376146789,94.26238532110092,171.09838998211092,67.05008944543829,144.62121212121212,93.45622895622895,153.5,144.5,125.5,116.5,99.5,144.5
58,2.9000000000000004,0.031746864318847656,-0.39357542991638184,2.0788462162017822,-0.18767881393432617,-1.671022653579712,0.03474283218383789,0.444105863571167,0.17331622540950775,0.5356101989746094,3.0647237349012095,0.09746542135152263,1.5604195320281364,198.15625,94.44301470588235,170.86799276672696,67.33273056057867,144.35016835016836,93.77609427609427,153.5,144.5,125.5,116.5,99.5,144.5
59,2.95,0.03224992752075195,-0.39322352409362793,2.0799973011016846,-0.19007396697998047,-1.6725523471832275,0.03518033027648926,0.444208562374115,0.17339415848255157,0.5349605083465576,3.063720364583251,0.09891818134767293,1.5602782923374128,197.83882783882783,94.64652014652015,170.59489051094891,67.4051094890511,144.16638370118847,93.89643463497454,153.5,144.5,125.5,116.5,99.5,144.5
60,3.0,0.03265523910522461,-0.3929286003112793,2.081090211868286,-0.1923818588256836,-1.6739933490753174,0.03557944297790527,0.44430413842201233,0.17343677580356598,0.5343654155731201,3.0626942898366964,0.10028254806024138,1.5600782095386792,197.60837887067396,94.96539162112933,170.40510948905109,67.5948905109489,143.89509306260575,94.1472081218274,153.5,144.5,125.5,116.5,99.5,144.5
61,3.0500000000000003,0.033045053482055664,-0.39268040657043457,2.08215069770813,-0.19464445114135742,-1.675410509109497,0.036034584045410156,0.44438278675079346,0.1734744906425476,0.5338090658187866,3.0616272673744125,0.10161633039557129,1.5598022771453293,197.47897623400365,95.05301645338209,170.16756756756757,67.7981981981982,143.6979865771812,94.28020134228188,153.5,144.5,125.5,116.5,99.5,144.5
62,3.1,0.03347420692443848,-0.3923459053039551,2.0831868648529053,-0.19689559936523438,-1.6768572330474854,0.03643536567687988,0.4444918632507324,0.1735280305147171,0.5332286953926086,3.060638260800669,0.10298586288502327,1.559622902274718,197.23443223443223,95.3021978021978,169.9232142857143,68.04285714285714,143.4244966442953,94.54530201342281,153.5,144.5,125.5,116.5,99.5,144.5
63,3.1500000000000004,0.03391265869140625,-0.3920156955718994,2.0842249393463135,-0.19914555549621582,-1.6783068180084229,0.0368499755859375,0.444596529006958,0.17358560860157013,0.5326501727104187,3.059644606656689,0.10435604837522361,1.5594361064985673,197.10845588235293,95.4375,169.68231046931407,68.15162454873646,143.23361344537815,94.72436974789916,153.5,144.5,125.5,116.5,99.5,144.5
64,3.2,0.034334659576416016,-0.3916738033294678,2.0851738452911377,-0.20128941535949707,-1.6797239780426025,0.0372014045715332,0.44471171498298645,0.17363877594470978,0.5321142077445984,3.0586860574186425,0.10570029346558721,1.5592989801446842,196.81535648994515,95.6489945155393,169.53804347826087,68.39492753623189,143.04033613445378,94.89747899159664,153.5,144.5,125.5,116.5,99.5,144.5
65,3.25,0.03476452827453613,-0.39135122299194336,2.0862295627593994,-0.2035539150238037,-1.6811659336090088,0.03762078285217285,0.4448103904724121,0.17369341850280762,0.5315290093421936,3.057684325396872,0.10705981231314143,1.5590933453247537,196.5419708029197,95.95985401459853,169.3406193078324,68.58105646630237,142.81895093062604,95.12521150592217,153.5,144.5,125.5,116.5,99.5,144.5
66,3.3000000000000003,0.03514862060546875,-0.3910861015319824,2.0872671604156494,-0.20578312873840332,-1.6825640201568604,0.03807544708251953,0.44489213824272156,0.17373153567314148,0.5309774875640869,3.0566383788374125,0.10836987129617229,1.558803462522914,196.45173041894353,96.01639344262296,169.08468468468467,68.66486486486487,142.60267111853088,95.23539232053422,153.5,144.5,125.5,116.5,99.5,144.5
67,3.35,0.03554987907409668,-0.3907637596130371,2.0882089138031006,-0.20791077613830566,-1.6839573383331299,0.03845858573913574,0.44499942660331726,0.17377832531929016,0.5304543972015381,3.055662531373667,0.10968350268572355,1.5586062455211411,196.21389396709324,96.26873857404021,168.85996409335726,68.95691202872531,142.31570247933885,95.50578512396694,153.5,144.5,125.5,116.5,99.5,144.5
68,3.4000000000000004,0.03598904609680176,-0.3904249668121338,2.0891830921173096,-0.21008086204528809,-1.6853830814361572,0.03887748718261719,0.4451044499874115,0.1738392859697342,0.5299071669578552,3.054686762021526,0.11102574043624756,1.5584073517150812,196.04066543438077,96.44731977818854,168.6159420289855,69.11413043478261,142.13333333333333,95.625,153.5,144.5,125.5,116.5,99.5,144.5
69,3.45,0.03640556335449219,-0.3900473117828369,2.090080499649048,-0.21216440200805664,-1.6867797374725342,0.03924441337585449,0.44523322582244873,0.1738937497138977,0.529385507106781,3.053764253546208,0.11234407587374115,1.5582427348287102,195.8065693430657,96.62591240875912,168.45207956600362,69.30198915009042,141.95966386554622,95.8672268907563,153.5,144.5,125.5,116.5,99.5,144.5
70,3.5,0.03681302070617676,-0.38971614837646484,2.0910370349884033,-0.21430277824401855,-1.688173532485962,0.03963160514831543,0.4453386664390564,0.17394375801086426,0.5288499593734741,3.0527968023888827,0.11365525739097006,1.5580424607849295,195.53005464480876,96.93806921675774,168.2109090909091,69.49090909090908,141.65551839464882,96.02508361204013,153.5,144.5,125.5,116.5,99.5,144.5
71,3.5500000000000003,0.03720498085021973,-0.3893918991088867,2.091942071914673,-0.2163832187652588,-1.6895439624786377,0.04006814956665039,0.4454456865787506,0.1739894151687622,0.5283464789390564,3.0518221374771515,0.11493752135564442,1.5577759307225114,195.45173041894353,97.01639344262296,168.05415162454872,69.60108303249098,141.5066225165563,96.18046357615894,153.5,144.5,125.5,116.5,99.5,144.5
72,3.6,0.0376131534576416,-0.3890509605407715,2.0928194522857666,-0.21843338012695312,-1.6909196376800537,0.04047393798828125,0.4455576539039612,0.17404240369796753,0.5278507471084595,3.05086995085731,0.11622813822649042,1.5575566115064443,195.21978021978023,97.24542124542124,167.7409420289855,69.81884057971014,141.2565789473684,96.44901315789474,153.5,144.5,125.5,116.5,99.5,144.5
73,3.6500000000000004,0.03800034523010254,-0.3887045383453369,2.0936357975006104,-0.22040414810180664,-1.692262887954712,0.04082083702087402,0.4456777274608612,0.1740889698266983,0.5273853540420532,3.049947798539915,0.11749158991756074,1.5573781312071364,194.97037037037038,97.45185185185186,167.55797101449275,70.07246376811594,141.0549084858569,96.54076539101497,153.5,144.5,125.5,116.5,99.5,144.5
74,3.7,0.03840351104736328,-0.3883059024810791,2.094492197036743,-0.22243499755859375,-1.693631887435913,0.0411992073059082,0.445813924074173,0.17414100468158722,0.5268768668174744,3.04905154981801,0.11877851123442237,1.5571829751812216,194.8065693430657,97.62591240875912,167.45108695652175,70.2336956521739,140.8391376451078,96.7910447761194,153.5,144.5,125.5,116.5,99.5,144.5
75,3.75,0.03883647918701172,-0.3879570960998535,2.095405340194702,-0.22452402114868164,-1.6950266361236572,0.04164695739746094,0.4459197521209717,0.17420382797718048,0.5263584852218628,3.048093309873741,0.12008109958780797,1.556938010842639,194.52102376599635,97.90493601462524,167.1480144404332,70.47292418772564,140.56291390728478,96.96026490066225,153.5,144.5,125.5,116.5,99.5,144.5
76,3.8000000000000003,0.03924989700317383,-0.3875763416290283,2.0962636470794678,-0.22655272483825684,-1.696397066116333,0.04207968711853027,0.44604459404945374,0.1742609441280365,0.5258569121360779,3.0471736449643427,0.12136154302467543,1.5566923147745806,194.41712204007285,97.9872495446266,166.96557971014494,70.51449275362319,140.4662273476112,97.12685337726523,153.5,144.5,125.5,116.5,99.5,144.5
77,3.85,0.039620161056518555,-0.38722896575927734,2.097057580947876,-0.22848916053771973,-1.6977150440216064,0.042439937591552734,0.4461649954319,0.1743030697107315,0.5254033207893372,3.0462585791313317,0.12259541968281104,1.5564782698753346,194.21389396709324,98.22120658135283,166.70471014492753,70.7373188405797,140.20491803278688,97.3672131147541,153.5,144.5,125.5,116.5,99.5,144.5
78,3.9000000000000004,0.039995670318603516,-0.38686633110046387,2.0978081226348877,-0.23037481307983398,-1.6990253925323486,0.04278397560119629,0.4462924003601074,0.17434844374656677,0.5249660015106201,3.0453678505565405,0.1238236982340839,1.5562870778724653,193.96857670979668,98.42698706099816,166.4882459312839,70.97830018083182,139.9983498349835,97.51980198019803,153.5,144.5,125.5,116.5,99.5,144.5
79,3.95,0.040374040603637695,-0.3864724636077881,2.098576784133911,-0.23228693008422852,-1.700343370437622,0.04313158988952637,0.44643038511276245,0.17439523339271545,0.5245057940483093,3.0444983983896408,0.12506019975665447,1.5560953094377235,193.82234432234432,98.58424908424908,166.43297101449275,71.13586956521739,139.7549019607843,97.64869281045752,153.5,144.5,125.5,116.5,99.5,144.5
80,4.0,0.040819406509399414,-0.38608217239379883,2.0994207859039307,-0.2342972755432129,-1.7017266750335693,0.04360389709472656,0.4465509057044983,0.1744663119316101,0.524008572101593,3.043580413092472,0.1263462038687003,1.5558334488592809,193.52372262773721,98.81021897810218,166.14909090909092,71.40181818181819,139.5559210526316,97.87993421052632,153.5,144.5,125.5,116.5,99.5,144.5
81,4.05,0.041236162185668945,-0.3856828212738037,2.100276231765747,-0.2363138198852539,-1.7030885219573975,0.04403281211853027,0.4466773569583893,0.17452667653560638,0.5235000848770142,3.042682262723045,0.12761527098824538,1.5555878454506407,193.44444444444446,98.97085610200364,165.91304347826087,71.46739130434783,139.4316309719934,98.1004942339374,153.5,144.5,125.5,116.5,99.5,144.5
82,4.1000000000000005,0.041596412658691406,-0.38530993461608887,2.1009886264801025,-0.2381439208984375,-1.7043707370758057,0.0443577766418457,0.44680964946746826,0.17456863820552826,0.5230786204338074,3.0418177919634637,0.12881525259478854,1.5553980827029754,193.27422303473492,99.11517367458866,165.70833333333334,71.6159420289855,139.21803278688526,98.33114754098361,153.5,144.5,125.5,116.5,99.5,144.5
83,4.15,0.04196333885192871,-0.38495564460754395,2.1016952991485596,-0.2399592399597168,-1.7056500911712646,0.04467368125915527,0.4469326138496399,0.1746138334274292,0.5226679444313049,3.040944085068511,0.13001222444910648,1.555221279747567,193.03308823529412,99.36948529411765,165.50452079566003,71.85895117540687,138.97545008183306,98.45499181669395,153.5,144.5,125.5,116.5,99.5,144.5
84,4.2,0.042340755462646484,-0.38456177711486816,2.1023991107940674,-0.24178314208984375,-1.7069408893585205,0.04502463340759277,0.44706976413726807,0.1746637225151062,0.5222424268722534,3.04009229645886,0.13121763692024355,1.5550196909060605,192.84375,99.55698529411765,165.37477477477478,71.97297297297297,138.7479674796748,98.60325203252033,153.5,144.5,125.5,116.5,99.5,144.5
85,4.25,0.042726755142211914,-0.3842031955718994,2.1031157970428467,-0.24361705780029297,-1.708235502243042,0.04544520378112793,0.447189599275589,0.17471711337566376,0.5218262672424316,3.039196141936757,0.1324167250951289,1.5547508054866022,192.5565693430657,99.77372262773723,165.07014388489208,72.22841726618705,138.59150326797385,98.81045751633987,153.5,144.5,125.5,116.5,99.5,144.5
86,4.3,0.04306316375732422,-0.38382458686828613,2.103811502456665,-0.24541831016540527,-1.7094871997833252,0.045781850814819336,0.4473254978656769,0.1747523844242096,0.5214099287986755,3.0383452316555943,0.13358266517240913,1.5545229280676185,192.45454545454547,99.92363636363636,164.92057761732852,72.44584837545126,138.41584158415841,98.9983498349835,153.5,144.5,125.5,116.5,99.5,144.5
87,4.3500000000000005,0.04343771934509277,-0.3834035396575928,2.1045124530792236,-0.24723386764526367,-1.7107717990875244,0.04611515998840332,0.44747182726860046,0.17480210959911346,0.5209739208221436,3.0375249601725143,0.13478305857946962,1.554335453935792,192.3186813186813,100.02380952380952,164.72382671480145,72.48916967509025,138.2390243902439,99.20975609756097,153.5,144.5,125.5,116.5,99.5,144.5
88,4.4,0.04379153251647949,-0.3830375671386719,2.105168581008911,-0.2489778995513916,-1.7120192050933838,0.0464177131652832,0.44760021567344666,0.17484544217586517,0.520584762096405,3.036681565839397,0.13594738007424093,1.5541561977946952,192.06398537477148,100.29067641681901,164.46654611211574,72.73056057866185,137.97545008183306,99.45499181669395,153.5,144.5,125.5,116.5,99.5,144.5
89,4.45,0.04414010047912598,-0.3826735019683838,2.105806589126587,-0.25069618225097656,-1.7132551670074463,0.04672360420227051,0.4477292001247406,0.17488770186901093,0.5202054977416992,3.035842796268295,0.13709937618150503,1.5539684271461776,191.86162361623616,100.5129151291513,164.42314647377938,72.9113924050633,137.75244299674267,99.5456026058632,153.5,144.5,125.5,116.5,99.5,144.5
90,4.5,0.04452872276306152,-0.38231754302978516,2.106524705886841,-0.2525193691253662,-1.714538812637329,0.04717206954956055,0.44784215092658997,0.1749439388513565,0.5197885632514954,3.0349470429672025,0.13828114331944227,1.5536667949315985,191.65018315018315,100.63553113553114,164.16157989228006,73.04129263913823,137.58116883116884,99.74188311688312,153.5,144.5,125.5,116.5,99.5,144.5
91,4.55,0.044885873794555664,-0.3819758892059326,2.1072142124176025,-0.25429511070251465,-1.715785264968872,0.04755520820617676,0.44795548915863037,0.1749892383813858,0.519392192363739,3.0340652217513338,0.13943240885420807,1.5534009758820932,191.4464609800363,100.90018148820327,163.90322580645162,73.27240143369175,137.4189852700491,99.85597381342062,153.5,144.5,125.5,116.5,99.5,144.5
92,4.6000000000000005,0.045205116271972656,-0.3815786838531494,2.107814073562622,-0.25597119331359863,-1.7169907093048096,0.047879695892333984,0.4481033384799957,0.17502249777317047,0.5190190076828003,3.03326012094485,0.14055148330810527,1.553167640472343,191.3351548269581,100.97632058287796,163.7409420289855,73.44565217391305,137.24837662337663,100.15746753246754,153.5,144.5,125.5,116.5,99.5,144.5
93,4.65,0.04555797576904297,-0.38120007514953613,2.108459234237671,-0.2576901912689209,-1.7182228565216064,0.048182010650634766,0.44823357462882996,0.17506763339042664,0.5186290740966797,3.0324385301895465,0.14169832804291058,1.5529834532131812,191.14625228519196,101.19926873857403,163.56805807622504,73.60072595281306,137.06980519480518,100.37175324675324,153.5,144.5,125.5,116.5,99.5,144.5
94,4.7,0.04588913917541504,-0.3808588981628418,2.1090853214263916,-0.25937438011169434,-1.7194273471832275,0.04849362373352051,0.44835203886032104,0.17510545253753662,0.5182650089263916,3.031594550438757,0.14281409377515955,1.552766234542101,190.96500920810314,101.37753222836096,163.41906474820144,73.80035971223022,136.77035830618894,100.46579804560261,153.5,144.5,125.5,116.5,99.5,144.5
95,4.75,0.04628634452819824,-0.38046789169311523,2.1097419261932373,-0.26111531257629395,-1.720693826675415,0.04889345169067383,0.44847819209098816,0.17516838014125824,0.5178657174110413,3.0307562796866305,0.14398319908665658,1.5525216381057463,190.76427255985266,101.57458563535911,163.17594254937163,73.9048473967684,136.64573268921094,100.61835748792271,153.5,144.5,125.5,116.5,99.5,144.5
96,4.800000000000001,0.046613454818725586,-0.38010382652282715,2.1103107929229736,-0.26273560523986816,-1.7218821048736572,0.049224853515625,0.44860967993736267,0.17520682513713837,0.5175225138664246,3.0299380111404064,0.14508106091451464,1.5522831969228268,190.53564899451553,101.76051188299817,162.89964157706092,74.15232974910394,136.44878048780487,100.75447154471544,153.5,144.5,125.5,116.5,99.5,144.5
97,4.8500000000000005,0.04693412780761719,-0.37967514991760254,2.110852003097534,-0.2643313407897949,-1.7230651378631592,0.04950141906738281,0.44877001643180847,0.17524391412734985,0.5171661972999573,3.0291885201723607,0.14618300420436045,1.5521007925769978,190.42363636363638,101.89272727272727,162.8,74.37117117117117,136.30856219709207,100.96768982229402,153.5,144.5,125.5,116.5,99.5,144.5
98,4.9,0.04729175567626953,-0.37923121452331543,2.11145281791687,-0.26600027084350586,-1.7242882251739502,0.04979538917541504,0.44892561435699463,0.17529407143592834,0.5167721509933472,3.0284352939069312,0.14732330191445234,1.551932592262204,190.2961608775137,102.0420475319927,162.6551724137931,74.46098003629764,136.1359223300971,101.21197411003236,153.5,144.5,125.5,116.5,99.5,144.5
99,4.95,0.04764270782470703,-0.3788485527038574,2.1120388507843018,-0.26763272285461426,-1.7254917621612549,0.05009722709655762,0.4490567743778229,0.17534224689006805,0.5164112448692322,3.0276400219305466,0.14843849481450594,1.5517438692536225,190.02018348623852,102.26422018348624,162.3996383363472,74.69258589511755,135.81847649918961,101.3517017828201,153.5,144.5,125.5,116.5,99.5,144.5
100,5.0,0.048020362854003906,-0.37842702865600586,2.112630605697632,-0.2692852020263672,-1.7267191410064697,0.05043816566467285,0.4491984248161316,0.1754010021686554,0.5160316824913025,3.0268625756259193,0.14957468685449615,1.5515418444042013,189.86740331491714,102.43093922651934,162.29084380610414,74.83123877917414,135.60610932475885,101.5032154340836,153.5,144.5,125.5,116.5,99.5,144.5
101,5.050000000000001,0.048424720764160156,-0.3780190944671631,2.1132471561431885,-0.2709674835205078,-1.7279689311981201,0.050844669342041016,0.4493280053138733,0.17546987533569336,0.5156449675559998,3.0260527333041716,0.15072399175783252,1.5512931145824267,189.66605504587156,102.61834862385321,162.08944543828264,74.97137745974955,135.5216,101.6064,153.5,144.5,125.5,116.5,99.5,144.5
102,5.1000000000000005,0.048767805099487305,-0.377612829208374,2.11381459236145,-0.2725815773010254,-1.7291595935821533,0.051195621490478516,0.4494696855545044,0.1755170226097107,0.5152845978736877,3.025271103561698,0.15182091939262896,1.551047436984773,189.47723132969034,102.86703096539162,161.86428571428573,75.16428571428571,135.35864297253636,101.79644588045234,153.5,144.5,125.5,116.5,99.5,144.5
103,5.15,0.04907584190368652,-0.37720537185668945,2.1143171787261963,-0.2741115093231201,-1.7303073406219482,0.05150914192199707,0.449621319770813,0.175552636384964,0.5149566531181335,3.024518258269176,0.15287970926841177,1.550810607367357,189.33151183970855,102.92896174863388,161.68297101449275,75.3768115942029,135.21543408360128,102.05144694533762,153.5,144.5,125.5,116.5,99.5,144.5
104,5.2,0.04941105842590332,-0.3767828941345215,2.114882707595825,-0.2757132053375244,-1.7314865589141846,0.05177903175354004,0.44976887106895447,0.1755971610546112,0.514588475227356,3.0237754151775538,0.15397472827484526,1.55064027240792,189.21978021978023,103.11721611721612,161.53956834532374,75.47841726618705,134.96331738437001,102.2535885167464,153.5,144.5,125.5,116.5,99.5,144.5
105,5.25,0.049770355224609375,-0.3763918876647949,2.1154110431671143,-0.2772643566131592,-1.7326691150665283,0.05209922790527344,0.4499017894268036,0.17565229535102844,0.5142542719841003,3.023005076627468,0.15506562771786647,1.5504388586538969,188.96146788990825,103.29724770642201,161.3768115942029,75.68297101449275,134.69243156199678,102.3671497584541,153.5,144.5,125.5,116.5,99.5,144.5
106,5.300000000000001,0.05016589164733887,-0.37598156929016113,2.11600661277771,-0.27890706062316895,-1.7338955402374268,0.05250096321105957,0.4500313103199005,0.17572027444839478,0.5138771533966064,3.0222127006325397,0.15618925108688447,1.550184161107066,188.82783882783883,103.48351648351648,161.17857142857142,75.82142857142857,134.56389776357827,102.54153354632588,153.5,144.5,125.5,116.5,99.5,144.5
107,5.3500000000000005,0.05052924156188965,-0.3755762577056885,2.1165316104888916,-0.2804555892944336,-1.7350780963897705,0.05285143852233887,0.4501681923866272,0.1757778823375702,0.5135380029678345,3.0214487408371746,0.15727602459343173,1.549954673225546,188.60146252285193,103.6928702010969,161.0036036036036,76.04684684684685,134.4544,102.6176,153.5,144.5,125.5,116.5,99.5,144.5
108,5.4,0.05086398124694824,-0.37513089179992676,2.1170594692230225,-0.2820141315460205,-1.7362453937530518,0.05318570137023926,0.4503253400325775,0.1758250594139099,0.5131805539131165,3.020720483438445,0.15835090735802312,1.5497187979207308,188.47723132969034,103.86703096539162,160.82142857142858,76.17857142857143,134.25521669341893,102.80417335473516,153.5,144.5,125.5,116.5,99.5,144.5
109,5.45,0.05120229721069336,-0.3746917247772217,2.117539644241333,-0.2835099697113037,-1.7374002933502197,0.053514719009399414,0.4504821002483368,0.17587511241436005,0.5128507018089294,3.020001979853357,0.15941447395129008,1.5494932083489477,188.31386861313868,104.02737226277372,160.6365280289331,76.3381555153707,134.152,103.1056,153.5,144.5,125.5,116.5,99.5,144.5
110,5.5,0.05150628089904785,-0.37430882453918457,2.1180202960968018,-0.28498125076293945,-1.7385156154632568,0.05379080772399902,0.4506204128265381,0.17591188848018646,0.5125430226325989,3.019262054085829,0.16044201080884096,1.5492842479545477,188.18014705882354,104.12867647058823,160.44504504504505,76.53873873873874,133.86666666666667,103.24603174603175,153.5,144.5,125.5,116.5,99.5,144.5
111,5.550000000000001,0.05188393592834473,-0.3738574981689453,2.1185190677642822,-0.28649353981018066,-1.7396986484527588,0.0540921688079834,0.45077258348464966,0.17597734928131104,0.5121973752975464,3.0185581307962703,0.16153606064692086,1.5491215111976524,187.96146788990825,104.29724770642201,160.32972972972973,76.63783783783784,133.60063897763578,103.39776357827476,153.5,144.5,125.5,116.5,99.5,144.5
112,5.6000000000000005,0.052285194396972656,-0.3734569549560547,2.1190683841705322,-0.28806114196777344,-1.7409021854400635,0.05450081825256348,0.45089587569236755,0.17605087161064148,0.5118476748466492,3.0177782425228235,0.16263302021818435,1.5488612307228447,187.7783882783883,104.50549450549451,160.15921288014312,76.83363148479428,133.5015873015873,103.54285714285714,153.5,144.5,125.5,116.5,99.5,144.5
113,5.65,0.052652597427368164,-0.3730475902557373,2.1195976734161377,-0.28960108757019043,-1.7420752048492432,0.054878950119018555,0.45102864503860474,0.17611226439476013,0.5115035772323608,3.017020870835853,0.1637034056778801,1.5486027997947271,187.60146252285193,104.6928702010969,159.94623655913978,76.97311827956989,133.44089456869008,103.59904153354633,153.5,144.5,125.5,116.5,99.5,144.5
114,5.7,0.05295372009277344,-0.37261414527893066,2.120043992996216,-0.29103755950927734,-1.7431809902191162,0.055176496505737305,0.4511881172657013,0.1761506199836731,0.5111919641494751,3.016325886705217,0.16471993761162412,1.5483731928196167,187.47723132969034,104.86703096539162,159.82142857142858,77.17857142857143,133.1952380952381,103.82857142857142,153.5,144.5,125.5,116.5,99.5,144.5
115,5.75,0.05330991744995117,-0.37217259407043457,2.1205246448516846,-0.29251980781555176,-1.7443358898162842,0.05553150177001953,0.4513387382030487,0.17620988190174103,0.5108597278594971,3.015613406063714,0.16577682013044207,1.5481328276623247,187.30601092896174,105.00364298724955,159.5974729241877,77.28339350180505,133.01261829652998,104.04731861198738,153.5,144.5,125.5,116.5,99.5,144.5
116,5.800000000000001,0.05364680290222168,-0.3717668056488037,2.1209700107574463,-0.2939424514770508,-1.7454569339752197,0.05584979057312012,0.45147934556007385,0.17626257240772247,0.5105603933334351,3.0148963205647332,0.16680374964994563,1.5479106924890023,187.18899082568808,105.15229357798165,159.45126353790613,77.51624548736461,132.86666666666667,104.24603174603175,153.5,144.5,125.5,116.5,99.5,144.5
117,5.8500000000000005,0.05400896072387695,-0.371323823928833,2.1214354038238525,-0.2953951358795166,-1.7466061115264893,0.05615353584289551,0.451629102230072,0.1763250231742859,0.510234534740448,3.0142061493305703,0.16786130895312343,1.5477288035141175,186.96146788990825,105.29724770642201,159.2846846846847,77.62162162162163,132.59170653907495,104.41786283891547,153.5,144.5,125.5,116.5,99.5,144.5
118,5.9,0.05439186096191406,-0.3709218502044678,2.1219398975372314,-0.2968876361846924,-1.7477705478668213,0.056528568267822266,0.4517548084259033,0.17639480531215668,0.5099061727523804,3.0134594323391575,0.168921206581506,1.5474845614355792,186.8,105.49724770642202,159.14642857142857,77.8125,132.5,104.5,153.5,144.5,125.5,116.5,99.5,144.5
119,5.95,0.05475163459777832,-0.37048912048339844,2.1224262714385986,-0.29836273193359375,-1.7489173412322998,0.056890249252319336,0.45189762115478516,0.17645664513111115,0.5095736384391785,3.0127455059917128,0.16996727812445123,1.5472367423021616,186.61721611721612,105.67582417582418,158.9372759856631,77.92831541218638,132.41971383147853,104.60890302066773,153.5,144.5,125.5,116.5,99.5,144.5
120,6.0,0.055048465728759766,-0.37006664276123047,2.1228435039520264,-0.2997429370880127,-1.7499959468841553,0.05718564987182617,0.45205119252204895,0.17649634182453156,0.5092803239822388,3.0120633698010435,0.1709546837313906,1.5470030198619364,186.4618181818182,105.84727272727272,158.81461675579322,78.12299465240642,132.13112164297,104.81516587677726,153.5,144.5,125.5,116.5,99.5,144.5
121,6.050000000000001,0.05541038513183594,-0.36963868141174316,2.1233131885528564,-0.3011934757232666,-1.7511351108551025,0.057570457458496094,0.45219168066978455,0.17655999958515167,0.50895756483078,3.0113472189865216,0.1719891733700668,1.54673285932585,186.34489051094891,105.9543795620438,158.5935251798561,78.23561151079137,131.98439937597504,104.996879875195,153.5,144.5,125.5,116.5,99.5,144.5
122,6.1000000000000005,0.05575895309448242,-0.36920976638793945,2.1237261295318604,-0.3025662899017334,-1.7522470951080322,0.057886362075805664,0.45233869552612305,0.17662066221237183,0.5086649060249329,3.0106662446041015,0.17300576741943566,1.546524319818814,186.24264705882354,106.125,158.5388788426763,78.44484629294756,131.8564668769716,105.16561514195584,153.5,144.5,125.5,116.5,99.5,144.5
123,6.15,0.0561375617980957,-0.36876559257507324,2.1241886615753174,-0.304004430770874,-1.7533962726593018,0.058249711990356445,0.45248207449913025,0.17669165134429932,0.5083394646644592,3.0099719866151133,0.17405303279742662,1.5462924852644975,185.99448529411765,106.23897058823529,158.28339350180505,78.59747292418773,131.58028616852147,105.39109697933227,153.5,144.5,125.5,116.5,99.5,144.5
124,6.2,0.05653214454650879,-0.36833834648132324,2.124680757522583,-0.30547118186950684,-1.7545559406280518,0.058614492416381836,0.4526127278804779,0.17676840722560883,0.5080052018165588,3.009259815867693,0.17510855761215122,1.546068658169251,185.9040590405904,106.41143911439114,158.16785714285714,78.6875,131.5,105.5,153.5,144.5,125.5,116.5,99.5,144.5
125,6.25,0.05689597129821777,-0.36792659759521484,2.1251113414764404,-0.3068544864654541,-1.7556746006011963,0.05896162986755371,0.4527463912963867,0.1768350452184677,0.5077095031738281,3.008559048886804,0.1761251584556608,1.5458376022083615,185.6648250460405,106.65561694290976,157.97853309481218,78.85688729874776,131.44303797468353,105.55696202531645,153.5,144.5,125.5,116.5,99.5,144.5
126,6.300000000000001,0.05718350410461426,-0.3675110340118408,2.1254937648773193,-0.30817317962646484,-1.7567226886749268,0.059266090393066406,0.4528982937335968,0.17687422037124634,0.5074362754821777,3.007891425466816,0.1770787780980385,1.5455846801781215,185.55210237659963,106.80987202925046,157.81494661921707,79.06583629893238,131.1808176100629,105.81446540880503,153.5,144.5,125.5,116.5,99.5,144.5
127,6.3500000000000005,0.05752897262573242,-0.3670787811279297,2.1258938312530518,-0.30951738357543945,-1.757819414138794,0.05959939956665039,0.453044593334198,0.17693570256233215,0.5071464776992798,3.0072230488785157,0.17807657165847912,1.5453545170815481,185.37818181818182,106.91090909090909,157.60611510791367,79.19064748201438,131.03110419906687,105.93468118195956,153.5,144.5,125.5,116.5,99.5,144.5
128,6.4,0.057862043380737305,-0.3666348457336426,2.126277208328247,-0.310837984085083,-1.7589004039764404,0.0598909854888916,0.4531986117362976,0.17699311673641205,0.5068603754043579,3.0065800468981463,0.17906579087463526,1.5451576530124547,185.26739926739927,107.08608058608058,157.56521739130434,79.31521739130434,130.87598116169545,106.12401883830455,153.5,144.5,125.5,116.5,99.5,144.5
129,6.45,0.05821394920349121,-0.36623454093933105,2.1266987323760986,-0.3121962547302246,-1.7599976062774658,0.06026053428649902,0.4533279836177826,0.1770569533109665,0.5065733194351196,3.0058769453411123,0.18005609886897134,1.5448899409320078,185.03321033210332,107.21586715867159,157.3496376811594,79.54710144927536,130.65934065934067,106.31240188383046,153.5,144.5,125.5,116.5,99.5,144.5
130,6.5,0.058586835861206055,-0.36580443382263184,2.1271755695343018,-0.3136286735534668,-1.761124849319458,0.06062650680541992,0.4534604251384735,0.1771279275417328,0.5062440633773804,3.00518336548051,0.18107699349372702,1.5446437939935103,184.95580110497238,107.34254143646409,157.19210053859965,79.63016157989227,130.5,106.5,153.5,144.5,125.5,116.5,99.5,144.5
131,6.550000000000001,0.0589604377746582,-0.36539673805236816,2.1275994777679443,-0.3149850368499756,-1.7622334957122803,0.06097292900085449,0.4535875916481018,0.17720073461532593,0.505951464176178,3.004494404323609,0.18208166296068584,1.5444195038322623,184.78860294117646,107.56617647058823,157.01247771836006,79.79322638146168,130.43375394321765,106.51104100946372,153.5,144.5,125.5,116.5,99.5,144.5
132,6.6000000000000005,0.0592806339263916,-0.3649466037750244,2.1279423236846924,-0.31624698638916016,-1.7632882595062256,0.06126999855041504,0.4537472724914551,0.17725558578968048,0.5056833028793335,3.003873451417528,0.18304351473655317,1.5442074753751318,184.61721611721612,107.72344322344323,156.87612208258528,79.93357271095152,130.28012519561815,106.68544600938966,153.5,144.5,125.5,116.5,99.5,144.5
133,6.65,0.05959606170654297,-0.3645210266113281,2.128302812576294,-0.3175222873687744,-1.7643373012542725,0.0615849494934082,0.45389556884765625,0.17730861902236938,0.5054152011871338,3.0032290950941745,0.18399497846515572,1.5439685371836942,184.47540983606558,107.87249544626594,156.63101604278074,80.08021390374331,130.05772230889235,106.90327613104525,153.5,144.5,125.5,116.5,99.5,144.5
134,6.7,0.059917449951171875,-0.3640933036804199,2.1286098957061768,-0.3187253475189209,-1.7653734683990479,0.0618593692779541,0.4540475606918335,0.17736555635929108,0.5051736831665039,3.0026132284173657,0.18494115135627684,1.5437809255882853,184.3510054844607,108.0073126142596,156.5935251798561,80.23561151079137,129.94556765163298,107.05443234836703,153.5,144.5,125.5,116.5,99.5,144.5
135,6.75,0.0602567195892334,-0.3636786937713623,2.128985643386841,-0.32001209259033203,-1.7664377689361572,0.06219172477722168,0.4541848599910736,0.1774280071258545,0.5049023628234863,3.001955117642948,0.1859032605204616,1.5435432084043577,184.23302752293577,108.14678899082568,156.45009074410163,80.42649727767694,129.7429906542056,107.21806853582555,153.5,144.5,125.5,116.5,99.5,144.5
136,6.800000000000001,0.060634613037109375,-0.36322999000549316,2.129375696182251,-0.3213236331939697,-1.76753830909729,0.06254196166992188,0.45432785153388977,0.17750531435012817,0.5046098232269287,3.001312095806927,0.18690125377204436,1.5433229764819614,184.01657458563537,108.23204419889503,156.25945945945946,80.59279279279279,129.55572998430142,107.42857142857143,153.5,144.5,125.5,116.5,99.5,144.5
137,6.8500000000000005,0.06102299690246582,-0.3627915382385254,2.129828691482544,-0.3227076530456543,-1.7686564922332764,0.06288695335388184,0.4544583857059479,0.1775851845741272,0.504287600517273,3.0006486827992216,0.18791385378200842,1.5431114660586194,183.92633517495395,108.41436464088397,156.08928571428572,80.61785714285715,129.44724409448818,107.45984251968504,153.5,144.5,125.5,116.5,99.5,144.5
138,6.9,0.06136488914489746,-0.3623645305633545,2.1301448345184326,-0.3239140510559082,-1.769702672958374,0.06319522857666016,0.45460382103919983,0.17765119671821594,0.5040412545204163,3.000026977051232,0.18886316780901302,1.5429049188465163,183.70902394106815,108.67771639042357,155.95357142857142,80.79285714285714,129.34165366614664,107.63494539781591,153.5,144.5,125.5,116.5,99.5,144.5
139,6.95,0.0616610050201416,-0.36197972297668457,2.1304562091827393,-0.3251001834869385,-1.7707035541534424,0.06351923942565918,0.4547397196292877,0.17770014703273773,0.5038148164749146,2.9993784783087416,0.18976205764897025,1.542637438665208,183.57769652650822,108.81352833638026,155.80249110320284,80.98042704626334,129.13664596273293,107.8167701863354,153.5,144.5,125.5,116.5,99.5,144.5
140,7.0,0.06199193000793457,-0.3615715503692627,2.1307871341705322,-0.32631564140319824,-1.771737813949585,0.06385970115661621,0.45487675070762634,0.1777622401714325,0.5035678148269653,2.9987365397655417,0.19069228251828318,1.5423845985437006,183.42,108.90545454545455,155.57321428571427,81.10357142857143,129.0,108.0,153.5,144.5,125.5,116.5,99.5,144.5
141,7.050000000000001,0.06230473518371582,-0.36116814613342285,2.1310908794403076,-0.3274867534637451,-1.7727453708648682,0.06413030624389648,0.45501720905303955,0.17781828343868256,0.5033362507820129,2.998121898297995,0.19160686250994496,1.5421889376086415,183.2961608775137,109.03839122486289,155.55755395683454,81.23021582733813,128.88699690402476,108.06811145510837,153.5,144.5,125.5,116.5,99.5,144.5
142,7.1000000000000005,0.06263518333435059,-0.3607652187347412,2.1314547061920166,-0.3287367820739746,-1.7737820148468018,0.06447911262512207,0.45514822006225586,0.17787989974021912,0.5030741691589355,2.997468507748121,0.19253653706700538,1.5419231268588867,183.1608133086876,109.17375231053605,155.3847549909256,81.46642468239564,128.69206842923793,108.30171073094868,153.5,144.5,125.5,116.5,99.5,144.5
143,7.15,0.06300163269042969,-0.36032915115356445,2.131850481033325,-0.3300325870513916,-1.7748568058013916,0.0648186206817627,0.45528316497802734,0.17795495688915253,0.5027810335159302,2.9968334123185145,0.19350691265111652,1.5416999817056092,183.01476014760146,109.25645756457564,155.17235188509875,81.56912028725314,128.5305164319249,108.43818466353677,153.5,144.5,125.5,116.5,99.5,144.5
144,7.2,0.06336259841918945,-0.35988688468933105,2.132216691970825,-0.33128786087036133,-1.7759172916412354,0.06511139869689941,0.4554232358932495,0.17802897095680237,0.5025003552436829,2.996224618234982,0.19447043349387133,1.541522231203606,182.90555555555557,109.48333333333333,155.04634581105168,81.63636363636364,128.4294670846395,108.50940438871473,153.5,144.5,125.5,116.5,99.5,144.5
145,7.25,0.06368136405944824,-0.35947203636169434,2.132486581802368,-0.3324122428894043,-1.776916742324829,0.06540417671203613,0.45556774735450745,0.17808960378170013,0.5022807717323303,2.995627395712726,0.19537348024413473,1.5413119419592218,182.72527472527472,109.74908424908425,154.9144385026738,81.83778966131908,128.28062015503875,108.66821705426356,153.5,144.5,125.5,116.5,99.5,144.5
146,7.300000000000001,0.06398463249206543,-0.35906410217285156,2.132744073867798,-0.33351707458496094,-1.7778985500335693,0.06572628021240234,0.45571279525756836,0.17814520001411438,0.5020705461502075,2.995025570916367,0.1962550228347559,1.5410582321909303,182.57769652650822,109.81352833638026,154.77580071174378,81.99466192170819,128.11455108359132,108.8467492260062,153.5,144.5,125.5,116.5,99.5,144.5
147,7.3500000000000005,0.0643155574798584,-0.35864710807800293,2.1330606937408447,-0.33469581604003906,-1.7789146900177002,0.06605315208435059,0.45585083961486816,0.17821004986763,0.5018253326416016,2.994412330089863,0.19716823250364157,1.540819403998071,182.43533697632057,109.92531876138433,154.57321428571427,82.10357142857143,127.97839506172839,108.99382716049382,153.5,144.5,125.5,116.5,99.5,144.5
148,7.4,0.06462955474853516,-0.3582336902618408,2.133338212966919,-0.3358190059661865,-1.7799041271209717,0.0663306713104248,0.4559934437274933,0.1782696396112442,0.5016010999679565,2.993824641519501,0.19806283318121942,1.5406196310953006,182.3045871559633,110.06605504587156,154.5268817204301,82.19175627240143,127.88888888888889,109.11111111111111,153.5,144.5,125.5,116.5,99.5,144.5
149,7.45,0.06493306159973145,-0.3578605651855469,2.1336452960968018,-0.33696937561035156,-1.7808845043182373,0.06665587425231934,0.4561184346675873,0.1783246397972107,0.5013787746429443,2.993188349267079,0.19893798555354608,1.5403536648322587,182.14074074074074,110.18518518518519,154.33873873873873,82.3981981981982,127.66046511627907,109.30852713178295,153.5,144.5,125.5,116.5,99.5,144.5
150,7.5,0.06527352333068848,-0.3574564456939697,2.133986711502075,-0.3381674289703369,-1.7819044589996338,0.0669853687286377,0.45624589920043945,0.17839358747005463,0.5011255145072937,2.9925640122249986,0.19985221408105594,1.540117050043639,182.03327171903882,110.2735674676525,154.1323792486583,82.5438282647585,127.509375,109.4296875,153.5,144.5,125.5,116.5,99.5,144.5
151,7.550000000000001,0.06562185287475586,-0.3570082187652588,2.134289026260376,-0.3393230438232422,-1.7829248905181885,0.06725525856018066,0.4563923180103302,0.1784665584564209,0.5008729696273804,2.9919991323385133,0.20078032752616426,1.539955920443555,181.92081031307552,110.55616942909761,154.03024911032028,82.61743772241992,127.40746500777605,109.56920684292379,153.5,144.5,125.5,116.5,99.5,144.5
