,t,q_1,q_2,q_3,q_4,q_5,q_6,camera_x,camera_y,camera_z,camera_roll,camera_pitch,camera_yaw,f_1,f_2,f_3,f_4,f_5,f_6,desired_f_1,desired_f_2,desired_f_3,desired_f_4,desired_f_5,desired_f_6
0,0.0,9.298324584960938e-06,-0.39263248443603516,1.963494062423706,7.224082946777344e-05,-1.5707952976226807,-2.384185791015625e-07,0.44632619619369507,0.1690625101327896,0.5921626687049866,-3.1413076666281032,0.00012220975734266807,1.5708383127210188,212.0,82.81939163498099,186.06118546845124,56.89866156787763,160.08365019011407,82.79657794676807,153.5,144.5,125.5,116.5,99.5,144.5
1,0.05,0.00041556358337402344,-0.38979482650756836,1.9646084308624268,-0.0003345012664794922,-1.5699450969696045,-0.0007717609405517578,0.44751304388046265,0.16932594776153564,0.5901685357093811,-3.1377478638080296,-0.0007276127724340306,1.5720129241388827,212.62781954887217,82.5,186.61380597014926,56.38619402985075,160.5,82.44029850746269,153.5,144.5,125.5,116.5,99.5,144.5
2,0.1,-0.0008962154388427734,-0.38982534408569336,1.9639050960540771,-0.0015711784362792969,-1.571091890335083,-0.0021779537200927734,0.44791269302368164,0.16860736906528473,0.5908015966415405,-3.1397241520803254,0.00041250402968650267,1.5721094661144313,212.06805293005672,83.18336483931947,186.1344696969697,57.04356060606061,159.9296577946768,83.07794676806084,153.5,144.5,125.5,116.5,99.5,144.5
3,0.15000000000000002,-0.0014979839324951172,-0.389862060546875,1.9636437892913818,-0.0019567012786865234,-1.5716488361358643,-0.0026445388793945312,0.44805440306663513,0.16827602684497833,0.5910437107086182,-3.140412803439236,0.0009690256874008735,1.571975208696996,211.7245283018868,83.32830188679246,185.7406015037594,57.2593984962406,159.70943396226414,83.29056603773584,153.5,144.5,125.5,116.5,99.5,144.5
4,0.2,-0.002062559127807617,-0.3897824287414551,1.9633934497833252,-0.0024285316467285156,-1.5721409320831299,-0.003217935562133789,0.4482569694519043,0.16796888411045074,0.5912308692932129,-3.141054015940741,0.0014640209271729076,1.5719841661438747,211.5,83.54681647940075,185.5,57.5,159.5,83.5,153.5,144.5,125.5,116.5,99.5,144.5
5,0.25,-0.002595186233520508,-0.3896756172180176,1.9631693363189697,-0.0028738975524902344,-1.572601556777954,-0.003765106201171875,0.44846194982528687,0.16767850518226624,0.5913844108581543,3.141572118992086,0.0019262722027314702,1.5719979042699588,211.29056603773586,83.70943396226416,185.3119092627599,57.69754253308128,159.3289224952741,83.65217391304348,153.5,144.5,125.5,116.5,99.5,144.5
6,0.30000000000000004,-0.003134489059448242,-0.38950371742248535,1.9629709720611572,-0.003331422805786133,-1.5730574131011963,-0.004332304000854492,0.44869673252105713,0.1673852950334549,0.5914930105209351,3.1410918548362345,0.002384809772904017,1.5720245373007995,211.02303262955854,83.9193857965451,185.10476190476192,57.89523809523809,159.1254752851711,83.79087452471482,153.5,144.5,125.5,116.5,99.5,144.5
7,0.35000000000000003,-0.0037147998809814453,-0.38927507400512695,1.9628026485443115,-0.003783702850341797,-1.573547601699829,-0.004899024963378906,0.44896066188812256,0.16706974804401398,0.5915555953979492,3.1407040292176913,0.002876821520383228,1.5720096257345302,210.7267552182163,84.20303605313093,184.81214421252372,58.18785578747628,158.78095238095239,84.10285714285715,153.5,144.5,125.5,116.5,99.5,144.5
8,0.4,-0.004207134246826172,-0.38902878761291504,1.9626686573028564,-0.004185199737548828,-1.5739548206329346,-0.005411624908447266,0.44920915365219116,0.16680240631103516,0.5915803909301758,3.1404197242233876,0.003285828396166233,1.5720284792959536,210.59013282732448,84.3111954459203,184.66223908918406,58.30360531309298,158.69128787878788,84.24621212121212,153.5,144.5,125.5,116.5,99.5,144.5
9,0.45,-0.004679203033447266,-0.3887968063354492,1.9625236988067627,-0.004595518112182617,-1.5743420124053955,-0.005932331085205078,0.44944998621940613,0.16654612123966217,0.5916210412979126,3.140099814665801,0.003676164375968077,1.572075958819882,210.38490566037737,84.5,184.5,58.5,158.5,84.38490566037736,153.5,144.5,125.5,116.5,99.5,144.5
10,0.5,-0.005170106887817383,-0.3885209560394287,1.9624054431915283,-0.0049932003021240234,-1.5747435092926025,-0.00644373893737793,0.4497096538543701,0.16627952456474304,0.5916218757629395,3.1398643914009203,0.004080254563599888,1.5720950454971765,210.21606118546845,84.5831739961759,184.30170777988616,58.614800759013285,158.38490566037737,84.5,153.5,144.5,125.5,116.5,99.5,144.5
11,0.55,-0.005650758743286133,-0.3882110118865967,1.962284803390503,-0.005426883697509766,-1.575124979019165,-0.006998538970947266,0.4499877095222473,0.1660187840461731,0.5916125178337097,3.1396257943860997,0.004464532613535423,1.5721674274697823,210.0,84.74904214559388,184.15267175572518,58.73854961832061,158.16603053435114,84.62786259541984,153.5,144.5,125.5,116.5,99.5,144.5
12,0.6000000000000001,-0.0061380863189697266,-0.38787221908569336,1.9621870517730713,-0.0058441162109375,-1.5755116939544678,-0.0075376033782958984,0.45027583837509155,0.16575461626052856,0.5915730595588684,3.139455715700891,0.004853302415684998,1.5722173137419557,209.8065134099617,84.89655172413794,183.96360153256705,58.89846743295019,158.0,84.72328244274809,153.5,144.5,125.5,116.5,99.5,144.5
13,0.65,-0.0066487789154052734,-0.387484073638916,1.9621102809906006,-0.006265163421630859,-1.5759141445159912,-0.008086681365966797,0.45058882236480713,0.16547748446464539,0.5914976000785828,3.139352188327673,0.005258010763802974,1.5722541883717795,209.60994263862332,85.01720841300191,183.76099426386233,59.06309751434034,157.78095238095239,84.89714285714285,153.5,144.5,125.5,116.5,99.5,144.5
14,0.7000000000000001,-0.007117033004760742,-0.3870382308959961,1.9620521068572998,-0.0067043304443359375,-1.5762641429901123,-0.008661270141601562,0.4509216248989105,0.16522449254989624,0.5913854837417603,3.139307592103629,0.005609366600818396,1.5723592802460589,209.525,85.18653846153846,183.61950286806882,59.18929254302103,157.60994263862332,85.01720841300191,153.5,144.5,125.5,116.5,99.5,144.5
15,0.75,-0.007550239562988281,-0.38664722442626953,1.9620044231414795,-0.007072925567626953,-1.5765964984893799,-0.009152889251708984,0.4512147903442383,0.16498976945877075,0.5912833213806152,3.1392878094800944,0.005943076936878585,1.5724168567631078,209.40494296577947,85.287072243346,183.52091254752852,59.29847908745247,157.52198852772466,85.10707456978967,153.5,144.5,125.5,116.5,99.5,144.5
16,0.8,-0.007996082305908203,-0.38624024391174316,1.9619605541229248,-0.00744938850402832,-1.5769379138946533,-0.009654045104980469,0.4515172243118286,0.16474781930446625,0.5911718606948853,3.1392812410279882,0.006286042592458319,1.5724714915446811,209.22179732313575,85.43594646271511,183.33648393194707,59.412098298676746,157.39733840304183,85.24144486692015,153.5,144.5,125.5,116.5,99.5,144.5
17,0.8500000000000001,-0.008439302444458008,-0.3858635425567627,1.9619052410125732,-0.007818222045898438,-1.577282190322876,-0.010144472122192383,0.4518057703971863,0.16450680792331696,0.591080904006958,3.1392402150431673,0.0066317255992908745,1.5725176798746183,209.0,85.5,183.21606118546845,59.476099426386234,157.24857685009488,85.37381404174573,153.5,144.5,125.5,116.5,99.5,144.5
18,0.9,-0.00888371467590332,-0.38542795181274414,1.9618504047393799,-0.00824284553527832,-1.5776121616363525,-0.010701417922973633,0.4521274268627167,0.16426575183868408,0.5909692645072937,3.1392041694606854,0.006963195727402474,1.5726290289064087,208.95576923076922,85.61346153846154,183.01151631477927,59.5700575815739,157.0609523809524,85.47809523809524,153.5,144.5,125.5,116.5,99.5,144.5
19,0.9500000000000001,-0.009254932403564453,-0.3850395679473877,1.961803674697876,-0.00860595703125,-1.577883005142212,-0.011186361312866211,0.45240822434425354,0.16406439244747162,0.590865969657898,3.139189170857517,0.007236110524360487,1.5727426987198485,208.83969465648855,85.66221374045801,182.955938697318,59.64942528735632,157.0,85.54389312977099,153.5,144.5,125.5,116.5,99.5,144.5
20,1.0,-0.00964808464050293,-0.3845994472503662,1.9617631435394287,-0.009006023406982422,-1.5781638622283936,-0.01171731948852539,0.4527197480201721,0.1638512760400772,0.5907394289970398,3.1391960625121893,0.007518312193451084,1.5728794403921178,208.63097514340345,85.88910133843213,182.85904761904763,59.8,156.8891013384321,85.63097514340345,153.5,144.5,125.5,116.5,99.5,144.5
21,1.05,-0.010118484497070312,-0.38418126106262207,1.9617302417755127,-0.009371757507324219,-1.5785295963287354,-0.012207984924316406,0.45302844047546387,0.16359449923038483,0.5906142592430115,3.1392238994729613,0.007885008097263356,1.572899057081344,208.52399232245682,85.99424184261036,182.632183908046,59.91379310344828,156.69565217391303,85.7296786389414,153.5,144.5,125.5,116.5,99.5,144.5
22,1.1,-0.010538101196289062,-0.3837578296661377,1.9617111682891846,-0.009714365005493164,-1.5788471698760986,-0.012674570083618164,0.4533276855945587,0.16336582601070404,0.5904740691184998,3.13929364628746,0.00820243463183349,1.572945394795844,208.45192307692307,86.0,182.52399232245682,59.994241842610364,156.5847619047619,85.82285714285715,153.5,144.5,125.5,116.5,99.5,144.5
23,1.1500000000000001,-0.010920286178588867,-0.3832685947418213,1.9617030620574951,-0.010097742080688477,-1.5791127681732178,-0.013191938400268555,0.4536546468734741,0.16315858066082,0.5903011560440063,3.139399206992358,0.008467974033009872,1.5730808737024495,208.36902485659655,86.11089866156787,182.47600767754318,60.005758157389636,156.47809523809525,85.93904761904761,153.5,144.5,125.5,116.5,99.5,144.5
24,1.2000000000000002,-0.011278152465820312,-0.38286280632019043,1.961676836013794,-0.010438203811645508,-1.5793712139129639,-0.013653755187988281,0.45393624901771545,0.16296358406543732,0.5901737213134766,3.1394459692798318,0.00872732241434642,1.5731846511278145,208.2175572519084,86.27099236641222,182.36902485659655,60.11089866156788,156.40804597701148,86.0,153.5,144.5,125.5,116.5,99.5,144.5
25,1.25,-0.011682271957397461,-0.3824789524078369,1.9616491794586182,-0.010759830474853516,-1.5796821117401123,-0.014093399047851562,0.45421266555786133,0.16274243593215942,0.5900552272796631,3.1394884586073215,0.009038186038993132,1.5732197755612896,208.06142034548944,86.36852207293666,182.2561669829222,60.24098671726755,156.2689393939394,86.12689393939394,153.5,144.5,125.5,116.5,99.5,144.5
26,1.3,-0.012083768844604492,-0.3820488452911377,1.9616329669952393,-0.011103630065917969,-1.5799801349639893,-0.014561653137207031,0.45451146364212036,0.16252288222312927,0.5899096131324768,3.1395677486755633,0.009336727406231801,1.573286448963127,207.98848368522073,86.42994241842611,182.11832061068702,60.345419847328245,156.12737642585552,86.22053231939164,153.5,144.5,125.5,116.5,99.5,144.5
27,1.35,-0.012449979782104492,-0.3815879821777344,1.9616296291351318,-0.011449098587036133,-1.5802385807037354,-0.015035152435302734,0.4548175632953644,0.16232344508171082,0.589741587638855,3.1396880909093325,0.00959430851261844,1.5733947230011076,207.85028790786947,86.47792706333973,182.0,60.4080459770115,155.98102466793168,86.30929791271348,153.5,144.5,125.5,116.5,99.5,144.5
28,1.4000000000000001,-0.012802600860595703,-0.3810763359069824,1.9616377353668213,-0.01182246208190918,-1.5804731845855713,-0.015543699264526367,0.45514699816703796,0.16213150322437286,0.5895457863807678,3.139843399327898,0.009827212111069428,1.5735515669117524,207.76717557251908,86.54198473282443,181.96374045801528,60.47709923664122,155.88403041825094,86.34220532319392,153.5,144.5,125.5,116.5,99.5,144.5
29,1.4500000000000002,-0.013177633285522461,-0.3805086612701416,1.9616692066192627,-0.012202262878417969,-1.580721139907837,-0.016065120697021484,0.4555038809776306,0.16192743182182312,0.5893086194992065,3.1400725788180717,0.01007266201917855,1.5737000865501154,207.69128787878788,86.63825757575758,181.84351145038167,60.4942748091603,155.73674242424244,86.35416666666667,153.5,144.5,125.5,116.5,99.5,144.5
30,1.5,-0.013549566268920898,-0.37996387481689453,1.9617149829864502,-0.01253199577331543,-1.5809757709503174,-0.01652979850769043,0.45584216713905334,0.16172446310520172,0.5890670418739319,3.1403427385477496,0.010323702484707879,1.5737947423431622,207.59013282732448,86.6888045540797,181.7319391634981,60.539923954372625,155.58052434456928,86.41947565543072,153.5,144.5,125.5,116.5,99.5,144.5
31,1.55,-0.013897895812988281,-0.3793783187866211,1.961777925491333,-0.012866497039794922,-1.5812008380889893,-0.017004013061523438,0.45619428157806396,0.1615348756313324,0.5887950658798218,3.140665840175377,0.010543949116553967,1.5739232453748113,207.5237191650854,86.70208728652752,181.62146892655366,60.52354048964219,155.58052434456928,86.41947565543072,153.5,144.5,125.5,116.5,99.5,144.5
32,1.6,-0.014261245727539062,-0.37880516052246094,1.9618217945098877,-0.013227224349975586,-1.5814392566680908,-0.01750469207763672,0.4565475881099701,0.16133654117584229,0.5885447263717651,3.1409326168317357,0.010778082160175072,1.5740635103930807,207.4236641221374,86.79961832061069,181.55722326454034,60.587242026266416,155.5,86.54681647940075,153.5,144.5,125.5,116.5,99.5,144.5
33,1.6500000000000001,-0.014609336853027344,-0.3782846927642822,1.9618456363677979,-0.013576507568359375,-1.5816709995269775,-0.01798844337463379,0.4568745195865631,0.16114597022533417,0.5883312821388245,3.1411362069223,0.011006907067078193,1.5742011841797157,207.40952380952382,86.89714285714285,181.5235404896422,60.621468926553675,155.41947565543072,86.58052434456928,153.5,144.5,125.5,116.5,99.5,144.5
34,1.7000000000000002,-0.01495504379272461,-0.37781739234924316,1.9618732929229736,-0.013869762420654297,-1.5819151401519775,-0.01840519905090332,0.45717018842697144,0.16095618903636932,0.5881327986717224,3.1413467832953517,0.01124764422538007,1.5742743812718787,207.35104364326375,86.90702087286527,181.43018867924528,60.64716981132076,155.3796992481203,86.60714285714286,153.5,144.5,125.5,116.5,99.5,144.5
35,1.75,-0.015298843383789062,-0.3773233890533447,1.9618990421295166,-0.014190435409545898,-1.5821502208709717,-0.01885509490966797,0.45748084783554077,0.16076742112636566,0.5879259705543518,3.141555564152764,0.011479097120960003,1.5743825804488023,207.26045627376425,86.95627376425855,181.33584905660376,60.69245283018868,155.27255639097746,86.69360902255639,153.5,144.5,125.5,116.5,99.5,144.5
36,1.8,-0.015620231628417969,-0.37682080268859863,1.961923360824585,-0.014521598815917969,-1.5823595523834229,-0.019317150115966797,0.4577934443950653,0.16059131920337677,0.5877172946929932,-3.141424158337612,0.011684892797519542,1.5745258432824052,207.180608365019,87.11026615969581,181.28248587570621,60.73258003766478,155.1296992481203,86.7218045112782,153.5,144.5,125.5,116.5,99.5,144.5
37,1.85,-0.015961885452270508,-0.3763701915740967,1.961963415145874,-0.014774084091186523,-1.5826079845428467,-0.019687891006469727,0.45807480812072754,0.16040289402008057,0.587513267993927,-3.1411768086148797,0.011927868272093238,1.5745578665583693,207.05714285714285,87.16380952380952,181.1939736346516,60.75706214689266,155.015065913371,86.72693032015066,153.5,144.5,125.5,116.5,99.5,144.5
38,1.9000000000000001,-0.016336679458618164,-0.3758535385131836,1.9620301723480225,-0.01503610610961914,-1.5828783512115479,-0.020075321197509766,0.4583895802497864,0.1601962000131607,0.5872618556022644,-3.140845135078957,0.012192089909477226,1.5745746450727705,206.93168880455408,87.18406072106262,181.10207939508507,60.73345935727788,154.8684210526316,86.75,153.5,144.5,125.5,116.5,99.5,144.5
39,1.9500000000000002,-0.01671004295349121,-0.37526392936706543,1.9621193408966064,-0.01532292366027832,-1.5831339359283447,-0.020497560501098633,0.45873790979385376,0.15999074280261993,0.5869641304016113,-3.14044228157146,0.012439136110386986,1.5746284535957864,206.85009487666034,87.21062618595825,181.0,60.74624060150376,154.7579737335835,86.75797373358348,153.5,144.5,125.5,116.5,99.5,144.5
40,2.0,-0.017085790634155273,-0.3745903968811035,1.9622414112091064,-0.015625476837158203,-1.583378553390503,-0.020945072174072266,0.45912274718284607,0.15978433191776276,0.5866075158119202,-3.139937794632601,0.012672441758816148,1.5747064134686477,206.8060263653484,87.24293785310735,180.88512241054613,60.7758945386064,154.72523364485983,86.77570093457943,153.5,144.5,125.5,116.5,99.5,144.5
41,2.0500000000000003,-0.01745915412902832,-0.3739194869995117,1.9623548984527588,-0.01593923568725586,-1.5836193561553955,-0.02140522003173828,0.4595075249671936,0.15957893431186676,0.5862581133842468,-3.1394555002744227,0.012902050067649756,1.5747998258824565,206.71751412429379,87.26741996233521,180.78195488721803,60.75375939849624,154.5903165735568,86.74674115456239,153.5,144.5,125.5,116.5,99.5,144.5
42,2.1,-0.01786184310913086,-0.3730638027191162,1.962555170059204,-0.01625967025756836,-1.5838630199432373,-0.02189040184020996,0.45997244119644165,0.15935781598091125,0.5857659578323364,-3.1387069254443314,0.013129056928844288,1.5748922136450272,206.68233082706766,87.203007518797,180.75280898876406,60.734082397003746,154.52141527001862,86.72811918063314,153.5,144.5,125.5,116.5,99.5,144.5
43,2.15,-0.018268823623657227,-0.3715975284576416,1.962921380996704,-0.01682758331298828,-1.5839917659759521,-0.022707223892211914,0.46072593331336975,0.15913842618465424,0.5849054455757141,-3.1374245162872847,0.013226852530671034,1.5753190426114438,206.73644859813083,87.1981308411215,180.7527881040892,60.657992565055764,154.44341372912803,86.67532467532467,153.5,144.5,125.5,116.5,99.5,144.5
44,2.2,-0.01854109764099121,-0.3696320056915283,1.9636456966400146,-0.01716756820678711,-1.5839478969573975,-0.023323535919189453,0.46162086725234985,0.1589970737695694,0.5835456252098083,-3.135062866972762,0.01312645175562693,1.5756935357185096,207.0,86.83612662942272,180.95353159851302,60.29182156133829,154.5,86.5,153.5,144.5,125.5,116.5,99.5,144.5
45,2.25,-0.01826953887939453,-0.36800122261047363,1.9640123844146729,-0.017884254455566406,-1.5833537578582764,-0.024321556091308594,0.46235817670822144,0.15916180610656738,0.5826213955879211,-3.133784147694954,0.012495567968235853,1.5769760517244888,207.3469387755102,86.860853432282,181.4014732965009,60.302025782688766,154.702752293578,86.44587155963303,153.5,144.5,125.5,116.5,99.5,144.5
46,2.3000000000000003,-0.01882624626159668,-0.36841249465942383,1.9646365642547607,-0.01620006561279297,-1.5842039585113525,-0.02248382568359375,0.46199601888656616,0.1588396281003952,0.5822163224220276,-3.1319002220512573,0.013315041614365117,1.5746130452579636,207.1003717472119,86.182156133829,181.01467889908258,59.55045871559633,154.5,85.70695970695971,153.5,144.5,125.5,116.5,99.5,144.5
47,2.35,-0.019135713577270508,-0.3686254024505615,1.9644582271575928,-0.016254425048828125,-1.5845396518707275,-0.02257251739501953,0.4619678854942322,0.15866221487522125,0.5824465155601501,-3.132342413192688,0.013658611526033614,1.5743894716326536,206.86059479553904,86.28066914498142,180.71217712177122,59.61808118081181,154.32234432234432,85.88278388278388,153.5,144.5,125.5,116.5,99.5,144.5
48,2.4000000000000004,-0.019407272338867188,-0.3687565326690674,1.964294672012329,-0.016359806060791016,-1.5848195552825928,-0.022724390029907227,0.461978018283844,0.15850746631622314,0.5826314091682434,-3.1327351725513437,0.013946286650043101,1.5742661666856532,206.65120593692023,86.37847866419295,180.6180811808118,59.71217712177122,154.2316176470588,86.02941176470588,153.5,144.5,125.5,116.5,99.5,144.5
49,2.45,-0.019696474075317383,-0.3687863349914551,1.9641520977020264,-0.016516685485839844,-1.5850961208343506,-0.02294301986694336,0.4620409905910492,0.15834370255470276,0.5827592015266418,-3.133054319272491,0.01422835179562298,1.5741939734466681,206.54646840148698,86.5,180.5598526703499,59.78453038674033,154.11743119266055,86.08440366972476,153.5,144.5,125.5,116.5,99.5,144.5
50,2.5,-0.019991397857666016,-0.3688390254974365,1.9640095233917236,-0.01665210723876953,-1.5853841304779053,-0.023136138916015625,0.46209225058555603,0.15817637741565704,0.5828960537910461,-3.1333751309298155,0.014522674517849842,1.5740896499297257,206.45353159851302,86.5,180.353591160221,59.93922651933702,153.94659300184162,86.24677716390424,153.5,144.5,125.5,116.5,99.5,144.5
51,2.5500000000000003,-0.02024531364440918,-0.368865966796875,1.9638745784759521,-0.01679849624633789,-1.5856258869171143,-0.023343324661254883,0.46214887499809265,0.1580323874950409,0.5830173492431641,-3.133674865517965,0.014769840447911483,1.574040590986584,206.37174721189592,86.61338289962825,180.24169741697418,60.07380073800738,153.75185185185185,86.35555555555555,153.5,144.5,125.5,116.5,99.5,144.5
52,2.6,-0.020479679107666016,-0.3689396381378174,1.963735818862915,-0.016907453536987305,-1.5858604907989502,-0.023505449295043945,0.4621775150299072,0.15789926052093506,0.5831583142280579,-3.1339888734475707,0.015010189036751925,1.5739654601116848,206.20224719101122,86.71722846441948,180.19038817005546,60.18484288354898,153.68081180811808,86.41881918819188,153.5,144.5,125.5,116.5,99.5,144.5
53,2.6500000000000004,-0.020737648010253906,-0.36896324157714844,1.9636127948760986,-0.01703333854675293,-1.586108922958374,-0.023691177368164062,0.46223288774490356,0.1577529013156891,0.5832673907279968,-3.1342524111730192,0.015264123741233858,1.5738908902859863,206.02448210922788,86.7457627118644,179.9776536312849,60.29422718808193,153.54444444444445,86.48148148148148,153.5,144.5,125.5,116.5,99.5,144.5
54,2.7,-0.020987987518310547,-0.3689429759979248,1.9635016918182373,-0.01717662811279297,-1.586341142654419,-0.023900508880615234,0.46230751276016235,0.15761105716228485,0.583349883556366,-3.1344771444985273,0.01550045185189527,1.5738477997281701,205.8544776119403,86.83022388059702,179.81564245810057,60.33705772811918,153.5,86.5,153.5,144.5,125.5,116.5,99.5,144.5
55,2.75,-0.021248817443847656,-0.3688828945159912,1.9633991718292236,-0.017339706420898438,-1.5865757465362549,-0.024135589599609375,0.46240293979644775,0.15746352076530457,0.5834100842475891,-3.134672816250314,0.015738234479087072,1.573820757728713,205.75232774674114,86.9292364990689,179.68703703703704,60.422222222222224,153.44916820702403,86.58410351201479,153.5,144.5,125.5,116.5,99.5,144.5
56,2.8000000000000003,-0.021507978439331055,-0.3688080310821533,1.9632999897003174,-0.017510175704956055,-1.5868046283721924,-0.024379730224609375,0.4625051021575928,0.1573169082403183,0.5834627151489258,-3.134857729199294,0.015970718126503084,1.573804416462958,205.69172932330827,87.04323308270676,179.57962962962964,60.53333333333333,153.36968576709796,86.66543438077635,153.5,144.5,125.5,116.5,99.5,144.5
57,2.85,-0.021759510040283203,-0.36875367164611816,1.9631989002227783,-0.017664432525634766,-1.587031602859497,-0.024604082107543945,0.46259480714797974,0.15717463195323944,0.5835238695144653,-3.1350491391646136,0.016200903457067005,1.5737758198510605,205.56015037593986,87.16917293233082,179.53518518518518,60.52777777777778,153.2486085343228,86.75139146567717,153.5,144.5,125.5,116.5,99.5,144.5
58,2.9000000000000004,-0.022014856338500977,-0.36870884895324707,1.9630954265594482,-0.017815589904785156,-1.5872642993927002,-0.02482438087463379,0.4626809060573578,0.1570301204919815,0.5835912823677063,-3.135250070595081,0.016437158539956986,1.5737387431431467,205.5,87.28358208955224,179.4574074074074,60.65555555555556,153.1608133086876,86.83918669131238,153.5,144.5,125.5,116.5,99.5,144.5
59,2.95,-0.022265911102294922,-0.3686811923980713,1.9629924297332764,-0.017949819564819336,-1.5874979496002197,-0.0250244140625,0.462756872177124,0.15688754618167877,0.5836642384529114,-3.135450708778516,0.016674149739056503,1.5736854716140152,205.32209737827716,87.31835205992509,179.3828996282528,60.698884758364315,153.0,86.95246800731262,153.5,144.5,125.5,116.5,99.5,144.5
60,3.0,-0.022519588470458984,-0.3686089515686035,1.9628984928131104,-0.018108129501342773,-1.587723970413208,-0.025255441665649414,0.46285465359687805,0.15674394369125366,0.5837130546569824,-3.1356208917864263,0.016903591302356767,1.5736609968782025,205.2312030075188,87.32330827067669,179.26305970149255,60.826492537313435,152.88419117647058,87.01286764705883,153.5,144.5,125.5,116.5,99.5,144.5
61,3.0500000000000003,-0.0227663516998291,-0.368516206741333,1.9628126621246338,-0.018270254135131836,-1.587939977645874,-0.025491952896118164,0.46296048164367676,0.15660418570041656,0.5837472081184387,-3.135766150358789,0.017122150007729587,1.5736498534710204,205.10377358490567,87.42075471698114,179.1977818853974,60.89833641404806,152.7699443413729,87.11502782931355,153.5,144.5,125.5,116.5,99.5,144.5
62,3.1,-0.023015975952148438,-0.3684096336364746,1.962731122970581,-0.018436431884765625,-1.5881564617156982,-0.025734663009643555,0.4630729556083679,0.15646298229694366,0.5837722420692444,-3.135897260501488,0.017340842863632668,1.5736417475934046,205.0,87.5,179.0239852398524,61.00184501845018,152.68460111317253,87.19666048237477,153.5,144.5,125.5,116.5,99.5,144.5
63,3.1500000000000004,-0.023254871368408203,-0.368297815322876,1.9626514911651611,-0.01860356330871582,-1.5883610248565674,-0.025978803634643555,0.46318596601486206,0.15632778406143188,0.5837939381599426,-3.1360222686840937,0.01754754442494842,1.5736459023012792,204.9054820415879,87.52173913043478,178.87037037037038,61.114814814814814,152.57777777777778,87.31296296296296,153.5,144.5,125.5,116.5,99.5,144.5
64,3.2,-0.023478984832763672,-0.3681623935699463,1.9625766277313232,-0.0187835693359375,-1.5885460376739502,-0.026239633560180664,0.46330854296684265,0.15620097517967224,0.5838030576705933,-3.1361324454772674,0.017734224015475208,1.5736814024842005,204.75046904315198,87.61163227016885,178.75232774674114,61.154562383612664,152.52310536044362,87.35859519408503,153.5,144.5,125.5,116.5,99.5,144.5
65,3.25,-0.023712873458862305,-0.3679945468902588,1.9625084400177002,-0.018980741500854492,-1.5887339115142822,-0.026522159576416016,0.46344834566116333,0.15606872737407684,0.5837942361831665,-3.1362188822837265,0.01792307760019631,1.5737293647434492,204.67790262172284,87.68164794007491,178.73134328358208,61.22201492537314,152.45841035120148,87.39741219963031,153.5,144.5,125.5,116.5,99.5,144.5
66,3.3000000000000003,-0.023955821990966797,-0.36782002449035645,1.962444543838501,-0.019175052642822266,-1.5889298915863037,-0.02680230140686035,0.46359145641326904,0.15593135356903076,0.5837790369987488,-3.1362926208146877,0.01811982578232867,1.5737664317199034,204.61869158878505,87.6411214953271,178.6096654275093,61.342007434944236,152.42037037037036,87.46666666666667,153.5,144.5,125.5,116.5,99.5,144.5
67,3.35,-0.02419257164001465,-0.36758852005004883,1.962393045425415,-0.019399642944335938,-1.5891082286834717,-0.027121543884277344,0.4637617766857147,0.15579771995544434,0.5837327241897583,-3.136326160453398,0.018297170424801782,1.5738488333577836,204.52621722846442,87.7565543071161,178.5754189944134,61.415270018621975,152.353591160221,87.47882136279927,153.5,144.5,125.5,116.5,99.5,144.5
68,3.4000000000000004,-0.024445295333862305,-0.36736345291137695,1.962345838546753,-0.019608497619628906,-1.5893046855926514,-0.02742314338684082,0.4639292359352112,0.15565481781959534,0.5836842060089111,-3.1363458182352266,0.018493340118940372,1.5738982045437997,204.46022727272728,87.87310606060606,178.52319109461968,61.493506493506494,152.30129390018485,87.55637707948244,153.5,144.5,125.5,116.5,99.5,144.5
69,3.45,-0.02470111846923828,-0.36714911460876465,1.9622986316680908,-0.019809484481811523,-1.5895073413848877,-0.027714252471923828,0.4640909433364868,0.1555100530385971,0.5836409330368042,-3.136368631278088,0.018695255993440286,1.5739341145808394,204.35471698113207,87.9566037735849,178.45353159851302,61.5,152.15270018621973,87.62756052141528,153.5,144.5,125.5,116.5,99.5,144.5
70,3.5,-0.024949073791503906,-0.3669619560241699,1.9622442722320557,-0.01999640464782715,-1.5897080898284912,-0.027987957000732422,0.46423837542533875,0.15536966919898987,0.5836126208305359,-3.1364119818480987,0.018895701523699078,1.5739599830310027,204.29268292682926,88.02439024390245,178.43389199255122,61.513966480446925,152.04646840148698,87.7081784386617,153.5,144.5,125.5,116.5,99.5,144.5
71,3.5500000000000003,-0.025193214416503906,-0.3667929172515869,1.9621851444244385,-0.020176410675048828,-1.5899083614349365,-0.028252124786376953,0.46437695622444153,0.15523110330104828,0.5835956335067749,-3.1364713533248456,0.019096563365978442,1.5739799336827294,204.21804511278197,88.13533834586467,178.31412639405204,61.59665427509294,151.90520446096653,87.70631970260223,153.5,144.5,125.5,116.5,99.5,144.5
72,3.6,-0.025427579879760742,-0.36669135093688965,1.9621188640594482,-0.020307302474975586,-1.5901148319244385,-0.02845597267150879,0.46447867155075073,0.1550980508327484,0.5836093425750732,-3.1365576135932662,0.019304640460096417,1.573948322085907,204.09056603773584,88.22264150943396,178.18435754189943,61.66294227188082,151.83085501858736,87.74721189591078,153.5,144.5,125.5,116.5,99.5,144.5
73,3.6500000000000004,-0.0256650447845459,-0.3665759563446045,1.96205735206604,-0.02044224739074707,-1.5903217792510986,-0.028664827346801758,0.46458712220191956,0.15496303141117096,0.5836137533187866,-3.1366285856601475,0.019513205238155647,1.5739196127705588,204.0,88.25471698113208,178.10506566604127,61.671669793621014,151.72304832713755,87.7918215613383,153.5,144.5,125.5,116.5,99.5,144.5
74,3.7,-0.02589726448059082,-0.36646199226379395,1.9619944095611572,-0.02057790756225586,-1.5905239582061768,-0.028875350952148438,0.46469447016716003,0.1548309326171875,0.5836198925971985,-3.1367035664384417,0.01971636367528251,1.573896876126982,203.85066162570888,88.25897920604915,177.97003745318352,61.72097378277154,151.6648148148148,87.83148148148148,153.5,144.5,125.5,116.5,99.5,144.5
75,3.75,-0.026137113571166992,-0.3662745952606201,1.9619472026824951,-0.020753145217895508,-1.5907180309295654,-0.02913641929626465,0.4648389220237732,0.1546948105096817,0.5835853219032288,-3.1367275800973125,0.019910231985456817,1.5739185656152148,203.77966101694915,88.30131826741996,177.807476635514,61.811214953271026,151.60148975791435,87.90502793296089,153.5,144.5,125.5,116.5,99.5,144.5
76,3.8000000000000003,-0.026361703872680664,-0.36608219146728516,1.9618995189666748,-0.020934104919433594,-1.590895414352417,-0.0294034481048584,0.4649842083454132,0.15456721186637878,0.5835490822792053,-3.1367522626839874,0.020087220816830655,1.573961327352854,203.6723163841808,88.34839924670433,177.771375464684,61.860594795539036,151.5,88.0,153.5,144.5,125.5,116.5,99.5,144.5
77,3.85,-0.02658987045288086,-0.3658576011657715,1.9618589878082275,-0.02113056182861328,-1.5910694599151611,-0.02969074249267578,0.4651452302932739,0.15443769097328186,0.5834952592849731,-3.13675376213504,0.02026056366315442,1.5740212331002597,203.58691588785047,88.4429906542056,177.728624535316,61.92379182156134,151.37291280148423,88.09833024118738,153.5,144.5,125.5,116.5,99.5,144.5
78,3.9000000000000004,-0.026813745498657227,-0.3656497001647949,1.9618165493011475,-0.021314382553100586,-1.5912435054779053,-0.029963254928588867,0.4652969241142273,0.15431050956249237,0.583448588848114,-3.1367609368308664,0.020433439446071854,1.5740701011469322,203.54646840148698,88.5,177.64672897196263,62.018691588785046,151.32162661737524,88.18853974121997,153.5,144.5,125.5,116.5,99.5,144.5
79,3.95,-0.027029752731323242,-0.36544132232666016,1.9617745876312256,-0.021498441696166992,-1.59140944480896,-0.030236244201660156,0.46544766426086426,0.1541876196861267,0.5834020376205444,-3.136768956200014,0.02059866916619128,1.5741278267666212,203.5,88.5,177.5872420262664,62.106941838649156,151.27695167286245,88.2081784386617,153.5,144.5,125.5,116.5,99.5,144.5
80,4.0,-0.027248144149780273,-0.3652036190032959,1.9617421627044678,-0.021689891815185547,-1.5915729999542236,-0.03052043914794922,0.46561145782470703,0.15406355261802673,0.5833353996276855,-3.1367436566875053,0.020759997136519694,1.5741943868865977,203.41947565543072,88.58052434456928,177.50559701492537,62.207089552238806,151.2226345083488,88.22263450834879,153.5,144.5,125.5,116.5,99.5,144.5
81,4.05,-0.027475595474243164,-0.3649582862854004,1.9617197513580322,-0.021871566772460938,-1.5917456150054932,-0.030793428421020508,0.4657781422138214,0.15393410623073578,0.5832580924034119,-3.1366907528111097,0.020930403377738792,1.5742416810645388,203.41947565543072,88.58052434456928,177.47858472998138,62.27188081936685,151.16326530612244,88.27643784786642,153.5,144.5,125.5,116.5,99.5,144.5
82,4.1000000000000005,-0.027692556381225586,-0.3647186756134033,1.9616968631744385,-0.022046804428100586,-1.5919091701507568,-0.03105950355529785,0.46593984961509705,0.1538107842206955,0.5831829309463501,-3.1366386346683597,0.021091207850654957,1.5742927501443125,203.2983114446529,88.68667917448406,177.39888682745826,62.319109461966605,151.0814814814815,88.31666666666666,153.5,144.5,125.5,116.5,99.5,144.5
83,4.15,-0.027921199798583984,-0.3644733428955078,1.9616796970367432,-0.022217988967895508,-1.5920841693878174,-0.03132152557373047,0.4661048948764801,0.15368059277534485,0.5831005573272705,-3.136570689530696,0.021263327998805915,1.574328156310714,203.26365348399247,88.70433145009416,177.33766233766235,62.33766233766234,150.94981412639405,88.33271375464685,153.5,144.5,125.5,116.5,99.5,144.5
84,4.2,-0.028126955032348633,-0.36429643630981445,1.9616506099700928,-0.022346019744873047,-1.592252492904663,-0.03153038024902344,0.46623173356056213,0.15356311202049255,0.5830534100532532,-3.136541369976261,0.0214291440927945,1.5743324258997433,203.1735849056604,88.7433962264151,177.2979515828678,62.31098696461825,150.8271375464684,88.35873605947955,153.5,144.5,125.5,116.5,99.5,144.5
85,4.25,-0.028328895568847656,-0.364147424697876,1.961615800857544,-0.0224606990814209,-1.5924227237701416,-0.03172111511230469,0.4663445055484772,0.15344782173633575,0.5830215811729431,-3.1365320674180137,0.021598110245045567,1.5743223025288409,203.125,88.74242424242425,177.16417910447763,62.350746268656714,150.728280961183,88.41035120147875,153.5,144.5,125.5,116.5,99.5,144.5
86,4.3,-0.02849125862121582,-0.3640255928039551,1.9615700244903564,-0.022572755813598633,-1.5925571918487549,-0.0319056510925293,0.4664405286312103,0.1533549576997757,0.5830098390579224,-3.1365601838366235,0.02173313458872578,1.5743443401882071,203.0,88.74528301886792,177.14205607476634,62.3607476635514,150.67771639042357,88.48618784530387,153.5,144.5,125.5,116.5,99.5,144.5
87,4.3500000000000005,-0.02867865562438965,-0.36374568939208984,1.9615542888641357,-0.022772550582885742,-1.5926826000213623,-0.03220224380493164,0.4666184186935425,0.1532481610774994,0.5829127430915833,-3.136484717428636,0.021855147073144923,1.574455937279324,202.9188679245283,88.83962264150944,177.060263653484,62.3954802259887,150.646408839779,88.52117863720073,153.5,144.5,125.5,116.5,99.5,144.5
88,4.4,-0.028880834579467773,-0.3634788990020752,1.961533784866333,-0.022969484329223633,-1.592825174331665,-0.032494544982910156,0.4667922854423523,0.15313269197940826,0.5828250646591187,-3.1364235751149625,0.02199436316945757,1.5745480059863035,202.86278195488723,88.95112781954887,176.98130841121494,62.401869158878505,150.57962962962964,88.53333333333333,153.5,144.5,125.5,116.5,99.5,144.5
89,4.45,-0.029079437255859375,-0.3632993698120117,1.9614932537078857,-0.023123979568481445,-1.5929815769195557,-0.032732248306274414,0.46692365407943726,0.15301913022994995,0.5827875137329102,-3.136429396362305,0.022150232104269554,1.5745873855383516,202.81308411214954,89.02429906542056,176.88345864661653,62.43984962406015,150.53321033210332,88.53321033210332,153.5,144.5,125.5,116.5,99.5,144.5
90,4.5,-0.029274702072143555,-0.3631598949432373,1.961444616317749,-0.023255586624145508,-1.593144178390503,-0.03294062614440918,0.467034250497818,0.1529073417186737,0.5827712416648865,-3.136460487146002,0.02231245850682774,1.5746006735612281,202.72232645403378,89.10506566604127,176.78358208955223,62.51119402985075,150.52029520295204,88.54428044280442,153.5,144.5,125.5,116.5,99.5,144.5
91,4.55,-0.02948594093322754,-0.3629932403564453,1.9614059925079346,-0.023395061492919922,-1.5933172702789307,-0.03315925598144531,0.4671596884727478,0.15278644859790802,0.5827365517616272,-3.13646081117056,0.02248507932614081,1.5746087960957453,202.6954887218045,89.16165413533835,176.68401486988847,62.572490706319705,150.47047970479704,88.61808118081181,153.5,144.5,125.5,116.5,99.5,144.5
92,4.6000000000000005,-0.029680252075195312,-0.3628513813018799,1.9613573551177979,-0.023529767990112305,-1.5934779644012451,-0.0333712100982666,0.4672720432281494,0.15267516672611237,0.5827193856239319,-3.1364924538563215,0.022645605240619447,1.5746262958537467,202.61581920903956,89.1864406779661,176.61410018552877,62.593692022263454,150.42222222222222,88.68703703703704,153.5,144.5,125.5,116.5,99.5,144.5
93,4.65,-0.029875516891479492,-0.3626720905303955,1.9613115787506104,-0.023691892623901367,-1.593630075454712,-0.033617258071899414,0.4674038589000702,0.15256330370903015,0.5826855897903442,-3.1365098200403856,0.022797925128027103,1.5746768280017025,202.54409005628517,89.22701688555347,176.58812615955472,62.60296846011132,150.3819188191882,88.71217712177122,153.5,144.5,125.5,116.5,99.5,144.5
94,4.7,-0.030081987380981445,-0.3624718189239502,1.9612700939178467,-0.02386641502380371,-1.5937893390655518,-0.033878326416015625,0.4675479233264923,0.1524450033903122,0.5826405882835388,-3.136513538444713,0.022955925990088055,1.5747322031014508,202.4681647940075,89.312734082397,176.5648148148148,62.60925925925926,150.292364990689,88.77281191806331,153.5,144.5,125.5,116.5,99.5,144.5
95,4.75,-0.030291080474853516,-0.3622922897338867,1.9612233638763428,-0.024031400680541992,-1.5939552783966064,-0.034128427505493164,0.4676828384399414,0.15232524275779724,0.5826083421707153,-3.136535555451169,0.02312144144220212,1.5747732493208244,202.4307116104869,89.39138576779027,176.46654275092936,62.682156133829,150.1851851851852,88.83888888888889,153.5,144.5,125.5,116.5,99.5,144.5
96,4.800000000000001,-0.03047919273376465,-0.362170934677124,1.9611656665802002,-0.02416539192199707,-1.5941121578216553,-0.03433728218078613,0.4677855372428894,0.1522173434495926,0.5826070308685303,-3.1365953514962426,0.02327999243847599,1.5747934014510232,202.40747663551403,89.3981308411215,176.40630797773656,62.70500927643785,150.12844036697248,88.91926605504587,153.5,144.5,125.5,116.5,99.5,144.5
97,4.8500000000000005,-0.030655384063720703,-0.3620455265045166,1.9611027240753174,-0.024312257766723633,-1.5942552089691162,-0.034560441970825195,0.46789035201072693,0.15211623907089233,0.5826080441474915,-3.136669085863949,0.02342452082863805,1.5748393462734065,202.3358348968105,89.42026266416511,176.3507462686567,62.80223880597015,150.0,88.95246800731262,153.5,144.5,125.5,116.5,99.5,144.5
98,4.9,-0.030822038650512695,-0.3619265556335449,1.9610469341278076,-0.02444005012512207,-1.5943920612335205,-0.03476214408874512,0.46798837184906006,0.15202032029628754,0.5826056599617004,-3.13672471691357,0.023562956055712403,1.5748734704636693,202.2405303030303,89.4715909090909,176.26443202979516,62.85102420856611,149.97619047619048,89.04945054945055,153.5,144.5,125.5,116.5,99.5,144.5
99,4.95,-0.030997514724731445,-0.36174607276916504,1.960998773574829,-0.024608850479125977,-1.5945236682891846,-0.03501534461975098,0.4681190550327301,0.15191973745822906,0.5825729966163635,-3.1367498580291926,0.02369433965561169,1.574951183100579,202.08918406072107,89.5180265654649,176.24767225325886,62.94227188081937,149.87155963302752,89.08073394495413,153.5,144.5,125.5,116.5,99.5,144.5
100,5.0,-0.03119516372680664,-0.3614828586578369,1.9609811305999756,-0.024796009063720703,-1.5946638584136963,-0.03529691696166992,0.46828919649124146,0.15180610120296478,0.5824840068817139,-3.1366792928729166,0.023830881791679293,1.5750369418257841,202.08506616257088,89.5633270321361,176.22222222222223,63.00370370370371,149.8148148148148,89.16111111111111,153.5,144.5,125.5,116.5,99.5,144.5
101,5.050000000000001,-0.03138017654418945,-0.3612520694732666,1.9609553813934326,-0.024970531463623047,-1.5947973728179932,-0.03556084632873535,0.4684421420097351,0.15169984102249146,0.5824140310287476,-3.136637336825484,0.023961765666734195,1.5751173294275034,202.0170777988615,89.60910815939279,176.20702402957485,63.072088724584106,149.7652495378928,89.17744916820702,153.5,144.5,125.5,116.5,99.5,144.5
102,5.1000000000000005,-0.031585693359375,-0.3609738349914551,1.9609510898590088,-0.025145530700683594,-1.5949442386627197,-0.03583097457885742,0.4686169922351837,0.1515817642211914,0.5823073387145996,-3.1365273309763393,0.024103989758410303,1.5751857141291123,202.0,89.62689393939394,176.12267657992564,63.12639405204461,149.68401486988847,89.22118959107807,153.5,144.5,125.5,116.5,99.5,144.5
103,5.15,-0.031754255294799805,-0.36075425148010254,1.960932970046997,-0.025292634963989258,-1.5950663089752197,-0.03606414794921875,0.46875837445259094,0.15148483216762543,0.5822345018386841,-3.136462381045368,0.024222747258490586,1.57525211045342,201.9566037735849,89.64339622641509,176.01113172541744,63.144712430426715,149.6180811808118,89.28782287822878,153.5,144.5,125.5,116.5,99.5,144.5
104,5.2,-0.031897783279418945,-0.3605513572692871,1.96089768409729,-0.025457143783569336,-1.5951635837554932,-0.036314964294433594,0.46889251470565796,0.1514020711183548,0.5821824669837952,-3.1364493423398816,0.02431853221753619,1.5753596638707543,201.86767485822307,89.70699432892249,175.99252336448598,63.222429906542054,149.6007393715342,89.30499075785582,153.5,144.5,125.5,116.5,99.5,144.5
105,5.25,-0.032071828842163086,-0.36026668548583984,1.9608914852142334,-0.02564215660095215,-1.5952770709991455,-0.03659629821777344,0.4690670371055603,0.15130198001861572,0.5820751190185547,-3.1363446107213218,0.024427098115207397,1.5754697935479076,201.8264150943396,89.7433962264151,175.89944134078212,63.20670391061452,149.55064456721917,89.37016574585635,153.5,144.5,125.5,116.5,99.5,144.5
106,5.300000000000001,-0.032232046127319336,-0.36002492904663086,1.960860013961792,-0.025836467742919922,-1.595381498336792,-0.03688359260559082,0.469224214553833,0.15120956301689148,0.58200603723526,-3.136317848761757,0.0245290440389424,1.575598122176722,201.8060263653484,89.75706214689265,175.85046728971963,63.31214953271028,149.49815498154982,89.41143911439114,153.5,144.5,125.5,116.5,99.5,144.5
107,5.3500000000000005,-0.03238105773925781,-0.35976481437683105,1.9608376026153564,-0.02602839469909668,-1.5954725742340088,-0.03717041015625,0.46938639879226685,0.15112346410751343,0.5819212198257446,-3.1362617844596463,0.02461720738673885,1.5757376858318732,201.71857410881802,89.84615384615384,175.82649253731344,63.315298507462686,149.48798521256933,89.47874306839186,153.5,144.5,125.5,116.5,99.5,144.5
108,5.4,-0.03255939483642578,-0.35947227478027344,1.9608170986175537,-0.026248693466186523,-1.5955846309661865,-0.0374913215637207,0.469570517539978,0.15102052688598633,0.5818237066268921,-3.136197407985185,0.024725101096764145,1.5758820872799386,201.7140186915888,89.92897196261683,175.77467411545624,63.35009310986965,149.48798521256933,89.47874306839186,153.5,144.5,125.5,116.5,99.5,144.5
109,5.45,-0.03274083137512207,-0.3592360019683838,1.9607841968536377,-0.026439905166625977,-1.5957114696502686,-0.03777432441711426,0.4697273373603821,0.15091577172279358,0.5817574858665466,-3.13617318356858,0.024850008325757445,1.5759847512647827,201.66854990583803,90.05084745762711,175.75046554934823,63.391061452513966,149.46678966789668,89.46678966789668,153.5,144.5,125.5,116.5,99.5,144.5
110,5.5,-0.03293776512145996,-0.35904812812805176,1.9607465267181396,-0.026595592498779297,-1.5958654880523682,-0.03801369667053223,0.46986132860183716,0.1508021354675293,0.5817137956619263,-3.136167251489795,0.025002648644727846,1.576028073864426,201.62452830188678,90.08490566037736,175.64126394052045,63.421933085501855,149.37638376383765,89.52952029520296,153.5,144.5,125.5,116.5,99.5,144.5
111,5.550000000000001,-0.033110618591308594,-0.35889315605163574,1.9606969356536865,-0.026743650436401367,-1.5960009098052979,-0.03824138641357422,0.46997764706611633,0.1507023721933365,0.5816924571990967,-3.1361990527637094,0.025138473431879273,1.5760827465234648,201.56037735849057,90.16981132075472,175.59925788497216,63.51948051948052,149.32596685082873,89.55801104972376,153.5,144.5,125.5,116.5,99.5,144.5
112,5.6000000000000005,-0.03329157829284668,-0.35874199867248535,1.9606554508209229,-0.026872873306274414,-1.5961472988128662,-0.038448333740234375,0.47009021043777466,0.15059788525104523,0.5816655158996582,-3.136208543828866,0.025284779365132803,1.5761090230940353,201.51594746716697,90.22138836772983,175.55844155844156,63.52133580705009,149.28782287822878,89.61808118081181,153.5,144.5,125.5,116.5,99.5,144.5
113,5.65,-0.033473968505859375,-0.3585946559906006,1.9606058597564697,-0.027013063430786133,-1.5962941646575928,-0.03866696357727051,0.47020331025123596,0.15049242973327637,0.581646203994751,-3.1362394123653914,0.02543195271166564,1.5761449664078606,201.47663551401868,90.28971962616822,175.51201478743067,63.521256931608136,149.20817843866172,89.66728624535315,153.5,144.5,125.5,116.5,99.5,144.5
114,5.7,-0.033646345138549805,-0.35849976539611816,1.9605419635772705,-0.027133941650390625,-1.5964415073394775,-0.038858890533447266,0.4702911376953125,0.15039287507534027,0.5816599130630493,-3.136318670725301,0.025581169739716126,1.5761629591167912,201.32209737827716,90.31835205992509,175.49074074074073,63.574074074074076,149.11460258780036,89.72273567467653,153.5,144.5,125.5,116.5,99.5,144.5
115,5.75,-0.03384113311767578,-0.3583049774169922,1.9605052471160889,-0.027294635772705078,-1.5965917110443115,-0.039104461669921875,0.47042831778526306,0.15028013288974762,0.5816120505332947,-3.1363087890236008,0.025730377209616188,1.5762147933741848,201.2983114446529,90.31332082551594,175.43703703703704,63.65185185185185,149.02952029520296,89.75645756457564,153.5,144.5,125.5,116.5,99.5,144.5
116,5.800000000000001,-0.03401660919189453,-0.3581118583679199,1.9604737758636475,-0.027443408966064453,-1.596724271774292,-0.0393373966217041,0.4705602824687958,0.15017884969711304,0.5815602540969849,-3.136284586044548,0.025860986151903645,1.5762731677905548,201.25423728813558,90.33145009416197,175.42222222222222,63.68703703703704,148.92633517495395,89.82136279926335,153.5,144.5,125.5,116.5,99.5,144.5
117,5.8500000000000005,-0.034174442291259766,-0.3579237461090088,1.9604418277740479,-0.027586936950683594,-1.5968410968780518,-0.03956460952758789,0.4706869125366211,0.1500873565673828,0.5815105438232422,-3.136261596415511,0.02597575472571868,1.576343460063966,201.21092278719397,90.3804143126177,175.34328358208955,63.725746268656714,148.86580882352942,89.84742647058823,153.5,144.5,125.5,116.5,99.5,144.5
118,5.9,-0.034316062927246094,-0.3577880859375,1.9603989124298096,-0.027704477310180664,-1.596952199935913,-0.03975701332092285,0.47078585624694824,0.15000498294830322,0.5814899802207947,-3.136276620819902,0.02608694440180239,1.5763945128272991,201.12476370510396,90.4461247637051,175.26865671641792,63.77798507462686,148.84714548802947,89.88581952117863,153.5,144.5,125.5,116.5,99.5,144.5
119,5.95,-0.0344843864440918,-0.35758352279663086,1.960371732711792,-0.027855873107910156,-1.5970757007598877,-0.0399932861328125,0.4709215462207794,0.14990755915641785,0.5814302563667297,-3.1362393094676575,0.026208207010791153,1.576463803299625,201.0776515151515,90.49621212121212,175.268156424581,63.80260707635009,148.77163904235726,89.94659300184162,153.5,144.5,125.5,116.5,99.5,144.5
120,6.0,-0.0346531867980957,-0.357391357421875,1.9603416919708252,-0.027999162673950195,-1.5972025394439697,-0.04022073745727539,0.47105124592781067,0.14980950951576233,0.5813770890235901,-3.136209487709225,0.02633287733556658,1.5765235742253736,201.0170777988615,90.5180265654649,175.228624535316,63.860594795539036,148.74816176470588,89.95220588235294,153.5,144.5,125.5,116.5,99.5,144.5
121,6.050000000000001,-0.034851789474487305,-0.35709214210510254,1.9603474140167236,-0.028173446655273438,-1.5973403453826904,-0.04049253463745117,0.47123274207115173,0.14969444274902344,0.5812527537345886,-3.1360650519395072,0.026463629590130898,1.5766008450907114,200.98857142857142,90.52190476190476,175.15341959334566,63.88170055452865,148.7058823529412,90.0091911764706,153.5,144.5,125.5,116.5,99.5,144.5
122,6.1000000000000005,-0.03502178192138672,-0.3567955493927002,1.9603335857391357,-0.02838444709777832,-1.5974442958831787,-0.04080390930175781,0.4714154899120331,0.14959567785263062,0.5811476111412048,-3.135980930587225,0.026563147301303873,1.5767449935957603,200.98865784499054,90.60491493383743,175.12754158964879,63.909426987060996,148.65992647058823,90.08088235294117,153.5,144.5,125.5,116.5,99.5,144.5
123,6.15,-0.03518033027648926,-0.3566114902496338,1.9602887630462646,-0.0285491943359375,-1.5975582599639893,-0.04105329513549805,0.4715437591075897,0.14950372278690338,0.5811107754707336,-3.1359952750442406,0.0266768963266263,1.5768362295167262,200.9322033898305,90.6421845574388,175.06801470588235,63.987132352941174,148.62246777163904,90.1878453038674,153.5,144.5,125.5,116.5,99.5,144.5
124,6.2,-0.035341501235961914,-0.3563699722290039,1.9602530002593994,-0.028749704360961914,-1.5976626873016357,-0.04134821891784668,0.4717012643814087,0.14940983057022095,0.5810448527336121,-3.135978177419374,0.026779316913984347,1.5769705863748504,200.84339622641508,90.70943396226416,174.95580110497238,64.05893186003684,148.5735294117647,90.23529411764706,153.5,144.5,125.5,116.5,99.5,144.5
125,6.25,-0.03550434112548828,-0.3561105728149414,1.9602229595184326,-0.02895641326904297,-1.5977652072906494,-0.041651010513305664,0.47186708450317383,0.1493152379989624,0.5809669494628906,-3.135942554566316,0.02687913824018496,1.5771118150035612,200.7767354596623,90.7298311444653,174.8946395563771,64.11460258780036,148.5,90.34191176470588,153.5,144.5,125.5,116.5,99.5,144.5
126,6.300000000000001,-0.03566098213195801,-0.35581374168395996,1.9601976871490479,-0.029189348220825195,-1.597853422164917,-0.04198646545410156,0.4720517098903656,0.14922378957271576,0.5808709859848022,-3.1358912515300332,0.026963293754475058,1.5772923040374236,200.74906367041197,90.78089887640449,174.8624535315985,64.16171003717471,148.47882136279927,90.353591160221,153.5,144.5,125.5,116.5,99.5,144.5
127,6.3500000000000005,-0.03582334518432617,-0.35552120208740234,1.9601733684539795,-0.029416799545288086,-1.5979483127593994,-0.042315006256103516,0.4722341001033783,0.149129256606102,0.580776035785675,-3.135836694960841,0.027054363279621765,1.5774602990635542,200.7233644859813,90.84672897196262,174.8388888888889,64.23703703703704,148.4558823529412,90.34558823529412,153.5,144.5,125.5,116.5,99.5,144.5
128,6.4,-0.03599429130554199,-0.3552358150482178,1.9601552486419678,-0.029624462127685547,-1.5980556011199951,-0.04262185096740723,0.47241154313087463,0.1490296870470047,0.5806781649589539,-3.135764437694763,0.027157245476769124,1.577598523877573,200.7140186915888,90.92897196261683,174.78107606679035,64.26716141001856,148.4246323529412,90.40808823529412,153.5,144.5,125.5,116.5,99.5,144.5
129,6.45,-0.03615760803222656,-0.3550255298614502,1.960115671157837,-0.029803991317749023,-1.5981695652008057,-0.042890071868896484,0.4725531041622162,0.148934468626976,0.5806270241737366,-3.1357611079622605,0.027270075543900617,1.5777036535541862,200.6478342749529,91.01883239171374,174.78293135435993,64.30983302411875,148.35110294117646,90.43014705882354,153.5,144.5,125.5,116.5,99.5,144.5
130,6.5,-0.036330461502075195,-0.35483598709106445,1.960078477859497,-0.02996063232421875,-1.5982987880706787,-0.04313039779663086,0.47268393635749817,0.14883370697498322,0.5805816650390625,-3.135753297208405,0.027398153026604852,1.5777724083848919,200.57706766917292,91.08458646616542,174.69387755102042,64.38033395176252,148.32844036697247,90.43853211009174,153.5,144.5,125.5,116.5,99.5,144.5
131,6.550000000000001,-0.03651547431945801,-0.3546290397644043,1.9600508213043213,-0.03011345863342285,-1.5984385013580322,-0.04336953163146973,0.4728226959705353,0.14872604608535767,0.5805211067199707,-3.135714938135181,0.027534938783945754,1.5778276213647005,200.56120527306967,91.14500941619586,174.62825278810408,64.38661710037175,148.3168498168498,90.45970695970696,153.5,144.5,125.5,116.5,99.5,144.5
132,6.6000000000000005,-0.036698102951049805,-0.3544802665710449,1.9600040912628174,-0.030251264572143555,-1.598585844039917,-0.043585777282714844,0.47293567657470703,0.14861978590488434,0.5804994106292725,-3.135738355267005,0.0276824583091583,1.577861351412524,200.5056179775281,91.2434456928839,174.54646840148698,64.5,148.27289377289378,90.47252747252747,153.5,144.5,125.5,116.5,99.5,144.5
133,6.65,-0.03688549995422363,-0.35437965393066406,1.959961175918579,-0.0303342342376709,-1.5987522602081299,-0.04373788833618164,0.47302088141441345,0.1485108882188797,0.5804914832115173,-3.1357524253985396,0.0278486584062832,1.5778268703261946,200.3890977443609,91.21052631578948,174.52319109461968,64.49350649350649,148.12132352941177,90.52941176470588,153.5,144.5,125.5,116.5,99.5,144.5
134,6.7,-0.03705906867980957,-0.35416531562805176,1.959942102432251,-0.030477046966552734,-1.5988810062408447,-0.04396653175354004,0.4731593430042267,0.14840960502624512,0.5804199576377869,-3.1356870450107848,0.027973699326842842,1.5778839053782907,200.33271028037385,91.25233644859813,174.5,64.5,148.03676470588235,90.60661764705883,153.5,144.5,125.5,116.5,99.5,144.5
135,6.75,-0.037222862243652344,-0.35396313667297363,1.9599087238311768,-0.030634164810180664,-1.598999261856079,-0.04421043395996094,0.4732944369316101,0.14831404387950897,0.5803654789924622,-3.1356628146303023,0.028090074726236303,1.5779651520264364,200.32209737827716,91.31835205992509,174.47680890538032,64.50649350649351,147.89541284403668,90.6348623853211,153.5,144.5,125.5,116.5,99.5,144.5
136,6.800000000000001,-0.037294864654541016,-0.3541090488433838,1.9598052501678467,-0.030604839324951172,-1.59909987449646,-0.044214725494384766,0.47324711084365845,0.1482718288898468,0.5805031061172485,-3.1358805112407575,0.028200316868146842,1.5778920995244443,200.2983114446529,91.31332082551594,174.47680890538032,64.50649350649351,147.8165137614679,90.66238532110091,153.5,144.5,125.5,116.5,99.5,144.5
137,6.8500000000000005,-0.03720808029174805,-0.3546414375305176,1.9596035480499268,-0.030405521392822266,-1.5991194248199463,-0.04399466514587402,0.4729952812194824,0.14832183718681335,0.5808698534965515,-3.1364238675320637,0.0282450819616999,1.5777437789539879,200.18490566037735,91.33018867924528,174.37988826815644,64.59031657355679,147.81031307550646,90.67955801104972,153.5,144.5,125.5,116.5,99.5,144.5
138,6.9,-0.03729367256164551,-0.354198694229126,1.9596569538116455,-0.030621767044067383,-1.5991199016571045,-0.04432559013366699,0.4732259213924408,0.1482706367969513,0.580646812915802,-3.1361299684473742,0.02823159764492278,1.5779970393082712,200.24812030075188,91.35526315789474,174.44526901669758,64.62894248608535,147.81031307550646,90.67955801104972,153.5,144.5,125.5,116.5,99.5,144.5
139,6.95,-0.03748941421508789,-0.35391807556152344,1.9595201015472412,-0.031052112579345703,-1.5992214679718018,-0.04487800598144531,0.4734441339969635,0.14815571904182434,0.5806545615196228,-3.1363953714571724,0.028342562201872562,1.578346096125135,200.11742424242425,91.46969696969697,174.35634328358208,64.75373134328358,147.81985294117646,90.83272058823529,153.5,144.5,125.5,116.5,99.5,144.5
140,7.0,-0.037740230560302734,-0.3534872531890869,1.9595110416412354,-0.031377315521240234,-1.599372148513794,-0.04532814025878906,0.47370976209640503,0.14800919592380524,0.5804948210716248,-3.136277799844207,0.028485930919979943,1.5785488651670894,200.10377358490567,91.57924528301886,174.268156424581,64.8026070763501,147.76654411764707,90.92279411764706,153.5,144.5,125.5,116.5,99.5,144.5
141,7.050000000000001,-0.037953853607177734,-0.35319089889526367,1.9594738483428955,-0.0316312313079834,-1.599513292312622,-0.04568743705749512,0.47390490770339966,0.1478845328092575,0.5804098844528198,-3.1362562765455397,0.028625070038356428,1.578695984422902,200.0433962264151,91.64339622641509,174.2277777777778,64.90925925925926,147.72760511882998,90.98903107861061,153.5,144.5,125.5,116.5,99.5,144.5
142,7.1000000000000005,-0.038177490234375,-0.3528633117675781,1.9594471454620361,-0.03189373016357422,-1.5996596813201904,-0.04605865478515625,0.47411465644836426,0.14775395393371582,0.5803039073944092,-3.1362003000030376,0.02876746548020363,1.5788454641337386,200.015065913371,91.67796610169492,174.22140221402213,64.95571955719558,147.6886446886447,91.04395604395604,153.5,144.5,125.5,116.5,99.5,144.5
143,7.15,-0.038408756256103516,-0.35251712799072266,1.9594237804412842,-0.032167673110961914,-1.599808931350708,-0.04644441604614258,0.47433531284332275,0.14761872589588165,0.5801880359649658,-3.136133184754324,0.02891227624558832,1.5790024892055845,199.93194706994328,91.76748582230624,174.15867158671585,65.04243542435424,147.5934065934066,91.2032967032967,153.5,144.5,125.5,116.5,99.5,144.5
144,7.2,-0.03862333297729492,-0.3521850109100342,1.9593985080718994,-0.03243207931518555,-1.599945306777954,-0.04681825637817383,0.4745461344718933,0.1474931240081787,0.5800787210464478,-3.13607302453184,0.029044276815825467,1.5791636072937365,199.8314606741573,91.81460674157303,174.03492647058823,65.06801470588235,147.496336996337,91.25641025641026,153.5,144.5,125.5,116.5,99.5,144.5
145,7.25,-0.03882479667663574,-0.35185861587524414,1.9593703746795654,-0.03269624710083008,-1.6000697612762451,-0.04719138145446777,0.47475308179855347,0.1473749876022339,0.5799738168716431,-3.1360219876598023,0.029164490790374864,1.5793370924440027,199.80149812734084,91.90449438202248,173.94074074074075,65.18888888888888,147.45970695970695,91.31684981684981,153.5,144.5,125.5,116.5,99.5,144.5
146,7.300000000000001,-0.03901958465576172,-0.35155773162841797,1.959341287612915,-0.03293871879577637,-1.6001932621002197,-0.04753828048706055,0.47494491934776306,0.14726081490516663,0.5798794627189636,-3.135977131690828,0.029285269695558037,1.5794910348920095,199.7486033519553,92.0148975791434,173.88703703703703,65.23333333333333,147.43223443223442,91.35164835164835,153.5,144.5,125.5,116.5,99.5,144.5
147,7.3500000000000005,-0.03921914100646973,-0.3512837886810303,1.9593079090118408,-0.03316378593444824,-1.6003282070159912,-0.04786324501037598,0.4751240313053131,0.14714370667934418,0.579799234867096,-3.1359460492307925,0.029417301461437177,1.579618033398346,199.7177570093458,92.10467289719627,173.81750465549348,65.29236499068901,147.41575091575092,91.36813186813187,153.5,144.5,125.5,116.5,99.5,144.5
148,7.4,-0.039420366287231445,-0.35103940963745117,1.9592697620391846,-0.03336954116821289,-1.6004712581634521,-0.04816460609436035,0.47528842091560364,0.14702577888965607,0.5797330737113953,-3.135929148577131,0.029558240234301158,1.5797188804573359,199.6829268292683,92.17823639774859,173.79182156133828,65.33271375464685,147.32844036697247,91.43853211009174,153.5,144.5,125.5,116.5,99.5,144.5
149,7.45,-0.039617061614990234,-0.3508145809173584,1.9592278003692627,-0.03356671333312988,-1.600614309310913,-0.04845428466796875,0.47544288635253906,0.14691035449504852,0.5796787142753601,-3.1359284813428556,0.029699958561709882,1.5798123588299355,199.60902255639098,92.23684210526316,173.728280961183,65.41035120147875,147.3168498168498,91.45970695970696,153.5,144.5,125.5,116.5,99.5,144.5
150,7.5,-0.03982734680175781,-0.35056591033935547,1.9591944217681885,-0.03376913070678711,-1.6007664203643799,-0.0487523078918457,0.4756097197532654,0.14678704738616943,0.5796072483062744,-3.135899235038263,0.029849804245813443,1.5799014244432836,199.5,92.28358208955224,173.6321626617375,65.48613678373383,147.27289377289378,91.47252747252747,153.5,144.5,125.5,116.5,99.5,144.5
