,t,q_1,q_2,q_3,q_4,q_5,q_6,camera_x,camera_y,camera_z,camera_roll,camera_pitch,camera_yaw,f_1,f_2,f_3,f_4,f_5,f_6,desired_f_1,desired_f_2,desired_f_3,desired_f_4,desired_f_5,desired_f_6
0,0.0,8.821487426757812e-06,0.00015425682067871094,1.5707957744598389,0.0001304149627685547,-1.5707952976226807,7.152557373046875e-07,0.680819034576416,0.16908136010169983,0.6382145881652832,-3.1409235490667897,0.00014262589818666297,1.5708377616351568,205.71618625277162,161.3569844789357,181.67405764966742,137.32594235033258,157.62334801762114,161.33920704845815,149.5,167.5,126.5,143.5,100.5,167.5
1,0.05,4.9591064453125e-05,0.0008842945098876953,1.5709278583526611,6.556510925292969e-05,-1.5715854167938232,-0.0007832050323486328,0.6811843514442444,0.16902276873588562,0.6376317143440247,-3.140119143770287,0.0009324743851002738,1.5716634554127837,205.62334801762114,161.33920704845815,181.56953642384107,137.2869757174393,157.43708609271522,161.32008830022076,149.5,167.5,126.5,143.5,100.5,167.5
2,0.1,9.918212890625e-05,0.001600503921508789,1.571042776107788,1.0251998901367188e-05,-1.5723812580108643,-0.0015337467193603516,0.6815407276153564,0.16896973550319672,0.6370714902877808,-3.139337728103693,0.0017271363097933505,1.5724659229030988,205.46238938053096,161.38053097345133,181.43046357615893,137.2869757174393,157.31346578366447,161.3708609271523,149.5,167.5,126.5,143.5,100.5,167.5
3,0.15000000000000002,0.00012755393981933594,0.002329111099243164,1.5711157321929932,-3.814697265625e-06,-1.573152780532837,-0.0023174285888671875,0.6819039583206177,0.16890408098697662,0.6365290880203247,-3.1385464253433417,0.002494162737014644,1.5732818918386655,205.26106194690266,161.42477876106196,181.30752212389382,137.34513274336283,157.1098901098901,161.36043956043957,149.5,167.5,126.5,143.5,100.5,167.5
4,0.2,0.0001614093780517578,0.0030231475830078125,1.5712316036224365,-6.413459777832031e-05,-1.5739338397979736,-0.0030448436737060547,0.682248055934906,0.16884152591228485,0.6359860897064209,-3.1377925901250734,0.0032711828578973526,1.5740476407104143,205.05286343612335,161.5,181.1409691629956,137.30396475770925,156.8901098901099,161.36043956043957,149.5,167.5,126.5,143.5,100.5,167.5
5,0.25,0.00017404556274414062,0.0037348270416259766,1.571277379989624,-6.270408630371094e-05,-1.5746891498565674,-0.0037784576416015625,0.6826053261756897,0.16876712441444397,0.6354719996452332,-3.137027894026863,0.004020777892389473,1.5747995832807247,204.94713656387665,161.5,180.92527472527473,137.33846153846153,156.66079295154185,161.37665198237886,149.5,167.5,126.5,143.5,100.5,167.5
6,0.30000000000000004,0.00022983551025390625,0.0044460296630859375,1.5713446140289307,-9.1552734375e-05,-1.5754835605621338,-0.004469394683837891,0.682955801486969,0.16871881484985352,0.6349471807479858,-3.1362719479341927,0.004808150315285832,1.5755536135196533,204.76211453744494,161.5286343612335,180.79166666666666,137.3530701754386,156.57488986784142,161.34361233480178,149.5,167.5,126.5,143.5,100.5,167.5
7,0.35000000000000003,0.0002765655517578125,0.005171537399291992,1.5714280605316162,-0.0001361370086669922,-1.5762722492218018,-0.005167961120605469,0.6833145618438721,0.1686648279428482,0.6344019770622253,-3.1354996312119883,0.005589790258355856,1.576307326118035,204.56923076923076,161.56923076923076,180.62334801762114,137.33920704845815,156.35824175824175,161.35824175824175,149.5,167.5,126.5,143.5,100.5,167.5
8,0.4,0.00031375885009765625,0.0058972835540771484,1.5714752674102783,-0.00014972686767578125,-1.5770485401153564,-0.005861997604370117,0.6836751699447632,0.1686055213212967,0.6338780522346497,-3.1347313997445294,0.006356468750612533,1.5770482032144235,204.39340659340658,161.60659340659342,180.5,137.3231441048035,156.2061403508772,161.3969298245614,149.5,167.5,126.5,143.5,100.5,167.5
9,0.45,0.0003247261047363281,0.006622791290283203,1.571476697921753,-0.000118255615234375,-1.577793836593628,-0.006578683853149414,0.6840400099754333,0.16853103041648865,0.6333807110786438,-3.133962996321622,0.007092237079691401,1.5777859122234055,204.28982300884957,161.61725663716814,180.35824175824175,137.35824175824175,156.00218340611355,161.40393013100436,149.5,167.5,126.5,143.5,100.5,167.5
10,0.5,0.00036406517028808594,0.00732874870300293,1.5715014934539795,-0.00011754035949707031,-1.578566312789917,-0.0072422027587890625,0.6843897700309753,0.16847389936447144,0.6328837871551514,-3.133221251428189,0.00785424421677437,1.5785001496835112,204.08149779735683,161.58590308370043,180.2297592997812,137.38512035010942,155.77802197802197,161.37582417582416,149.5,167.5,126.5,143.5,100.5,167.5
11,0.55,0.00040912628173828125,0.007980108261108398,1.5715820789337158,-0.00017261505126953125,-1.5793468952178955,-0.007848024368286133,0.6847105026245117,0.16842041909694672,0.6323928236961365,-3.13253376805961,0.008624643985429989,1.579163228555457,203.8901098901099,161.63956043956043,180.07843137254903,137.400871459695,155.60612691466082,161.39387308533918,149.5,167.5,126.5,143.5,100.5,167.5
12,0.6000000000000001,0.0004436969757080078,0.00863337516784668,1.5716454982757568,-0.00021338462829589844,-1.5801165103912354,-0.008452415466308594,0.685033917427063,0.16836093366146088,0.6319100260734558,-3.1318452912931343,0.009381992440069684,1.5798156249823703,203.67328918322295,161.67328918322295,179.86681222707423,137.3646288209607,155.45652173913044,161.35,149.5,167.5,126.5,143.5,100.5,167.5
13,0.65,0.00046896934509277344,0.009328126907348633,1.5716803073883057,-0.00022912025451660156,-1.5808751583099365,-0.009082555770874023,0.6853806376457214,0.1682957112789154,0.6314147114753723,-3.13111824101267,0.010128518355065704,1.5804853274685782,203.5912087912088,161.72307692307692,179.72866520787747,137.36980306345734,155.32166301969366,161.3960612691466,149.5,167.5,126.5,143.5,100.5,167.5
14,0.7000000000000001,0.0004999637603759766,0.010043621063232422,1.5716755390167236,-0.0002117156982421875,-1.581634283065796,-0.009720087051391602,0.685736894607544,0.1682346761226654,0.6309288740158081,-3.1303754058102595,0.010873414702777272,1.5811702325719788,203.42070484581498,161.73788546255506,179.60612691466082,137.39387308533918,155.11328976034858,161.42919389978215,149.5,167.5,126.5,143.5,100.5,167.5
15,0.75,0.0005269050598144531,0.010725021362304688,1.5716745853424072,-0.00019884109497070312,-1.5823872089385986,-0.010330438613891602,0.6860766410827637,0.1681714951992035,0.630464494228363,-3.129668157355421,0.01161223633188371,1.5818234447238073,203.26651982378854,161.76872246696036,179.45652173913044,137.35,154.88671023965142,161.42919389978215,149.5,167.5,126.5,143.5,100.5,167.5
16,0.8,0.0005483627319335938,0.011407136917114258,1.5716211795806885,-0.00014138221740722656,-1.5831286907196045,-0.010929346084594727,0.6864178776741028,0.16810590028762817,0.6300298571586609,-3.128966242707762,0.012339125223111933,1.5824609215277536,203.16114790286974,161.7130242825607,179.32679738562092,137.44444444444446,154.71615720524017,161.3930131004367,149.5,167.5,126.5,143.5,100.5,167.5
17,0.8500000000000001,0.0006210803985595703,0.012036561965942383,1.5716917514801025,-0.00021004676818847656,-1.5839273929595947,-0.011434316635131836,0.6867232918739319,0.1680707484483719,0.6295607686042786,-3.128319797258945,0.013123530823839255,1.5830569073550744,202.87637969094922,161.7505518763797,179.15250544662308,137.44662309368192,154.58078602620088,161.38646288209608,149.5,167.5,126.5,143.5,100.5,167.5
18,0.9,0.0006592273712158203,0.012675762176513672,1.571753740310669,-0.00026535987854003906,-1.584693193435669,-0.011973381042480469,0.6870389580726624,0.1680147349834442,0.6290891170501709,-3.127657142836111,0.013874236953616203,1.5836535202164987,202.68201754385964,161.85745614035088,179.0,137.40434782608696,154.38997821350762,161.38997821350762,149.5,167.5,126.5,143.5,100.5,167.5
19,0.9500000000000001,0.0006723403930664062,0.013347864151000977,1.5717308521270752,-0.00024318695068359375,-1.5854294300079346,-0.012530088424682617,0.687376081943512,0.16794411838054657,0.628643810749054,-3.1269679487339337,0.014593912856076497,1.5842432741735393,202.52297592997812,161.88183807439825,178.8646288209607,137.41484716157206,154.22391304347826,161.42608695652174,149.5,167.5,126.5,143.5,100.5,167.5
20,1.0,0.0006768703460693359,0.014011621475219727,1.571692705154419,-0.00020647048950195312,-1.5861537456512451,-0.013088464736938477,0.6877104640007019,0.16786892712116241,0.6282133460044861,-3.12628758335861,0.015300992998750967,1.584826235048184,202.47587719298247,161.98684210526315,178.71583514099783,137.45119305856832,154.06073752711498,161.4295010845987,149.5,167.5,126.5,143.5,100.5,167.5
21,1.05,0.0007174015045166016,0.014708518981933594,1.5716354846954346,-0.00016427040100097656,-1.586911916732788,-0.013603687286376953,0.6880567669868469,0.16781574487686157,0.6277715563774109,-3.1255872099590976,0.0160414547999952,1.5854050856491544,202.31648351648352,161.93626373626373,178.58695652173913,137.46304347826086,153.8481561822126,161.44685466377442,149.5,167.5,126.5,143.5,100.5,167.5
22,1.1,0.0007615089416503906,0.015356779098510742,1.5716044902801514,-0.0001475811004638672,-1.5876705646514893,-0.014086484909057617,0.6883772611618042,0.16776502132415771,0.6273483633995056,-3.1249341213033666,0.016783637217256616,1.5859548221949196,202.17149220489978,161.94654788418708,178.3917748917749,137.42857142857142,153.71583514099783,161.45119305856832,149.5,167.5,126.5,143.5,100.5,167.5
23,1.1500000000000001,0.0008041858673095703,0.016040802001953125,1.5715358257293701,-9.655952453613281e-05,-1.588423490524292,-0.014603376388549805,0.6887167096138,0.1677139401435852,0.6269224286079407,-3.1242475008549864,0.017517711022734243,1.586538085841796,201.84598214285714,162.12723214285714,178.32679738562092,137.44444444444446,153.529284164859,161.43817787418655,149.5,167.5,126.5,143.5,100.5,167.5
24,1.2000000000000002,0.0007843971252441406,0.016718626022338867,1.5714161396026611,6.4373016357421875e-06,-1.589118242263794,-0.015113592147827148,0.6890628337860107,0.16762524843215942,0.6265296339988708,-3.123566607379506,0.0181926592648757,1.5870521758747091,201.6967032967033,162.11428571428573,178.13943355119827,137.47494553376907,153.35,161.45652173913044,149.5,167.5,126.5,143.5,100.5,167.5
25,1.25,0.0007808208465576172,0.01738882064819336,1.571319818496704,8.440017700195312e-05,-1.589827299118042,-0.01560831069946289,0.689402163028717,0.1675466150045395,0.6261284351348877,-3.122894180846301,0.018882025900678584,1.587568628769975,201.56359649122808,162.09429824561403,177.93492407809111,137.4772234273319,153.21428571428572,161.46320346320346,149.5,167.5,126.5,143.5,100.5,167.5
26,1.3,0.0007925033569335938,0.018078088760375977,1.5712292194366455,0.00015425682067871094,-1.5905487537384033,-0.016115427017211914,0.6897491216659546,0.1674775779247284,0.6257103085517883,-3.122203279953675,0.01958291253020385,1.588114121618569,201.47702407002188,162.11816192560175,177.78695652173914,137.4608695652174,153.0086393088553,161.42980561555075,149.5,167.5,126.5,143.5,100.5,167.5
27,1.35,0.0008308887481689453,0.018772602081298828,1.57112717628479,0.00022459030151367188,-1.5912930965423584,-0.016576051712036133,0.6900950074195862,0.16742487251758575,0.6252965331077576,-3.1215182293147143,0.020307134049987723,1.5886408562884788,201.36980306345734,162.19912472647704,177.64208242950107,137.51843817787417,152.82251082251082,161.45238095238096,149.5,167.5,126.5,143.5,100.5,167.5
28,1.4000000000000001,0.0008924007415771484,0.019469499588012695,1.5710294246673584,0.00028324127197265625,-1.5920584201812744,-0.016993045806884766,0.6904388070106506,0.1673862487077713,0.6248801350593567,-3.1208383657022383,0.021052837385413997,1.5891483182221733,201.16483516483515,162.2175824175824,177.5,137.5,152.6889848812095,161.49460043196544,149.5,167.5,126.5,143.5,100.5,167.5
29,1.4500000000000002,0.0009214878082275391,0.020170211791992188,1.570892572402954,0.0003845691680908203,-1.5927879810333252,-0.017454147338867188,0.6907894015312195,0.1673285812139511,0.624481737613678,-3.120149658582631,0.021760367962353443,1.589668209323237,200.8650442477876,162.28982300884957,177.35791757049893,137.48156182212583,152.4795698924731,161.48387096774192,149.5,167.5,126.5,143.5,100.5,167.5
30,1.5,0.0009081363677978516,0.02086472511291504,1.5707180500030518,0.0005257129669189453,-1.593475103378296,-0.01792430877685547,0.691143810749054,0.16724558174610138,0.6241095066070557,-3.1194655725692115,0.022424634175844414,1.5901546091876735,200.7511013215859,162.26872246696036,177.28787878787878,137.4935064935065,152.33333333333334,161.49134199134198,149.5,167.5,126.5,143.5,100.5,167.5
31,1.55,0.0008933544158935547,0.02152228355407715,1.570561170578003,0.0006501674652099609,-1.5941603183746338,-0.018366336822509766,0.6914795637130737,0.16716212034225464,0.6237520575523376,-3.118817413544275,0.023087601815236933,1.590611042909584,200.63296703296703,162.24615384615385,177.07359307359306,137.4978354978355,152.21428571428572,161.46320346320346,149.5,167.5,126.5,143.5,100.5,167.5
32,1.6,0.0009067058563232422,0.02220916748046875,1.5704271793365479,0.0007469654083251953,-1.5948727130889893,-0.01880812644958496,0.6918253302574158,0.16709570586681366,0.6233611702919006,-3.1181432058322036,0.02377681945385333,1.5910979728353138,200.46491228070175,162.28728070175438,176.93952483801297,137.52483801295895,151.98704103671707,161.47732181425485,149.5,167.5,126.5,143.5,100.5,167.5
33,1.6500000000000001,0.0009229183197021484,0.022872209548950195,1.570293664932251,0.0008404254913330078,-1.5955851078033447,-0.019210100173950195,0.6921584010124207,0.1670314222574234,0.6229872703552246,-3.117496245346572,0.024467631986371197,1.5915481905738056,200.34868421052633,162.32894736842104,176.75862068965517,137.5301724137931,151.78571428571428,161.53679653679654,149.5,167.5,126.5,143.5,100.5,167.5
34,1.7000000000000002,0.0009469985961914062,0.023545026779174805,1.5701210498809814,0.0009684562683105469,-1.5962984561920166,-0.019614219665527344,0.692496120929718,0.16697247326374054,0.6226291060447693,-3.1168435729749704,0.025158265491773992,1.5920096097705203,200.1706783369803,162.31072210065645,176.62554112554113,137.53896103896105,151.6889848812095,161.49460043196544,149.5,167.5,126.5,143.5,100.5,167.5
35,1.75,0.0009691715240478516,0.024216651916503906,1.5699818134307861,0.0010640621185302734,-1.5970122814178467,-0.020015239715576172,0.6928330063819885,0.16691213846206665,0.6222516894340515,-3.116189814961991,0.025849031521854488,1.5924659502700298,199.97149122807016,162.36184210526315,176.53648068669528,137.53648068669528,151.5204301075269,161.51612903225808,149.5,167.5,126.5,143.5,100.5,167.5
36,1.8,0.0009615421295166016,0.024871349334716797,1.5698130130767822,0.0011916160583496094,-1.5976946353912354,-0.02041792869567871,0.6931661367416382,0.1668342798948288,0.6219035387039185,-3.115551489252105,0.026507839927898343,1.592894597241195,199.8065934065934,162.31648351648352,176.32974137931035,137.52370689655172,151.3110151187905,161.50539956803456,149.5,167.5,126.5,143.5,100.5,167.5
37,1.85,0.0009679794311523438,0.025518417358398438,1.5696566104888916,0.00130462646484375,-1.5983879566192627,-0.020807504653930664,0.6934930086135864,0.16676528751850128,0.6215533018112183,-3.1149225233490427,0.027177083965600698,1.5933250752668047,199.62938596491227,162.37938596491227,176.24516129032259,137.56129032258065,151.18279569892474,161.50967741935483,149.5,167.5,126.5,143.5,100.5,167.5
38,1.9000000000000001,0.0009603500366210938,0.026154041290283203,1.569504976272583,0.001413583755493164,-1.5990688800811768,-0.021181344985961914,0.6938162446022034,0.16668781638145447,0.6212076544761658,-3.114303700178995,0.027834135865105213,1.5937258552763185,199.5438596491228,162.3859649122807,176.0647948164147,137.57235421166305,151.0043103448276,161.54741379310346,149.5,167.5,126.5,143.5,100.5,167.5
39,1.9500000000000002,0.0009741783142089844,0.026796817779541016,1.569342851638794,0.0015285015106201172,-1.5997660160064697,-0.0215456485748291,0.6941400170326233,0.16662396490573883,0.6208639144897461,-3.1136824973511463,0.028507406636519864,1.5941403562458294,199.33115468409585,162.400871459695,175.9225806451613,137.55483870967743,150.79310344827587,161.55603448275863,149.5,167.5,126.5,143.5,100.5,167.5
40,2.0,0.00096893310546875,0.027422666549682617,1.5691578388214111,0.0016677379608154297,-1.600440263748169,-0.02190876007080078,0.6944581270217896,0.16654890775680542,0.6205441951751709,-3.1130766922538062,0.029158466832396642,1.5945335363165094,199.19912472647704,162.47045951859957,175.7725321888412,137.62231759656652,150.647311827957,161.5225806451613,149.5,167.5,126.5,143.5,100.5,167.5
41,2.0500000000000003,0.0009915828704833984,0.028057336807250977,1.5690128803253174,0.0017600059509277344,-1.6011450290679932,-0.02221822738647461,0.6947764158248901,0.16649062931537628,0.6201961636543274,-3.112468630541492,0.02984050621926851,1.5949033268856958,199.07456140350877,162.4517543859649,175.57974137931035,137.5625,150.53648068669528,161.53648068669528,149.5,167.5,126.5,143.5,100.5,167.5
42,2.1,0.0010097026824951172,0.02873063087463379,1.5688207149505615,0.0018973350524902344,-1.6018397808074951,-0.022580862045288086,0.6951155066490173,0.1664300560951233,0.6198481917381287,-3.111822511313308,0.030510011964967595,1.5953231188561545,198.87472527472528,162.47912087912087,175.53648068669528,137.53648068669528,150.3548387096774,161.51612903225808,149.5,167.5,126.5,143.5,100.5,167.5
43,2.15,0.0009944438934326172,0.029367685317993164,1.568605661392212,0.0020608901977539062,-1.6025002002716064,-0.02292346954345703,0.6954413652420044,0.16634944081306458,0.6195375919342041,-3.111210724554591,0.031145458057539085,1.5956883003882643,198.67833698030634,162.48577680525165,175.3068669527897,137.57081545064378,150.22317596566523,161.54721030042919,149.5,167.5,126.5,143.5,100.5,167.5
44,2.2,0.0009829998016357422,0.030025482177734375,1.5684053897857666,0.002209901809692383,-1.603163480758667,-0.023293495178222656,0.6957764625549316,0.16627123951911926,0.619204580783844,-3.1105757641870824,0.03178222288784997,1.596085857487017,198.56263736263736,162.45494505494506,175.24516129032259,137.56129032258065,150.01290322580644,161.57204301075268,149.5,167.5,126.5,143.5,100.5,167.5
45,2.25,0.0009636878967285156,0.030628681182861328,1.5681993961334229,0.0023670196533203125,-1.603813886642456,-0.023629426956176758,0.6960856318473816,0.16618897020816803,0.6189122796058655,-3.109994520913685,0.032407971052376666,1.596440541545181,198.43736263736264,162.54505494505494,175.03879310344828,137.57543103448276,149.84154175588864,161.6017130620985,149.5,167.5,126.5,143.5,100.5,167.5
46,2.3000000000000003,0.0009586811065673828,0.03127288818359375,1.5679547786712646,0.0025544166564941406,-1.6044752597808838,-0.023968935012817383,0.6964139938354492,0.1661159098148346,0.6186138987541199,-3.1093794160928963,0.03304273548407473,1.5968157218328864,198.27133479212253,162.51859956236325,174.8795698924731,137.63010752688172,149.68094218415416,161.58672376873662,149.5,167.5,126.5,143.5,100.5,167.5
47,2.35,0.0009713172912597656,0.031893253326416016,1.5677711963653564,0.0026814937591552734,-1.605154275894165,-0.024271011352539062,0.6967270374298096,0.16605329513549805,0.6182968616485596,-3.108787443425497,0.03369797116606958,1.5971710005495054,198.12527472527472,162.52087912087913,174.7725321888412,137.62231759656652,149.53648068669528,161.53648068669528,149.5,167.5,126.5,143.5,100.5,167.5
48,2.4000000000000004,0.0009860992431640625,0.03250527381896973,1.5676014423370361,0.002793550491333008,-1.6058361530303955,-0.02454400062561035,0.6970348954200745,0.1659926176071167,0.6179783940315247,-3.1082067924189216,0.03435626621126203,1.5975003620279993,197.9032967032967,162.53406593406592,174.60085836909872,137.6587982832618,149.4255319148936,161.60638297872342,149.5,167.5,126.5,143.5,100.5,167.5
49,2.45,0.0009772777557373047,0.03311944007873535,1.5674307346343994,0.002912759780883789,-1.6064932346343994,-0.024865388870239258,0.6973472237586975,0.16591720283031464,0.6176578998565674,-3.1076152562693866,0.034987034781883426,1.5978540747006245,197.75816993464053,162.5599128540305,174.51282051282053,137.58333333333334,149.2826552462527,161.5610278372591,149.5,167.5,126.5,143.5,100.5,167.5
50,2.5,0.0009484291076660156,0.03374457359313965,1.5672075748443604,0.0030815601348876953,-1.6071279048919678,-0.0251924991607666,0.6976687908172607,0.16582989692687988,0.617359459400177,-3.1070154920227093,0.035594463219624985,1.598194395768029,197.6323851203501,162.56236323851203,174.3390557939914,137.61158798283262,149.09012875536482,161.57510729613733,149.5,167.5,126.5,143.5,100.5,167.5
51,2.5500000000000003,0.0009391307830810547,0.03436136245727539,1.5669996738433838,0.003232240676879883,-1.607778787612915,-0.025491952896118164,0.6979829668998718,0.16575489938259125,0.617058515548706,-3.106427563562075,0.036219667836003916,1.598527178890835,197.48245614035088,162.58552631578948,174.23706896551724,137.58620689655172,148.9059829059829,161.6239316239316,149.5,167.5,126.5,143.5,100.5,167.5
52,2.6,0.0009067058563232422,0.03496289253234863,1.5667431354522705,0.0034339427947998047,-1.608400583267212,-0.02580547332763672,0.6982941031455994,0.16566672921180725,0.61679607629776,-3.1058522909054878,0.0368152390836272,1.598850317894892,197.34725274725275,162.60879120879122,174.03879310344828,137.57543103448276,148.77777777777777,161.63888888888889,149.5,167.5,126.5,143.5,100.5,167.5
53,2.6500000000000004,0.0008807182312011719,0.0355987548828125,1.566462755203247,0.0036551952362060547,-1.6090261936187744,-0.026143789291381836,0.6986216306686401,0.1655823439359665,0.6165226697921753,-3.1052456881517614,0.03741178077888125,1.599206198911823,197.2061403508772,162.66008771929825,173.862660944206,137.65021459227466,148.5969827586207,161.61206896551724,149.5,167.5,126.5,143.5,100.5,167.5
54,2.7,0.0008881092071533203,0.036234378814697266,1.5662305355072021,0.00382232666015625,-1.6096861362457275,-0.026419639587402344,0.6989436745643616,0.1655186414718628,0.6162224411964417,-3.104645793251893,0.03804548215164965,1.5995354665666832,197.11258278145695,162.64238410596028,173.741452991453,137.66239316239316,148.4733475479744,161.63113006396588,149.5,167.5,126.5,143.5,100.5,167.5
55,2.75,0.0009038448333740234,0.03686165809631348,1.5660078525543213,0.003979206085205078,-1.610351800918579,-0.02668905258178711,0.6992596983909607,0.16546007990837097,0.6159230470657349,-3.104054473006671,0.03868516032962359,1.5998666614570292,196.86123348017622,162.58590308370043,173.58672376873662,137.68094218415416,148.37313432835822,161.590618336887,149.5,167.5,126.5,143.5,100.5,167.5
56,2.8000000000000003,0.0009057521820068359,0.03747367858886719,1.5658419132232666,0.0040857791900634766,-1.6110074520111084,-0.02696704864501953,0.6995687484741211,0.1653926968574524,0.6156006455421448,-3.103471583240576,0.03931370133242866,1.6001932901068943,196.70021881838073,162.63019693654266,173.53944562899787,137.6865671641791,148.13675213675214,161.57478632478632,149.5,167.5,126.5,143.5,100.5,167.5
57,2.85,0.0008950233459472656,0.038037776947021484,1.5656673908233643,0.0042035579681396484,-1.6116478443145752,-0.027185678482055664,0.6998559236526489,0.16531839966773987,0.6153168678283691,-3.1029381450380957,0.039930249994704584,1.6004458701467006,196.58333333333334,162.66228070175438,173.40384615384616,137.67735042735043,147.94444444444446,161.60683760683762,149.5,167.5,126.5,143.5,100.5,167.5
58,2.9000000000000004,0.0008842945098876953,0.038599252700805664,1.5654585361480713,0.0043528079986572266,-1.6122825145721436,-0.027398109436035156,0.7001422643661499,0.1652447134256363,0.6150544881820679,-3.1024089073770487,0.04054161294950611,1.6006922746560082,196.4295154185022,162.69823788546256,173.29677419354837,137.63440860215053,147.81623931623932,161.6602564102564,149.5,167.5,126.5,143.5,100.5,167.5
59,2.95,0.0008409023284912109,0.03917121887207031,1.5651819705963135,0.004571676254272461,-1.612879991531372,-0.027660131454467773,0.7004402875900269,0.16515149176120758,0.6148226857185364,-3.1018656541227174,0.0411126666787994,1.6009552391897042,196.28728070175438,162.7017543859649,173.06852248394003,137.610278372591,147.6936170212766,161.65744680851063,149.5,167.5,126.5,143.5,100.5,167.5
60,3.0,0.0008087158203125,0.039786577224731445,1.5648882389068604,0.004803180694580078,-1.6134865283966064,-0.02795243263244629,0.700758695602417,0.1650649905204773,0.614570677280426,-3.1012822942416562,0.041690086886844904,1.6012624026095064,196.21145374449338,162.70264317180616,172.90405117270788,137.67377398720683,147.53944562899787,161.6865671641791,149.5,167.5,126.5,143.5,100.5,167.5
61,3.0500000000000003,0.0008094310760498047,0.04039430618286133,1.5646297931671143,0.004995584487915039,-1.6141235828399658,-0.028208494186401367,0.7010675668716431,0.1649990677833557,0.6143038272857666,-3.100709900910817,0.04230043254198076,1.6015679755201704,196.06828193832598,162.66960352422907,172.73931623931625,137.70726495726495,147.43683083511777,161.6680942184154,149.5,167.5,126.5,143.5,100.5,167.5
62,3.1,0.0008256435394287109,0.04100203514099121,1.5644199848175049,0.00513911247253418,-1.614776849746704,-0.028454303741455078,0.7013730406761169,0.16494253277778625,0.6140096783638,-3.1001378860939885,0.04292683843126081,1.601880280726076,195.77802197802197,162.74285714285713,172.63191489361702,137.72978723404256,147.2725321888412,161.6244635193133,149.5,167.5,126.5,143.5,100.5,167.5
63,3.1500000000000004,0.0008108615875244141,0.04159832000732422,1.564218282699585,0.005278348922729492,-1.6154019832611084,-0.02868509292602539,0.7016770243644714,0.16486696898937225,0.6137180924415588,-3.0995744989287184,0.04352519362523443,1.6021451846635517,195.66157205240174,162.69650655021834,172.56289978678038,137.72068230277185,147.0940170940171,161.60470085470087,149.5,167.5,126.5,143.5,100.5,167.5
64,3.2,0.0007948875427246094,0.04214954376220703,1.5640332698822021,0.005403280258178711,-1.616023302078247,-0.02887701988220215,0.7019583582878113,0.16479100286960602,0.613448441028595,-3.0990552621713676,0.04412240919805263,1.6023687280008299,195.5414847161572,162.77729257641923,172.4456289978678,137.7185501066098,146.9145299145299,161.64957264957266,149.5,167.5,126.5,143.5,100.5,167.5
65,3.25,0.0007712841033935547,0.04270744323730469,1.5637962818145752,0.005578041076660156,-1.6166322231292725,-0.029069185256958008,0.7022451758384705,0.16471102833747864,0.6132034659385681,-3.098531604352506,0.044706462082120604,1.6025853482738017,195.41189427312776,162.73788546255506,172.33261802575106,137.69742489270385,146.7808510638298,161.69148936170214,149.5,167.5,126.5,143.5,100.5,167.5
66,3.3000000000000003,0.0007326602935791016,0.04324960708618164,1.5635430812835693,0.0057735443115234375,-1.6172220706939697,-0.029286623001098633,0.7025265097618103,0.16462217271327972,0.6129786968231201,-3.098019016715189,0.045270824522602504,1.6028113352570215,195.24778761061947,162.73451327433628,172.1228813559322,137.72669491525423,146.67940552016987,161.67940552016987,149.5,167.5,126.5,143.5,100.5,167.5
67,3.35,0.0007092952728271484,0.04381608963012695,1.5633203983306885,0.005935192108154297,-1.6178276538848877,-0.029511690139770508,0.7028170824050903,0.1645425260066986,0.612718403339386,-3.0974831567580616,0.045850514563161276,1.6030624895737118,195.22295805739515,162.72626931567328,171.90233545647558,137.72611464968153,146.51489361702127,161.69574468085105,149.5,167.5,126.5,143.5,100.5,167.5
68,3.4000000000000004,0.0007317066192626953,0.04441070556640625,1.563091516494751,0.006093740463256836,-1.6184742450714111,-0.029720067977905273,0.7031154036521912,0.16449129581451416,0.6124435663223267,-3.0969285917631084,0.04647008670025393,1.6033464983721069,195.01766004415012,162.7505518763797,171.79025423728814,137.7584745762712,146.40899357601714,161.67665952890792,149.5,167.5,126.5,143.5,100.5,167.5
69,3.45,0.0007412433624267578,0.04499936103820801,1.5628879070281982,0.0062291622161865234,-1.6191093921661377,-0.02992391586303711,0.7034120559692383,0.16443221271038055,0.6121584177017212,-3.096377027262578,0.047078822246670975,1.6036126074763937,194.76754385964912,162.76754385964912,171.69148936170214,137.7808510638298,146.24786324786325,161.6645299145299,149.5,167.5,126.5,143.5,100.5,167.5
70,3.5,0.0007231235504150391,0.04555869102478027,1.5627014636993408,0.006354570388793945,-1.6197173595428467,-0.030118942260742188,0.7036967873573303,0.1643560528755188,0.611882746219635,-3.0958494672302352,0.047661011664450845,1.6038406873655964,194.63457330415756,162.8030634573304,171.56382978723406,137.7468085106383,145.99154334038056,161.66173361522198,149.5,167.5,126.5,143.5,100.5,167.5
71,3.5500000000000003,0.0007042884826660156,0.04610323905944824,1.562471628189087,0.006520986557006836,-1.6203186511993408,-0.03028249740600586,0.703976035118103,0.16428028047084808,0.6116428971290588,-3.0953409382089685,0.048237938460309625,1.6040361873019056,194.5414847161572,162.77729257641923,171.4787234042553,137.7851063829787,145.85774946921444,161.68365180467092,149.5,167.5,126.5,143.5,100.5,167.5
72,3.6,0.0006918907165527344,0.046614646911621094,1.5622718334197998,0.00666046142578125,-1.6209242343902588,-0.030419111251831055,0.7042365670204163,0.16420908272266388,0.6114084720611572,-3.0948631165435683,0.048821612672159974,1.6042102221325163,194.41850220264317,162.7797356828194,171.39316239316238,137.82264957264957,145.76645435244163,161.71337579617835,149.5,167.5,126.5,143.5,100.5,167.5
73,3.6500000000000004,0.0006730556488037109,0.047110795974731445,1.5620896816253662,0.00678563117980957,-1.621523141860962,-0.030556201934814453,0.7044901251792908,0.16413402557373047,0.6111745834350586,-3.094397194616942,0.04939884959276366,1.604378118955008,194.27272727272728,162.79157427937915,171.23044397463002,137.79915433403806,145.64543524416135,161.75583864118897,149.5,167.5,126.5,143.5,100.5,167.5
74,3.7,0.0006425380706787109,0.04762721061706543,1.5618703365325928,0.006947994232177734,-1.6221067905426025,-0.030736446380615234,0.7047566175460815,0.16405174136161804,0.610946774482727,-3.093908900877921,0.04995782274718123,1.6045781703029358,194.22172949002217,162.77827050997783,171.00842105263158,137.76842105263157,145.51380042462844,161.72186836518046,149.5,167.5,126.5,143.5,100.5,167.5
75,3.75,0.000652313232421875,0.0481870174407959,1.5616438388824463,0.007105827331542969,-1.622727632522583,-0.030908584594726562,0.7050387263298035,0.16399437189102173,0.6106936931610107,-3.0933873458130825,0.05055331857324269,1.6048147160968522,194.06666666666666,162.84444444444443,170.86919831223628,137.78902953586498,145.43803418803418,161.74358974358975,149.5,167.5,126.5,143.5,100.5,167.5
76,3.8000000000000003,0.0006539821624755859,0.048776865005493164,1.5614025592803955,0.007277488708496094,-1.623340368270874,-0.03110671043395996,0.7053377032279968,0.16393190622329712,0.6104280352592468,-3.092836059785536,0.051137927912835404,1.605071065049976,193.7846153846154,162.85714285714286,170.71610169491527,137.79237288135593,145.2420382165605,161.7388535031847,149.5,167.5,126.5,143.5,100.5,167.5
77,3.85,0.0006270408630371094,0.04934835433959961,1.5611627101898193,0.007453203201293945,-1.6239240169525146,-0.03131246566772461,0.7056309580802917,0.16385194659233093,0.6101735830307007,-3.0922975281396092,0.051692848446386934,1.6053039649379075,193.66301969365426,162.89277899343546,170.66666666666666,137.84288747346073,145.0336842105263,161.74947368421053,149.5,167.5,126.5,143.5,100.5,167.5
78,3.9000000000000004,0.0005996227264404297,0.04986882209777832,1.5609400272369385,0.0076160430908203125,-1.6245043277740479,-0.03145432472229004,0.7058984041213989,0.16377271711826324,0.6099454164505005,-3.0918096343253403,0.052249563657171635,1.6054714799030865,193.58424507658643,162.88183807439825,170.53911205073996,137.8076109936575,144.84177215189874,161.75738396624473,149.5,167.5,126.5,143.5,100.5,167.5
79,3.95,0.0005800724029541016,0.05038118362426758,1.560687780380249,0.007806062698364258,-1.6250865459442139,-0.03158283233642578,0.7061612606048584,0.16369862854480743,0.6097395420074463,-3.091332362425187,0.052808912595353495,1.6056327912708996,193.42857142857142,162.85274725274726,170.45338983050848,137.84322033898306,144.76532769556025,161.76532769556025,149.5,167.5,126.5,143.5,100.5,167.5
80,4.0,0.0005495548248291016,0.050871849060058594,1.5604736804962158,0.007963895797729492,-1.6256587505340576,-0.03171396255493164,0.7064142227172852,0.16361792385578156,0.6095263957977295,-3.090870868755586,0.0533585636648173,1.6057854279593817,193.31858407079645,162.8429203539823,170.34533898305085,137.8728813559322,144.66807610993658,161.7674418604651,149.5,167.5,126.5,143.5,100.5,167.5
81,4.05,0.0005247592926025391,0.051354169845581055,1.5602853298187256,0.00809621810913086,-1.626237154006958,-0.03183341026306152,0.7066611647605896,0.16354098916053772,0.6093040108680725,-3.0904172474147997,0.05391486294749306,1.6059326882734144,193.20971302428256,162.83002207505518,170.109243697479,137.81302521008402,144.52966101694915,161.78601694915255,149.5,167.5,126.5,143.5,100.5,167.5
82,4.1000000000000005,0.0005114078521728516,0.05188298225402832,1.560051679611206,0.008266687393188477,-1.6268212795257568,-0.0319981575012207,0.7069311141967773,0.1634707897901535,0.6090755462646484,-3.0899214083616893,0.05447395397452056,1.606139037724614,193.0929203539823,162.8716814159292,169.9096638655462,137.81932773109244,144.4531914893617,161.79148936170213,149.5,167.5,126.5,143.5,100.5,167.5
83,4.15,0.0005128383636474609,0.05246233940124512,1.5598065853118896,0.008441686630249023,-1.62742018699646,-0.03218674659729004,0.7072246074676514,0.16340987384319305,0.6088185906410217,-3.089380062423311,0.05504406069412371,1.6063883671604684,192.87252747252748,163.0,169.8139534883721,137.81606765327695,144.22268907563026,161.85714285714286,149.5,167.5,126.5,143.5,100.5,167.5
84,4.2,0.00047397613525390625,0.05303359031677246,1.5594847202301025,0.008697509765625,-1.6279737949371338,-0.032389163970947266,0.7075208425521851,0.1633242517709732,0.6086100935935974,-3.0888432076159145,0.05556761121272914,1.6066089282479865,192.72246696035242,162.99118942731278,169.71247357293868,137.8181818181818,144.05648535564853,161.7887029288703,149.5,167.5,126.5,143.5,100.5,167.5
85,4.25,0.0004413127899169922,0.05358386039733887,1.5591914653778076,0.008924722671508789,-1.6285326480865479,-0.03254222869873047,0.7078056335449219,0.16324323415756226,0.6084006428718567,-3.0883298638389465,0.0561005592620304,1.6067860340733484,192.58771929824562,162.9078947368421,169.6215644820296,137.84355179704016,143.9242105263158,161.8294736842105,149.5,167.5,126.5,143.5,100.5,167.5
86,4.3,0.0003991127014160156,0.054085493087768555,1.5589334964752197,0.009125471115112305,-1.629080057144165,-0.03269600868225098,0.7080663442611694,0.16315658390522003,0.6082038283348083,-3.0878569134851794,0.05662262898667657,1.606951386681291,192.46696035242292,162.91629955947135,169.51476793248946,137.79957805907173,143.81684210526316,161.7642105263158,149.5,167.5,126.5,143.5,100.5,167.5
87,4.3500000000000005,0.00035762786865234375,0.05460333824157715,1.558664083480835,0.009334087371826172,-1.6296274662017822,-0.03284049034118652,0.7083348631858826,0.1630704551935196,0.6080025434494019,-3.0873715693605543,0.05714458325406484,1.6071102287199133,192.38325991189427,162.90088105726872,169.42372881355934,137.885593220339,143.69409282700423,161.76793248945148,149.5,167.5,126.5,143.5,100.5,167.5
88,4.4,0.0003387928009033203,0.05508565902709961,1.5584619045257568,0.009477376937866211,-1.630197286605835,-0.0329279899597168,0.7085814476013184,0.1629987359046936,0.6077880263328552,-3.086922068306125,0.0576933726061454,1.607234387186768,192.25333333333333,162.9311111111111,169.30296610169492,137.885593220339,143.56236786469344,161.84355179704016,149.5,167.5,126.5,143.5,100.5,167.5
89,4.45,0.00030303001403808594,0.05556988716125488,1.5582211017608643,0.009662151336669922,-1.6307461261749268,-0.0330510139465332,0.708832323551178,0.16291660070419312,0.6075934171676636,-3.0864664682357574,0.058219077471219086,1.6073764631751344,192.11258278145695,162.92273730684326,169.10041841004184,137.9100418410042,143.48832271762208,161.81953290870487,149.5,167.5,126.5,143.5,100.5,167.5
90,4.5,0.0002875328063964844,0.05608510971069336,1.5580132007598877,0.009808063507080078,-1.631317377090454,-0.03317904472351074,0.7090942859649658,0.16284677386283875,0.6073582172393799,-3.0859836267883494,0.05876506914985719,1.6075472254045733,191.92494481236204,163.0,168.9056603773585,137.84486373165618,143.33684210526314,161.88,149.5,167.5,126.5,143.5,100.5,167.5
91,4.55,0.0002446174621582031,0.056650400161743164,1.5577080249786377,0.010048151016235352,-1.6318562030792236,-0.03338456153869629,0.7093876600265503,0.16275981068611145,0.6071433424949646,-3.085450507121103,0.05927306826411372,1.607769074401103,191.78366445916114,163.00441501103754,168.78902953586498,137.81012658227849,143.15866388308976,161.89352818371609,149.5,167.5,126.5,143.5,100.5,167.5
92,4.6000000000000005,0.0001888275146484375,0.05720710754394531,1.5573699474334717,0.010323286056518555,-1.6323778629302979,-0.03359651565551758,0.7096794247627258,0.16266530752182007,0.6069535613059998,-3.08492407431246,0.05976358362422811,1.6079842319039095,191.65934065934067,162.98901098901098,168.71247357293868,137.8181818181818,142.98535564853557,161.85983263598325,149.5,167.5,126.5,143.5,100.5,167.5
93,4.65,0.00013518333435058594,0.057729482650756836,1.5570533275604248,0.010579586029052734,-1.632899522781372,-0.033762454986572266,0.7099533081054688,0.16257306933403015,0.6067750453948975,-3.084432163081229,0.06025755225545138,1.6081540916783956,191.52516411378556,163.00656455142231,168.5970464135021,137.8523206751055,142.84873949579833,161.82563025210084,149.5,167.5,126.5,143.5,100.5,167.5
94,4.7,9.298324584960938e-05,0.0582432746887207,1.5567667484283447,0.010805130004882812,-1.633432149887085,-0.033889055252075195,0.710220217704773,0.1624879091978073,0.6065855026245117,-3.0839514205273884,0.06076476949710765,1.6082960651606386,191.3920704845815,163.0022026431718,168.50315789473683,137.82315789473685,142.74159663865547,161.82983193277312,149.5,167.5,126.5,143.5,100.5,167.5
95,4.75,3.504753112792969e-05,0.05875682830810547,1.5564601421356201,0.011052846908569336,-1.6339476108551025,-0.034035682678222656,0.7104898691177368,0.16239330172538757,0.6064072251319885,-3.083467766665891,0.06125322126689124,1.608442561016115,191.2787610619469,162.96902654867256,168.40084388185653,137.93037974683546,142.6139240506329,161.86708860759492,149.5,167.5,126.5,143.5,100.5,167.5
96,4.800000000000001,-7.867813110351562e-06,0.059223175048828125,1.5562303066253662,0.011229991912841797,-1.634476900100708,-0.03413844108581543,0.7107317447662354,0.16230805218219757,0.6062179803848267,-3.0830276912593297,0.06176013351504173,1.6085587916067787,191.2146017699115,162.96902654867256,168.27100840336135,137.95378151260505,142.54122621564483,161.86046511627907,149.5,167.5,126.5,143.5,100.5,167.5
97,4.8500000000000005,-2.9802322387695312e-05,0.05970335006713867,1.556020975112915,0.011381864547729492,-1.6350271701812744,-0.03422880172729492,0.7109768390655518,0.16223615407943726,0.6060076355934143,-3.082577411315948,0.062287924976993335,1.608686173754697,191.0,163.0,168.05416666666667,137.92916666666667,142.40421052631578,161.90315789473684,149.5,167.5,126.5,143.5,100.5,167.5
98,4.9,-6.842613220214844e-05,0.06021881103515625,1.5557701587677002,0.011573314666748047,-1.6355583667755127,-0.03437995910644531,0.7112433314323425,0.16215354204177856,0.605795681476593,-3.082090348339953,0.0627919405951375,1.608858518554966,190.8849557522124,163.05088495575222,167.9206680584551,137.89352818371609,142.20208333333332,161.93541666666667,149.5,167.5,126.5,143.5,100.5,167.5
99,4.95,-0.00011348724365234375,0.06074047088623047,1.55545973777771,0.011823177337646484,-1.636078119277954,-0.03453636169433594,0.711514949798584,0.16206727921962738,0.6056132912635803,-3.081598714503008,0.06328280472774099,1.6090298090016941,190.74666666666667,163.0688888888889,167.7642105263158,137.81684210526316,142.05394190871368,161.9564315352697,149.5,167.5,126.5,143.5,100.5,167.5
100,5.0,-0.00017452239990234375,0.06128954887390137,1.5550801753997803,0.01213979721069336,-1.6365773677825928,-0.03473997116088867,0.7118045091629028,0.16197125613689423,0.6054508090019226,-3.0810792513273446,0.06375005909721654,1.6092333348945285,190.65265486725664,163.13716814159292,167.68987341772151,137.831223628692,141.9311064718163,161.89770354906054,149.5,167.5,126.5,143.5,100.5,167.5
101,5.050000000000001,-0.00022339820861816406,0.061844587326049805,1.5547049045562744,0.012448549270629883,-1.6370880603790283,-0.03489279747009277,0.7120948433876038,0.16188324987888336,0.605282187461853,-3.0805607807271773,0.06423135274272782,1.6093995172507514,190.50772626931567,163.07726269315674,167.59157894736842,137.8778947368421,141.82142857142858,161.8403361344538,149.5,167.5,126.5,143.5,100.5,167.5
102,5.1000000000000005,-0.00026035308837890625,0.06236624717712402,1.5544064044952393,0.01268315315246582,-1.6376116275787354,-0.03499770164489746,0.7123650312423706,0.1618029773235321,0.6050931215286255,-3.080074645236331,0.06472946901336335,1.609529121156839,190.38105726872246,163.05286343612335,167.49789915966386,137.84873949579833,141.71008403361344,161.86344537815125,149.5,167.5,126.5,143.5,100.5,167.5
103,5.15,-0.0003147125244140625,0.06287980079650879,1.5540883541107178,0.01294088363647461,-1.638115644454956,-0.035129547119140625,0.7126339673995972,0.16171202063560486,0.6049203276634216,-3.07959221354082,0.06520626150031066,1.609667232213879,190.21681415929203,163.02212389380531,167.41684210526316,137.94736842105263,141.56540084388186,161.86919831223628,149.5,167.5,126.5,143.5,100.5,167.5
104,5.2,-0.0003666877746582031,0.06333613395690918,1.553849458694458,0.013128280639648438,-1.6386220455169678,-0.03520989418029785,0.7128719687461853,0.16162283718585968,0.604742169380188,-3.079161557561322,0.06569025274745265,1.609753729058473,190.14855875831486,163.04656319290464,167.34105263157895,137.97684210526316,141.5137420718816,161.90486257928117,149.5,167.5,126.5,143.5,100.5,167.5
105,5.25,-0.0004184246063232422,0.0637974739074707,1.5536119937896729,0.013314008712768555,-1.6391279697418213,-0.035298824310302734,0.7131122350692749,0.16153381764888763,0.604559600353241,-3.0787255448961894,0.06617332343390742,1.6098493793820632,189.940133037694,163.07538802660753,167.08958333333334,137.96458333333334,141.3361344537815,161.9327731092437,149.5,167.5,126.5,143.5,100.5,167.5
106,5.300000000000001,-0.00047016143798828125,0.06429195404052734,1.5533478260040283,0.01352238655090332,-1.6396315097808838,-0.035422325134277344,0.7133699059486389,0.16144463419914246,0.6043686866760254,-3.078257832813687,0.06665041602111856,1.6099820729833498,189.81152993348115,163.03325942350332,166.93958333333333,137.91041666666666,141.15113871635612,161.9792960662526,149.5,167.5,126.5,143.5,100.5,167.5
107,5.3500000000000005,-0.0005350112915039062,0.06477761268615723,1.5530426502227783,0.013774633407592773,-1.6401164531707764,-0.03557896614074707,0.7136259078979492,0.16134759783744812,0.6042072772979736,-3.0777947843908144,0.06710685850925485,1.6101340105592612,189.74,163.12222222222223,166.84486373165618,137.84696016771488,141.03118503118503,161.96881496881497,149.5,167.5,126.5,143.5,100.5,167.5
108,5.4,-0.0006043910980224609,0.06530165672302246,1.552661657333374,0.014095783233642578,-1.6405937671661377,-0.03574728965759277,0.7139038443565369,0.16124814748764038,0.6040624380111694,-3.077299042553364,0.06755358918086052,1.610294813869121,189.63858093126385,163.11529933481154,166.68421052631578,137.85684210526315,140.90625,161.89166666666668,149.5,167.5,126.5,143.5,100.5,167.5
109,5.45,-0.0006420612335205078,0.06583786010742188,1.552316427230835,0.014374256134033203,-1.6411020755767822,-0.035868167877197266,0.714182436466217,0.16116851568222046,0.6038883328437805,-3.0767991799840773,0.06803403845710737,1.6104426416306086,189.5287610619469,163.0929203539823,166.6139240506329,137.89029535864978,140.7987421383648,161.85324947589098,149.5,167.5,126.5,143.5,100.5,167.5
110,5.5,-0.0006723403930664062,0.06634831428527832,1.5520164966583252,0.014610528945922852,-1.6416175365447998,-0.03594684600830078,0.7144456505775452,0.16109396517276764,0.603707492351532,-3.0763252224107753,0.06852476019903493,1.6105553337695446,189.3362831858407,163.0420353982301,166.5337552742616,137.87974683544303,140.68987341772151,161.89029535864978,149.5,167.5,126.5,143.5,100.5,167.5
111,5.550000000000001,-0.0007379055023193359,0.06682991981506348,1.5517170429229736,0.014856100082397461,-1.6420958042144775,-0.03606605529785156,0.7146994471549988,0.1609971821308136,0.6035451889038086,-3.0758696169607647,0.06897710660115144,1.6106690807477866,189.21681415929203,163.02212389380531,166.41684210526316,137.94736842105263,140.5536842105263,161.89263157894737,149.5,167.5,126.5,143.5,100.5,167.5
112,5.6000000000000005,-0.0007894039154052734,0.06728267669677734,1.5514709949493408,0.015051126480102539,-1.6425879001617432,-0.03614449501037598,0.714935302734375,0.16090968251228333,0.6033726334571838,-3.0754418324610566,0.06944551595818949,1.6107566304596304,189.14855875831486,163.04656319290464,166.34105263157895,137.97684210526316,140.47058823529412,161.96638655462183,149.5,167.5,126.5,143.5,100.5,167.5
113,5.65,-0.00084686279296875,0.06773042678833008,1.5512120723724365,0.015260934829711914,-1.6430714130401611,-0.036240577697753906,0.7151700854301453,0.16081862151622772,0.603210985660553,-3.075015808964289,0.06990531754625458,1.610855056292773,188.94,163.10222222222222,166.160751565762,137.9582463465553,140.2901878914405,161.98121085594988,149.5,167.5,126.5,143.5,100.5,167.5
114,5.7,-0.0009179115295410156,0.06819748878479004,1.550915002822876,0.015507936477661133,-1.6435387134552002,-0.036359310150146484,0.7154173254966736,0.16071896255016327,0.6030566692352295,-3.074570413928852,0.07034648919492775,1.6109630556977037,188.80444444444444,163.11333333333334,166.02922755741128,137.93528183716074,140.15113871635612,161.9792960662526,149.5,167.5,126.5,143.5,100.5,167.5
115,5.75,-0.000993490219116211,0.06867170333862305,1.550598382949829,0.01577448844909668,-1.6439998149871826,-0.03648543357849121,0.7156690359115601,0.1606169492006302,0.602908730506897,-3.0741179913402044,0.07077977817908747,1.6110746740824957,188.72767857142858,163.17410714285714,165.89144050104383,137.90814196242172,140.03118503118503,161.96881496881497,149.5,167.5,126.5,143.5,100.5,167.5
116,5.800000000000001,-0.0010581016540527344,0.06918001174926758,1.5502426624298096,0.01607227325439453,-1.6444694995880127,-0.03661036491394043,0.7159375548362732,0.16052167117595673,0.602758526802063,-3.0736377831394295,0.07122070361267978,1.611199187925414,188.63858093126385,163.11529933481154,165.73739495798318,137.86974789915968,139.92116182572613,161.93983402489627,149.5,167.5,126.5,143.5,100.5,167.5
117,5.8500000000000005,-0.0011093616485595703,0.06969738006591797,1.5498921871185303,0.016360998153686523,-1.6449501514434814,-0.03673887252807617,0.7162080407142639,0.1604350060224533,0.6025999784469604,-3.0731515024139964,0.07167286496874674,1.6113415539912352,188.50776053215077,163.07760532150775,165.66244725738397,137.87130801687763,139.7987421383648,161.85324947589098,149.5,167.5,126.5,143.5,100.5,167.5
118,5.9,-0.001154184341430664,0.0701911449432373,1.5495851039886475,0.016608238220214844,-1.6454365253448486,-0.03681826591491699,0.7164649963378906,0.16035284101963043,0.6024333834648132,-3.0726903212033454,0.07213428779027822,1.6114405637702136,188.3458980044346,163.06651884700665,165.5557894736842,137.89263157894737,139.7157894736842,161.88842105263157,149.5,167.5,126.5,143.5,100.5,167.5
119,5.95,-0.001215219497680664,0.0706777572631836,1.5492889881134033,0.016849040985107422,-1.645906686782837,-0.036924123764038086,0.7167202234268188,0.16026008129119873,0.6022648811340332,-3.072231054047712,0.07257751508264837,1.6115492233637703,188.23059866962305,163.04434589800442,165.48008385744234,137.8679245283019,139.5483193277311,161.91806722689077,149.5,167.5,126.5,143.5,100.5,167.5
120,6.0,-0.001293182373046875,0.0711359977722168,1.5489704608917236,0.01711869239807129,-1.6463563442230225,-0.03703618049621582,0.7169642448425293,0.16015730798244476,0.6021288633346558,-3.0717941070193664,0.07300052606417902,1.6116445342868981,188.14855875831486,163.04656319290464,165.40126050420167,137.96848739495798,139.49475890985326,161.9748427672956,149.5,167.5,126.5,143.5,100.5,167.5
121,6.050000000000001,-0.0013630390167236328,0.07157325744628906,1.5487034320831299,0.017339706420898438,-1.6468141078948975,-0.037134408950805664,0.7171953916549683,0.16005957126617432,0.6019775867462158,-3.0713753478864834,0.07343352170865446,1.611733086651688,187.93763919821825,163.07572383073497,165.29140461215934,137.98742138364778,139.32704402515722,162.0020964360587,149.5,167.5,126.5,143.5,100.5,167.5
122,6.1000000000000005,-0.0014569759368896484,0.07199239730834961,1.5484302043914795,0.01757335662841797,-1.6472456455230713,-0.03724026679992676,0.7174208760261536,0.1599472165107727,0.6018421649932861,-3.0709687356775555,0.07384032629879705,1.611804035353092,187.83482142857142,163.08258928571428,165.0688935281837,137.94989561586638,139.17561983471074,161.97107438016528,149.5,167.5,126.5,143.5,100.5,167.5
123,6.15,-0.0015249252319335938,0.07245016098022461,1.5481388568878174,0.017815589904785156,-1.6477010250091553,-0.03734326362609863,0.7176620960235596,0.15985114872455597,0.6016902327537537,-3.07053239802562,0.07426942388175156,1.6119015583133167,187.73942093541203,163.14922048997772,164.93347193347194,137.93555093555094,139.09958506224066,161.97717842323652,149.5,167.5,126.5,143.5,100.5,167.5
124,6.2,-0.0015888214111328125,0.07294940948486328,1.5478127002716064,0.018085479736328125,-1.6481592655181885,-0.03746509552001953,0.7179250717163086,0.1597575545310974,0.6015287637710571,-3.0700591827989743,0.07469892140907632,1.6120251418859057,187.66146993318486,163.15367483296214,164.85594989561588,137.89144050104383,138.97095435684648,161.93983402489627,149.5,167.5,126.5,143.5,100.5,167.5
125,6.25,-0.0016520023345947266,0.07344937324523926,1.5474650859832764,0.018375396728515625,-1.648616075515747,-0.03757214546203613,0.7181881666183472,0.15966461598873138,0.6013794541358948,-3.069587688601374,0.07512698201297491,1.6121349653491464,187.56347438752783,163.15812917594656,164.71488469601678,137.8825995807128,138.84375,161.90833333333333,149.5,167.5,126.5,143.5,100.5,167.5
126,6.300000000000001,-0.0016999244689941406,0.0739603042602539,1.5471203327178955,0.018658876419067383,-1.6490857601165771,-0.03765988349914551,0.718454897403717,0.15958142280578613,0.6012212038040161,-3.0691100087507506,0.07556966797846278,1.61224282186221,187.4177777777778,163.0822222222222,164.60210526315788,137.91368421052633,138.76150627615064,161.9121338912134,149.5,167.5,126.5,143.5,100.5,167.5
127,6.3500000000000005,-0.0017507076263427734,0.0744469165802002,1.5468251705169678,0.018897056579589844,-1.649552583694458,-0.037751197814941406,0.7187080383300781,0.15949659049510956,0.6010510325431824,-3.0686518267613847,0.07601021669723122,1.6123501603988177,187.26057906458797,163.05122494432072,164.5557894736842,137.89263157894737,138.60210526315788,161.94105263157894,149.5,167.5,126.5,143.5,100.5,167.5
128,6.4,-0.0018339157104492188,0.07489228248596191,1.5465147495269775,0.019161462783813477,-1.6499836444854736,-0.0378572940826416,0.7189457416534424,0.15939149260520935,0.6009181141853333,-3.068225139419536,0.07641431950835641,1.61243463765102,187.17477876106196,163.0420353982301,164.4602510460251,137.88493723849373,138.51046025104603,161.9539748953975,149.5,167.5,126.5,143.5,100.5,167.5
129,6.45,-0.001918792724609375,0.07533788681030273,1.546199083328247,0.019431591033935547,-1.65041184425354,-0.037972211837768555,0.7191841006278992,0.15928567945957184,0.6007884740829468,-3.0677972378868694,0.07681520293623799,1.612527243652717,187.046875,163.04910714285714,164.3655462184874,137.96848739495798,138.36268343815513,162.0020964360587,149.5,167.5,126.5,143.5,100.5,167.5
130,6.5,-0.0020024776458740234,0.07574653625488281,1.5459201335906982,0.019670963287353516,-1.65083909034729,-0.03805947303771973,0.719403088092804,0.1591811329126358,0.6006627082824707,-3.067401738724122,0.07721825251846642,1.6125906582199008,186.91051454138702,163.09395973154363,164.20041753653445,137.98121085594988,138.21784232365144,161.99792531120332,149.5,167.5,126.5,143.5,100.5,167.5
131,6.550000000000001,-0.0020759105682373047,0.0761725902557373,1.545635461807251,0.019912004470825195,-1.6512749195098877,-0.03813624382019043,0.7196288108825684,0.15908309817314148,0.600528359413147,-3.0669929239728506,0.0776297647377892,1.6126559188449696,186.8084632516704,163.086859688196,164.05416666666667,137.92916666666667,138.11387163561076,161.99792960662526,149.5,167.5,126.5,143.5,100.5,167.5
132,6.6000000000000005,-0.0021495819091796875,0.07662320137023926,1.545318841934204,0.02018141746520996,-1.6517083644866943,-0.03824162483215332,0.7198684811592102,0.15898463129997253,0.6003947257995605,-3.0665613990211553,0.07803618280475973,1.6127514806214704,186.71748878923768,163.1255605381166,163.93347193347194,137.93555093555094,138.00622406639005,161.97510373443984,149.5,167.5,126.5,143.5,100.5,167.5
133,6.65,-0.002210378646850586,0.07709002494812012,1.5450003147125244,0.02044820785522461,-1.6521532535552979,-0.03832721710205078,0.7201138138771057,0.15889477729797363,0.6002514362335205,-3.0661189721184057,0.07845512267057665,1.6128425347697928,186.56347438752783,163.15812917594656,163.8141962421712,137.86638830897704,137.8985507246377,161.95238095238096,149.5,167.5,126.5,143.5,100.5,167.5
134,6.7,-0.002288341522216797,0.07758641242980957,1.5446321964263916,0.020761728286743164,-1.6525800228118896,-0.03844714164733887,0.7203773856163025,0.15879370272159576,0.6001147031784058,-3.0656472610567675,0.07885142251655122,1.6129511993328218,186.49777777777777,163.05333333333334,163.6890756302521,137.88235294117646,137.81628392484342,161.8893528183716,149.5,167.5,126.5,143.5,100.5,167.5
135,6.75,-0.002337217330932617,0.0780649185180664,1.54433274269104,0.021004915237426758,-1.6530354022979736,-0.03852510452270508,0.7206263542175293,0.1587112545967102,0.5999513864517212,-3.065196896782123,0.07928061481759942,1.6130489442895832,186.30133928571428,163.015625,163.60210526315788,137.91368421052633,137.69811320754718,161.93710691823898,149.5,167.5,126.5,143.5,100.5,167.5
136,6.800000000000001,-0.0024139881134033203,0.07850837707519531,1.5440552234649658,0.021236658096313477,-1.6534616947174072,-0.038628339767456055,0.7208610773086548,0.1586112231016159,0.599800705909729,-3.064771427720216,0.07967974124428526,1.6131394232969405,186.2288888888889,163.01777777777778,163.5557894736842,137.89263157894737,137.55974842767296,161.9517819706499,149.5,167.5,126.5,143.5,100.5,167.5
137,6.8500000000000005,-0.002501249313354492,0.07893157005310059,1.5437538623809814,0.02149677276611328,-1.6538746356964111,-0.03872561454772949,0.7210878729820251,0.15850509703159332,0.5996771454811096,-3.0643624637869307,0.08006585673446434,1.6132120335209985,186.12026726057906,163.02227171492206,163.4602510460251,137.88493723849373,137.49475890985326,161.9748427672956,149.5,167.5,126.5,143.5,100.5,167.5
138,6.9,-0.0025980472564697266,0.07936453819274902,1.543440580368042,0.021767616271972656,-1.6542770862579346,-0.03885078430175781,0.7213209271430969,0.15839283168315887,0.5995532870292664,-3.06394218001428,0.08043989966701524,1.6133029971441397,186.0,163.02666666666667,163.38364779874215,137.9496855345912,137.336820083682,162.0041841004184,149.5,167.5,126.5,143.5,100.5,167.5
139,6.95,-0.002695798873901367,0.0797574520111084,1.5431573390960693,0.022016286849975586,-1.6546757221221924,-0.038942575454711914,0.7215339541435242,0.15828046202659607,0.599440336227417,-3.0635578968378514,0.0808136652921043,1.6133567182938604,185.8612975391499,163.08053691275168,163.175,137.97916666666666,137.19461697722568,161.98757763975155,149.5,167.5,126.5,143.5,100.5,167.5
140,7.0,-0.002768993377685547,0.08018088340759277,1.542881727218628,0.022249460220336914,-1.655097246170044,-0.039012908935546875,0.721757709980011,0.15818384289741516,0.5993015766143799,-3.0631510616806903,0.08121139128908829,1.6134177961870424,185.78222222222223,163.08444444444444,163.05416666666667,137.92916666666667,137.09958506224066,161.97717842323652,149.5,167.5,126.5,143.5,100.5,167.5
141,7.050000000000001,-0.002839803695678711,0.08062744140625,1.5425736904144287,0.022510766983032227,-1.655519723892212,-0.03910017013549805,0.7219942212104797,0.1580887734889984,0.5991647243499756,-3.062723461283062,0.08160682584854231,1.6135003549861753,185.71685393258426,163.09887640449438,162.94605809128632,137.91286307053943,137.00622406639005,161.97510373443984,149.5,167.5,126.5,143.5,100.5,167.5
142,7.1000000000000005,-0.0029032230377197266,0.08108878135681152,1.542250394821167,0.02278280258178711,-1.6559479236602783,-0.03918743133544922,0.7222368717193604,0.15799830853939056,0.5990267395973206,-3.062284916571879,0.08200792924921323,1.6135920422928158,185.53587443946188,163.03811659192826,162.8141962421712,137.86638830897704,136.89256198347107,161.97727272727272,149.5,167.5,126.5,143.5,100.5,167.5
143,7.15,-0.0029876232147216797,0.08154630661010742,1.5419189929962158,0.023066997528076172,-1.6563541889190674,-0.03931736946105957,0.7224810719490051,0.15789435803890228,0.5988954305648804,-3.0618446353372546,0.08238353638464531,1.6137033161221548,185.46412556053812,162.96188340807174,162.71488469601678,137.8825995807128,136.76150627615064,161.9121338912134,149.5,167.5,126.5,143.5,100.5,167.5
144,7.2,-0.0030486583709716797,0.08197283744812012,1.5416443347930908,0.023295879364013672,-1.6567819118499756,-0.03938865661621094,0.7227048277854919,0.15780584514141083,0.5987542271614075,-3.061437215950954,0.082786148274789,1.613779129590111,185.27740492170022,163.00447427293065,162.62605042016807,137.9033613445378,136.67573221757323,161.9246861924686,149.5,167.5,126.5,143.5,100.5,167.5
145,7.25,-0.0031309127807617188,0.08240246772766113,1.541367769241333,0.0235292911529541,-1.6571881771087646,-0.03947925567626953,0.7229331731796265,0.15770381689071655,0.5986112356185913,-3.0610231359885436,0.08316577696375127,1.6138521878291827,185.2288888888889,163.01777777777778,162.5557894736842,137.89263157894737,136.5397489539749,161.96861924686192,149.5,167.5,126.5,143.5,100.5,167.5
146,7.300000000000001,-0.0032165050506591797,0.08282065391540527,1.5410611629486084,0.023795127868652344,-1.6575872898101807,-0.03957104682922363,0.7231569886207581,0.15759988129138947,0.598493218421936,-3.0606184235218503,0.08353855900981474,1.6139224896391766,185.12026726057906,163.02227171492206,162.4602510460251,137.88493723849373,136.45511482254696,162.0062630480167,149.5,167.5,126.5,143.5,100.5,167.5
147,7.3500000000000005,-0.0033140182495117188,0.08324289321899414,1.5407373905181885,0.024079561233520508,-1.6579744815826416,-0.03969264030456543,0.7233849763870239,0.15748853981494904,0.5983819961547852,-3.060206645555481,0.08389600745417287,1.6140098045663105,185.02227171492206,163.0400890868597,162.39121338912133,137.9246861924686,136.28958333333333,162.01666666666668,149.5,167.5,126.5,143.5,100.5,167.5
148,7.4,-0.0034101009368896484,0.0836331844329834,1.5404260158538818,0.024357080459594727,-1.6583588123321533,-0.03977537155151367,0.7235966324806213,0.15737871825695038,0.5982859134674072,-3.0598246996051564,0.08425558494358441,1.6140578564532608,184.8635346756152,163.0268456375839,162.27196652719664,137.97071129707112,136.17561983471074,161.97107438016528,149.5,167.5,126.5,143.5,100.5,167.5
