,t,q_1,q_2,q_3,q_4,q_5,q_6,camera_x,camera_y,camera_z,camera_roll,camera_pitch,camera_yaw,f_1,f_2,f_3,f_4,f_5,f_6,f_7,f_8,desired_f_1,desired_f_2,desired_f_3,desired_f_4,desired_f_5,desired_f_6,desired_f_7,desired_f_8
0,0.0,9.298324584960938e-06,-0.39263248443603516,1.963494062423706,7.200241088867188e-05,-1.5707952976226807,2.384185791015625e-07,0.4463264048099518,0.16906212270259857,0.5921618342399597,-3.141307778251266,0.00012221750102738726,1.5708379755145234,151.4127579737336,65.55722326454034,125.41947565543072,39.58052434456929,99.43609022556392,65.56390977443608,125.41275797373358,91.55722326454034,149.0,145.0,125.0,121.0,101.0,145.0,125.0,169.0
1,0.05,7.915496826171875e-05,-0.3928499221801758,1.9618632793426514,3.504753112792969e-05,-1.5706441402435303,6.270408630371094e-05,0.4463805854320526,0.16910871863365173,0.5933746099472046,3.13998760294264,-3.0148367461570097e-05,1.5708453462323089,151.39080459770116,66.12260536398468,125.45801526717557,40.232824427480914,99.55854126679462,66.13435700575816,125.5,92.0,149.0,145.0,125.0,121.0,101.0,145.0,125.0,169.0
2,0.1,0.0001232624053955078,-0.39304423332214355,1.9602749347686768,-3.314018249511719e-05,-1.570481538772583,9.560585021972656e-05,0.4464467763900757,0.1691451370716095,0.5945497751235962,3.138134334275532,-0.0001939558364637942,1.5708567794591966,151.36520076481835,66.72848948374761,125.52417794970987,40.90522243713733,99.70419847328245,66.63931297709924,125.55407969639468,92.51992409867172,149.0,145.0,125.0,121.0,101.0,145.0,125.0,169.0
3,0.15000000000000002,0.00011348724365234375,-0.39326047897338867,1.9587719440460205,-0.0001628398895263672,-1.5702927112579346,0.00011801719665527344,0.4465083181858063,0.16916032135486603,0.5956820845603943,3.1362856366296343,-0.0003825966102515322,1.5708268079325955,151.39113680154142,67.18111753371869,125.5,41.5,99.78143133462282,67.22823984526113,125.55684007707129,92.97687861271676,149.0,145.0,125.0,121.0,101.0,145.0,125.0,169.0
4,0.2,0.0001704692840576172,-0.3934147357940674,1.9572532176971436,-0.0002903938293457031,-1.5701429843902588,0.0001423358917236328,0.4465878903865814,0.16920149326324463,0.596797525882721,3.1344858828421738,-0.0005323205437507009,1.5708616277012695,151.36679536679537,67.81467181467181,125.5484496124031,42.08914728682171,99.927734375,67.71484375,125.64807692307693,93.40384615384616,149.0,145.0,125.0,121.0,101.0,145.0,125.0,169.0
5,0.25,0.00011730194091796875,-0.3936009407043457,1.9558203220367432,-0.00046706199645996094,-1.5699341297149658,0.0001227855682373047,0.44666507840156555,0.16919903457164764,0.5978745222091675,3.1326900641752258,-0.0007417998005571771,1.5708308420235972,151.2976653696498,68.23540856031128,125.68493150684931,42.83170254403131,100.0,68.310546875,125.61013645224172,93.9317738791423,149.0,145.0,125.0,121.0,101.0,145.0,125.0,169.0
6,0.30000000000000004,0.00024628639221191406,-0.3937060832977295,1.9544203281402588,-0.0007138252258300781,-1.5698421001434326,0.00019931793212890625,0.44675299525260925,0.16926710307598114,0.5989008545875549,3.130938812511115,-0.0008345336996256284,1.5708855994215987,151.29019607843136,68.82941176470588,125.7707509881423,43.298418972332016,100.07128712871287,68.85148514851485,125.775390625,94.33984375,149.0,145.0,125.0,121.0,101.0,145.0,125.0,169.0
7,0.35000000000000003,0.0002951622009277344,-0.39383673667907715,1.9530613422393799,-0.0009722709655761719,-1.5697033405303955,0.00022268295288085938,0.4468374252319336,0.16930370032787323,0.5999119877815247,3.129191590925437,-0.0009733786806801927,1.5709148580412935,151.27272727272728,69.28260869565217,125.81636726546907,43.91816367265469,100.16370808678501,69.31163708086785,125.76725838264299,94.83629191321499,149.0,145.0,125.0,121.0,101.0,145.0,125.0,169.0
8,0.4,0.00037550926208496094,-0.3939528465270996,1.951747179031372,-0.0012733936309814453,-1.5695888996124268,0.00026917457580566406,0.44692227244377136,0.16935189068317413,0.600891649723053,3.1274596213560115,-0.0010890122598201013,1.5709520100029815,151.24850894632206,69.87872763419483,125.81386138613861,44.51485148514851,100.26984126984127,69.86507936507937,125.83596837944664,95.20750988142292,149.0,145.0,125.0,121.0,101.0,145.0,125.0,169.0
9,0.45,0.00039005279541015625,-0.3940408229827881,1.9504644870758057,-0.0015881061553955078,-1.5694382190704346,0.00027298927307128906,0.44702818989753723,0.16937391459941864,0.6018385291099548,3.125774951660654,-0.0012394799655027103,1.5709674958981508,151.21713147410358,70.2808764940239,125.86947791164658,45.06425702811245,100.38047808764941,70.27290836653387,125.87848605577689,95.77689243027888,149.0,145.0,125.0,121.0,101.0,145.0,125.0,169.0
10,0.5,0.0004036426544189453,-0.39420557022094727,1.9493029117584229,-0.001994609832763672,-1.5692932605743408,0.0002651214599609375,0.4470946192741394,0.16939492523670197,0.6027483940124512,3.124041948707476,-0.0013849700002103898,1.5709940125844526,151.18837675350701,70.84569138276554,125.93975903614458,45.75502008032129,100.52495009980039,70.88023952095809,125.86454183266932,96.13545816733068,149.0,145.0,125.0,121.0,101.0,145.0,125.0,169.0
11,0.55,0.0004851818084716797,-0.39428019523620605,1.948171854019165,-0.002448558807373047,-1.5691988468170166,0.00030303001403808594,0.44719359278678894,0.1694416105747223,0.6036015748977661,3.1223825430827477,-0.001479775605231711,1.5710414071742576,151.20925553319918,71.23138832997988,125.9493927125506,46.16801619433198,100.6753507014028,71.29859719438878,125.98418972332016,96.59486166007905,149.0,145.0,125.0,121.0,101.0,145.0,125.0,169.0
12,0.6000000000000001,0.0005145072937011719,-0.39445066452026367,1.9471604824066162,-0.0029778480529785156,-1.5690758228302002,0.0002665519714355469,0.44725096225738525,0.1694672703742981,0.6044245362281799,3.1206723127448006,-0.0016024196817484725,1.5711128105230745,151.17670682730923,71.82329317269077,126.0,46.7979797979798,100.75506072874494,71.81781376518218,125.97590361445783,96.99196787148594,149.0,145.0,125.0,121.0,101.0,145.0,125.0,169.0
13,0.65,0.0005333423614501953,-0.39456796646118164,1.9461662769317627,-0.0035238265991210938,-1.5689542293548584,0.00025534629821777344,0.44733449816703796,0.16948826611042023,0.6052147150039673,3.1190141402270797,-0.0017244814945567325,1.5711488335327124,151.18548387096774,72.22177419354838,126.0,47.16632860040568,100.82897384305835,72.20120724346077,126.0,97.31274900398407,149.0,145.0,125.0,121.0,101.0,145.0,125.0,169.0
14,0.7000000000000001,0.0005297660827636719,-0.3946974277496338,1.9452078342437744,-0.0040912628173828125,-1.5688202381134033,0.00022554397583007812,0.44741398096084595,0.16950012743473053,0.6059883236885071,3.117359373281557,-0.0018575279756352957,1.5711808083070815,151.20606060606062,72.76363636363637,126.02244897959184,47.89387755102041,100.91886409736308,72.78093306288032,126.04838709677419,97.83266129032258,149.0,145.0,125.0,121.0,101.0,145.0,125.0,169.0
15,0.75,0.0005352497100830078,-0.3947577476501465,1.94423508644104,-0.00464630126953125,-1.5686938762664795,0.00018930435180664062,0.4475242793560028,0.16951535642147064,0.6067396402359009,3.115771880390271,-0.0019830496199378265,1.5712291928567728,151.1808943089431,73.11382113821138,126.10882956878851,48.24024640657084,100.97755102040816,73.10612244897959,126.04242424242425,98.1919191919192,149.0,145.0,125.0,121.0,101.0,145.0,125.0,169.0
16,0.8,0.0005719661712646484,-0.39485669136047363,1.9433348178863525,-0.005265235900878906,-1.5685932636260986,0.0001881122589111328,0.447610080242157,0.16954244673252106,0.6074660420417786,3.114154045356691,-0.0020839923847481177,1.5712730613726844,151.2094455852156,73.60780287474333,126.09504132231405,48.824380165289256,101.01844262295081,73.67418032786885,126.09919028340082,98.67813765182186,149.0,145.0,125.0,121.0,101.0,145.0,125.0,169.0
17,0.8500000000000001,0.0006163120269775391,-0.39490771293640137,1.9424049854278564,-0.005852460861206055,-1.5684940814971924,0.00016045570373535156,0.44771608710289,0.1695723682641983,0.6081879734992981,3.1125861774460217,-0.0021824634717281617,1.5713516574275863,151.16089613034623,74.04684317718942,126.1912681912682,49.28898128898129,101.04722792607802,74.06776180698152,126.08113590263692,99.03042596348884,149.0,145.0,125.0,121.0,101.0,145.0,125.0,169.0
18,0.9,0.0006945133209228516,-0.39493393898010254,1.941502332687378,-0.006472587585449219,-1.5684216022491455,0.00018668174743652344,0.4478285610675812,0.16961531341075897,0.6088841557502747,3.1110373928568147,-0.0022548706040481895,1.5714096550176717,151.20746887966806,74.5,126.17463617463618,49.75467775467776,101.18426501035196,74.51138716356108,126.15102040816326,99.36734693877551,149.0,145.0,125.0,121.0,101.0,145.0,125.0,169.0
19,0.9500000000000001,0.0007174015045166016,-0.3949551582336426,1.9406321048736572,-0.007103681564331055,-1.5683190822601318,0.00016236305236816406,0.4479503333568573,0.16963604092597961,0.609557569026947,3.1095149554469295,-0.0023569282745504075,1.5714636297768292,151.1457905544148,74.97125256673512,126.24159663865547,50.32983193277311,101.13729508196721,74.94467213114754,126.15682281059063,99.87780040733197,149.0,145.0,125.0,121.0,101.0,145.0,125.0,169.0
20,1.0,0.0007495880126953125,-0.39494824409484863,1.9397494792938232,-0.007723808288574219,-1.5682241916656494,0.00016760826110839844,0.44808337092399597,0.16966038942337036,0.6102256774902344,3.108019078255694,-0.002452155691883747,1.5714974105139197,151.21503131524008,75.41127348643006,126.26736842105264,50.67368421052632,101.275,75.41041666666666,126.1922290388548,100.15746421267893,149.0,145.0,125.0,121.0,101.0,145.0,125.0,169.0
21,1.05,0.0007944107055664062,-0.39493727684020996,1.938899278640747,-0.008369207382202148,-1.5681407451629639,0.00016736984252929688,0.4482153356075287,0.16968926787376404,0.6108726263046265,3.1065354167406425,-0.002535725663719046,1.571548877282602,151.14760914760916,75.78794178794179,126.30021141649048,51.30443974630021,101.41090146750524,75.79245283018868,126.25619834710744,100.57644628099173,149.0,145.0,125.0,121.0,101.0,145.0,125.0,169.0
22,1.1,0.0008056163787841797,-0.3949391841888428,1.9381582736968994,-0.009095907211303711,-1.568047285079956,0.0001316070556640625,0.44834473729133606,0.16970381140708923,0.611460268497467,3.105065528526358,-0.002627627313992666,1.57160349291298,151.1576763485477,76.22614107883817,126.33545647558387,51.62208067940552,101.4327731092437,76.25840336134453,126.1881390593047,100.96319018404908,149.0,145.0,125.0,121.0,101.0,145.0,125.0,169.0
23,1.1500000000000001,0.0008990764617919922,-0.3949551582336426,1.9374439716339111,-0.009854316711425781,-1.5680058002471924,0.00015282630920410156,0.4484545588493347,0.16975046694278717,0.612040102481842,3.103577116260957,-0.0026697680564116014,1.5716814690682472,151.2436974789916,76.58193277310924,126.42430703624734,52.19616204690831,101.52410901467505,76.62893081761007,126.3271221532091,101.34368530020704,149.0,145.0,125.0,121.0,101.0,145.0,125.0,169.0
24,1.2000000000000002,0.0009753704071044922,-0.394881010055542,1.9366662502288818,-0.010556936264038086,-1.5679538249969482,0.00015854835510253906,0.44861000776290894,0.16979041695594788,0.612616240978241,3.10217137561988,-0.0027214736948228905,1.5717580668671591,151.14375,77.0125,126.38461538461539,52.574786324786324,101.50530785562633,77.02547770700637,126.40248962655602,101.66597510373444,149.0,145.0,125.0,121.0,101.0,145.0,125.0,169.0
25,1.25,0.0009489059448242188,-0.39484524726867676,1.9359395503997803,-0.01127171516418457,-1.567840337753296,8.392333984375e-05,0.44876018166542053,0.16978950798511505,0.6131765246391296,3.1007655173174555,-0.0028324958673172393,1.5718144228516076,151.20675105485233,77.4535864978903,126.5,53.05150214592275,101.61603375527426,77.4535864978903,126.36798336798337,102.07068607068607,149.0,145.0,125.0,121.0,101.0,145.0,125.0,169.0
26,1.3,0.0010085105895996094,-0.3947751522064209,1.935227632522583,-0.012017965316772461,-1.5677869319915771,9.369850158691406e-05,0.4489143192768097,0.16982223093509674,0.6137149930000305,3.0993776053043085,-0.0028854184805429113,1.5718712285693077,151.18987341772151,77.78902953586498,126.48394004282655,53.479657387580296,101.68789808917198,77.79405520169851,126.36820083682008,102.42887029288703,149.0,145.0,125.0,121.0,101.0,145.0,125.0,169.0
27,1.35,0.0010573863983154297,-0.39471912384033203,1.9345695972442627,-0.012801408767700195,-1.5677316188812256,8.606910705566406e-05,0.4490623474121094,0.16985006630420685,0.6142274141311646,3.097992365120236,-0.0029406712393831823,1.5719336237865842,151.1868365180467,78.32059447983015,126.5,53.89655172413793,101.70149253731343,78.28358208955224,126.42976939203355,102.76729559748428,149.0,145.0,125.0,121.0,101.0,145.0,125.0,169.0
28,1.4000000000000001,0.0010526180267333984,-0.394641637802124,1.9338948726654053,-0.013555765151977539,-1.567643404006958,5.221366882324219e-05,0.44922763109207153,0.16985683143138885,0.6147380471229553,3.0966410654719128,-0.0030266123265910512,1.5719715049103815,151.1923890063425,78.6321353065539,126.5,54.37662337662338,101.75583864118896,78.63269639065817,126.48,103.15157894736842,149.0,145.0,125.0,121.0,101.0,145.0,125.0,169.0
29,1.4500000000000002,0.0010378360748291016,-0.394542932510376,1.9332282543182373,-0.014308929443359375,-1.5675504207611084,-9.059906005859375e-06,0.4494035243988037,0.16985946893692017,0.6152337789535522,3.095319941222438,-0.003117230053748699,1.5720256514381747,151.1772151898734,79.0253164556962,126.5054704595186,54.733041575492344,101.78813559322033,78.99152542372882,126.40677966101696,103.5,149.0,145.0,125.0,121.0,101.0,145.0,125.0,169.0
30,1.5,0.0010509490966796875,-0.3944566249847412,1.9325993061065674,-0.015096187591552734,-1.5674793720245361,-3.266334533691406e-05,0.4495689570903778,0.1698727011680603,0.6157136559486389,3.0939900892157364,-0.003186550320095534,1.5720705238906625,151.15565031982942,79.40724946695096,126.57173913043478,55.17173913043478,101.88912579957356,79.42857142857143,126.5,103.86497890295358,149.0,145.0,125.0,121.0,101.0,145.0,125.0,169.0
31,1.55,0.001065969467163086,-0.394397497177124,1.932053804397583,-0.01594400405883789,-1.5674149990081787,-8.392333984375e-05,0.44971978664398193,0.16988587379455566,0.6161554455757141,3.0926562612213186,-0.0032476786676101797,1.5721444488659129,151.1897654584222,79.69509594882729,126.55555555555556,55.60566448801743,101.88865096359743,79.69379014989293,126.5,104.21940928270043,149.0,145.0,125.0,121.0,101.0,145.0,125.0,169.0
32,1.6,0.0010671615600585938,-0.39428019523620605,1.9314453601837158,-0.01673579216003418,-1.5673401355743408,-0.00013375282287597656,0.4499005377292633,0.16989395022392273,0.6166079044342041,3.091373022023961,-0.003319938795389305,1.5722029377312796,151.19569892473118,80.2516129032258,126.59649122807018,56.0,102.00213219616205,80.21961620469084,126.57112526539278,104.51380042462846,149.0,145.0,125.0,121.0,101.0,145.0,125.0,169.0
33,1.6500000000000001,0.0010216236114501953,-0.394179105758667,1.9308984279632568,-0.017563819885253906,-1.5672438144683838,-0.00021386146545410156,0.45007944107055664,0.1698828935623169,0.6170298457145691,3.0900992983877007,-0.003411591370156489,1.572246926037672,151.17672413793105,80.5,126.60087719298245,56.38815789473684,102.02591792656588,80.49460043196544,126.51797040169133,104.88372093023256,149.0,145.0,125.0,121.0,101.0,145.0,125.0,169.0
34,1.7000000000000002,0.0010271072387695312,-0.39407873153686523,1.930382490158081,-0.018423795700073242,-1.5671813488006592,-0.00026297569274902344,0.4502502679824829,0.16989152133464813,0.6174346804618835,3.0888239472090495,-0.0034702781187843875,1.572309869929007,151.206008583691,80.7725321888412,126.6,56.82857142857143,102.06236559139785,80.75268817204301,126.54468085106383,105.26382978723404,149.0,145.0,125.0,121.0,101.0,145.0,125.0,169.0
35,1.75,0.0010101795196533203,-0.3939554691314697,1.9298479557037354,-0.01925969123840332,-1.5671045780181885,-0.0003247261047363281,0.45043468475341797,0.16989152133464813,0.6178391575813293,3.087576819900568,-0.003542813380515839,1.5723629985128031,151.1839826839827,81.29004329004329,126.63796909492274,57.207505518763796,102.11182795698925,81.29677419354839,126.57112526539278,105.51380042462846,149.0,145.0,125.0,121.0,101.0,145.0,125.0,169.0
36,1.8,0.0010111331939697266,-0.3937966823577881,1.9293320178985596,-0.020111560821533203,-1.5670454502105713,-0.0003819465637207031,0.4506334066390991,0.16989794373512268,0.6182170510292053,3.0863673810686585,-0.0035991719734647155,1.5724279047365457,151.14902807775377,81.55939524838013,126.68211920529801,57.556291390728475,102.12987012987013,81.5,126.55744680851063,105.87234042553192,149.0,145.0,125.0,121.0,101.0,145.0,125.0,169.0
37,1.85,0.00099945068359375,-0.3936762809753418,1.9288685321807861,-0.021001338958740234,-1.566983938217163,-0.00042247772216796875,0.4508145749568939,0.16989892721176147,0.6185807585716248,3.0851340854816405,-0.003657050927330009,1.5724653496169994,151.20390455531452,81.89804772234274,126.64601769911505,58.0,102.30263157894737,81.8530701754386,126.58547008547009,106.25854700854701,149.0,145.0,125.0,121.0,101.0,145.0,125.0,169.0
38,1.9000000000000001,0.0009529590606689453,-0.393599271774292,1.9284908771514893,-0.021944761276245117,-1.566906213760376,-0.0005106925964355469,0.4509788155555725,0.16988539695739746,0.6189117431640625,3.0838898527877694,-0.003728642763153779,1.572515866830834,151.15550755939526,82.35421166306695,126.66962305986696,58.32372505543237,102.2472885032538,82.31453362255965,126.60767590618337,106.5501066098081,149.0,145.0,125.0,121.0,101.0,145.0,125.0,169.0
39,1.9500000000000002,0.00090789794921875,-0.3934977054595947,1.9280927181243896,-0.022866487503051758,-1.566828966140747,-0.0005960464477539062,0.45115405321121216,0.16987252235412598,0.619242787361145,3.0826716652930473,-0.003800079164796572,1.5725657553071934,151.15584415584416,82.58441558441558,126.66815144766147,58.728285077951,102.28665207877462,82.59299781181619,126.6017130620985,106.84154175588866,149.0,145.0,125.0,121.0,101.0,145.0,125.0,169.0
40,2.0,0.000896453857421875,-0.39334893226623535,1.927687406539917,-0.023787736892700195,-1.5667736530303955,-0.0006725788116455078,0.4513475298881531,0.16987267136573792,0.6195574998855591,3.0814943529709624,-0.0038493697635118697,1.5726382626830402,151.284140969163,83.02422907488987,126.72706935123043,59.060402684563755,102.37938596491227,82.90131578947368,126.62231759656652,107.2274678111588,149.0,145.0,125.0,121.0,101.0,145.0,125.0,169.0
41,2.0500000000000003,0.0008392333984375,-0.3932175636291504,1.9272663593292236,-0.024683475494384766,-1.566692590713501,-0.0007297992706298828,0.45153823494911194,0.1698547750711441,0.619888424873352,3.0803083169642607,-0.003925127884657405,1.572648526418859,151.12636165577342,83.38997821350763,126.70824053452115,59.474387527839646,102.34934497816595,83.3122270742358,126.6503198294243,107.52025586353945,149.0,145.0,125.0,121.0,101.0,145.0,125.0,169.0
42,2.1,0.0007572174072265625,-0.3931005001068115,1.9269216060638428,-0.02562999725341797,-1.566601037979126,-0.0008306503295898438,0.4517248868942261,0.16982631385326385,0.6201795339584351,3.0791339379137037,-0.004009206532951225,1.5726775397722559,151.12391304347827,83.61521739130434,126.72197309417041,59.874439461883405,102.30701754385964,83.60964912280701,126.62231759656652,107.7725321888412,149.0,145.0,125.0,121.0,101.0,145.0,125.0,169.0
43,2.15,0.0007567405700683594,-0.39285922050476074,1.9264814853668213,-0.026517152786254883,-1.5665581226348877,-0.0008826255798339844,0.4519609808921814,0.16983047127723694,0.6204724311828613,3.078048188342698,-0.004048075150586937,1.572735227350424,151.26385809312637,84.039911308204,126.73033707865169,60.15056179775281,102.37885462555066,83.95374449339207,126.60215053763442,108.21075268817204,149.0,145.0,125.0,121.0,101.0,145.0,125.0,169.0
44,2.2,0.0007421970367431641,-0.39266371726989746,1.9260313510894775,-0.02738356590270996,-1.5665037631988525,-0.0009160041809082031,0.4521750807762146,0.16982947289943695,0.6207914352416992,3.076927068193735,-0.00409829861909332,1.572763082482614,151.1159737417943,84.36323851203501,126.74049217002238,60.50559284116331,102.4342105263158,84.26973684210526,126.69164882226981,108.49250535331906,149.0,145.0,125.0,121.0,101.0,145.0,125.0,169.0
45,2.25,0.0006358623504638672,-0.39257025718688965,1.9257481098175049,-0.02835822105407715,-1.5664031505584717,-0.0010368824005126953,0.45235180854797363,0.16979067027568817,0.6210545897483826,3.075762028574358,-0.004189478972447958,1.5727885216318165,151.09170305676855,84.57860262008734,126.75450450450451,60.914414414414416,102.41629955947137,84.62334801762114,126.63655913978495,108.7505376344086,149.0,145.0,125.0,121.0,101.0,145.0,125.0,169.0
46,2.3000000000000003,0.0006663799285888672,-0.3923628330230713,1.9254124164581299,-0.02931690216064453,-1.5663869380950928,-0.001093149185180664,0.4525645673274994,0.16980601847171783,0.6213003993034363,3.07467492751468,-0.0042000726465291835,1.5728810290404356,151.2316258351893,85.0,126.75450450450451,61.16216216216216,102.45232815964523,84.96674057649668,126.60043196544277,109.07775377969763,149.0,145.0,125.0,121.0,101.0,145.0,125.0,169.0
47,2.35,0.0006959438323974609,-0.3921332359313965,1.9250023365020752,-0.03021097183227539,-1.5663673877716064,-0.0011138916015625,0.45278769731521606,0.16982170939445496,0.6215794086456299,3.0736005880343535,-0.004216841551406367,1.5729374359480792,151.14254385964912,85.36184210526316,126.76179775280899,61.52584269662921,102.47472527472527,85.23296703296704,126.73491379310344,109.42025862068965,149.0,145.0,125.0,121.0,101.0,145.0,125.0,169.0
48,2.4000000000000004,0.00055694580078125,-0.3919997215270996,1.9246900081634521,-0.031141042709350586,-1.5662472248077393,-0.0012440681457519531,0.4529869258403778,0.169769749045372,0.6218394041061401,3.0724907061523585,-0.004326095800504817,1.5729410559285504,151.09170305676855,85.57860262008734,126.825,61.91590909090909,102.51655629139073,85.58498896247241,126.70752688172043,109.67956989247311,149.0,145.0,125.0,121.0,101.0,145.0,125.0,169.0
49,2.45,0.0005521774291992188,-0.3918149471282959,1.9244177341461182,-0.03212881088256836,-1.5662181377410889,-0.001317739486694336,0.453191876411438,0.16977015137672424,0.6220557689666748,3.0714154941893255,-0.00434852007047218,1.573016535567122,151.21380846325167,85.9532293986637,126.82727272727273,62.15,102.52444444444444,85.86666666666666,126.59869848156183,109.97396963123644,149.0,145.0,125.0,121.0,101.0,145.0,125.0,169.0
50,2.5,0.0005893707275390625,-0.39158201217651367,1.9240562915802002,-0.03305459022521973,-1.5662133693695068,-0.0013079643249511719,0.45341435074806213,0.16978800296783447,0.6223043203353882,3.070361266746476,-0.0043516468059054386,1.5730495563965918,151.12114537444933,86.34140969162996,126.73303167420815,62.59276018099548,102.53777777777778,86.2088888888889,126.71583514099783,110.28416485900217,149.0,145.0,125.0,121.0,101.0,145.0,125.0,169.0
51,2.5500000000000003,0.00044083595275878906,-0.3913846015930176,1.9237425327301025,-0.033972740173339844,-1.5660932064056396,-0.0014405250549316406,0.45364540815353394,0.1697317361831665,0.6225347518920898,3.0693267975916725,-0.004460520783380716,1.5730465812593897,151.05263157894737,86.55043859649123,126.90389016018307,62.92677345537757,102.56319290465632,86.52328159645232,126.74353448275862,110.54310344827586,149.0,145.0,125.0,121.0,101.0,145.0,125.0,169.0
52,2.6,0.0004324913024902344,-0.39116668701171875,1.923494577407837,-0.03497052192687988,-1.566070795059204,-0.0014979839324951172,0.4538663327693939,0.1697300374507904,0.6227205991744995,3.0682985068926767,-0.0044764577271506414,1.5731017051066598,151.0801781737194,86.87973273942093,126.85421412300683,63.145785876993166,102.54867256637168,86.83185840707965,126.64502164502164,110.8051948051948,149.0,145.0,125.0,121.0,101.0,145.0,125.0,169.0
53,2.6500000000000004,0.00045752525329589844,-0.39093565940856934,1.9232184886932373,-0.03594803810119629,-1.5660679340362549,-0.0015180110931396484,0.4540882706642151,0.1697419136762619,0.6229174137115479,3.0672759143870043,-0.0044759026434445445,1.5731516057478714,151.17633928571428,87.12053571428571,126.80182232346242,63.61503416856492,102.57847533632287,87.11434977578476,126.6804347826087,111.22608695652174,149.0,145.0,125.0,121.0,101.0,145.0,125.0,169.0
54,2.7,0.00047016143798828125,-0.3906381130218506,1.922853708267212,-0.03684234619140625,-1.5660479068756104,-0.0015635490417480469,0.45434367656707764,0.1697494387626648,0.6231359839439392,3.0663143855593806,-0.0044904902320886215,1.5732157332212178,151.05263157894737,87.44956140350877,126.9448275862069,63.90114942528736,102.62,87.42,126.76241900647948,111.47516198704103,149.0,145.0,125.0,121.0,101.0,145.0,125.0,169.0
55,2.75,0.00047135353088378906,-0.39042234420776367,1.922637701034546,-0.03785204887390137,-1.5660359859466553,-0.0016140937805175781,0.45456039905548096,0.16975092887878418,0.6233018636703491,3.065304586432058,-0.00449625023371834,1.5732729882323744,151.06681514476614,87.70155902004454,126.9448275862069,64.09885057471264,102.59910913140311,87.74164810690424,126.74025974025975,111.7056277056277,149.0,145.0,125.0,121.0,101.0,145.0,125.0,169.0
56,2.8000000000000003,0.0005397796630859375,-0.3901827335357666,1.9223964214324951,-0.03884601593017578,-1.5660622119903564,-0.0016388893127441406,0.45477840304374695,0.16977941989898682,0.6234734058380127,3.0643086199926715,-0.004466286063602107,1.5733682612691926,151.11711711711712,88.04954954954955,126.80091533180779,64.48054919908466,102.64508928571429,88.0,126.59565217391304,112.0,149.0,145.0,125.0,121.0,101.0,145.0,125.0,169.0
57,2.85,0.0005712509155273438,-0.38989996910095215,1.9221150875091553,-0.03980278968811035,-1.5660669803619385,-0.0016531944274902344,0.4550227224826813,0.1697932928800583,0.623647928237915,3.063353652649496,-0.004458326796747395,1.5734179482603352,151.09070796460176,88.40929203539822,126.97235023041475,64.90322580645162,102.6391982182628,88.30734966592428,126.75704989154013,112.31453362255965,149.0,145.0,125.0,121.0,101.0,145.0,125.0,169.0
58,2.9000000000000004,0.0005598068237304688,-0.38958168029785156,1.921814203262329,-0.04073643684387207,-1.5660512447357178,-0.001668691635131836,0.45529112219810486,0.16978977620601654,0.6238176226615906,3.0624377112498316,-0.00447096358563867,1.5734281213059425,151.01101321585904,88.5748898678414,126.97235023041475,65.09677419354838,102.63028953229399,88.56124721603564,126.78571428571429,112.53679653679653,149.0,145.0,125.0,121.0,101.0,145.0,125.0,169.0
59,2.95,0.0005705356597900391,-0.389312744140625,1.9215900897979736,-0.04172396659851074,-1.5660498142242432,-0.0017139911651611328,0.45553094148635864,0.16979458928108215,0.623962938785553,3.0614947842196405,-0.004467081139287331,1.5734881629582373,151.05442176870747,89.0,126.84295612009238,65.27020785219399,102.64719101123596,88.91460674157304,126.6804347826087,112.77391304347826,149.0,145.0,125.0,121.0,101.0,145.0,125.0,169.0
60,3.0,0.0005354881286621094,-0.3890697956085205,1.9213593006134033,-0.04269123077392578,-1.5660173892974854,-0.0017719268798828125,0.45576342940330505,0.16978158056735992,0.6241224408149719,3.0605397566899164,-0.004492828123867547,1.5735174936451544,151.08823529411765,89.17647058823529,126.97674418604652,65.83720930232558,102.7069351230425,89.14765100671141,126.64551422319475,113.15754923413567,149.0,145.0,125.0,121.0,101.0,145.0,125.0,169.0
61,3.0500000000000003,0.0006520748138427734,-0.388704776763916,1.9210865497589111,-0.043662071228027344,-1.5660908222198486,-0.001712799072265625,0.45603522658348083,0.1698281615972519,0.6242557168006897,3.0596620344216645,-0.004422474938698587,1.5735734214035226,151.0,89.5,126.94444444444444,66.0,102.67337807606263,89.3937360178971,126.76906318082789,113.40087145969498,149.0,145.0,125.0,121.0,101.0,145.0,125.0,169.0
62,3.1,0.0005939006805419922,-0.3884589672088623,1.9208934307098389,-0.044647932052612305,-1.566051721572876,-0.0017778873443603516,0.45627227425575256,0.1698051244020462,0.6243901252746582,3.058728415885296,-0.00445408667889885,1.5735874100306657,150.93905191873588,89.82167042889391,126.97674418604652,66.16279069767442,102.668903803132,89.7248322147651,126.76355748373102,113.63991323210412,149.0,145.0,125.0,121.0,101.0,145.0,125.0,169.0
63,3.1500000000000004,0.0005536079406738281,-0.38828301429748535,1.9207842350006104,-0.04569673538208008,-1.566028356552124,-0.001840353012084961,0.4564712345600128,0.16978858411312103,0.6245063543319702,3.0577459910931837,-0.00447018546458354,1.5736156762819846,151.0,90.0,126.86542923433875,66.70301624129931,102.70588235294117,89.96832579185521,126.66447368421052,113.89912280701755,149.0,145.0,125.0,121.0,101.0,145.0,125.0,169.0
64,3.2,0.0005724430084228516,-0.38791894912719727,1.9205405712127686,-0.046654462814331055,-1.566040277481079,-0.0018658638000488281,0.4567551016807556,0.16979604959487915,0.624618649482727,3.0569089037862605,-0.004453942785596697,1.5736626849461846,151.0377777777778,90.36222222222223,126.99074074074075,66.92824074074075,102.73825503355705,90.23713646532438,126.72173913043478,114.25869565217391,149.0,145.0,125.0,121.0,101.0,145.0,125.0,169.0
65,3.25,0.0005705356597900391,-0.3876309394836426,1.9203431606292725,-0.047640085220336914,-1.566044569015503,-0.0018711090087890625,0.4570036232471466,0.16979491710662842,0.6247370839118958,3.0560141899602016,-0.004446999811134642,1.5736701357759189,150.93569844789357,90.58758314855876,126.99305555555556,67.12268518518519,102.71364653243847,90.51454138702461,126.7939262472885,114.4880694143167,149.0,145.0,125.0,121.0,101.0,145.0,125.0,169.0
66,3.3000000000000003,0.0005340576171875,-0.38741564750671387,1.920231580734253,-0.048674583435058594,-1.5660264492034912,-0.0019381046295166016,0.45722007751464844,0.1697796732187271,0.6248350739479065,3.0550836317418693,-0.004457341903217475,1.5737064255952542,150.93650793650792,90.94331065759637,126.89695550351288,67.38407494145198,102.70588235294117,90.89140271493213,126.73856209150327,114.72113289760348,149.0,145.0,125.0,121.0,101.0,145.0,125.0,169.0
67,3.35,0.0004930496215820312,-0.387176513671875,1.9200975894927979,-0.0496821403503418,-1.5660021305084229,-0.002019166946411133,0.4574483633041382,0.16976284980773926,0.6249350905418396,3.0541802709987915,-0.004472313911661813,1.573752597338733,151.00686498855836,91.09153318077803,126.93457943925233,67.80607476635514,102.77078651685393,91.08988764044943,126.64912280701755,115.0,149.0,145.0,125.0,121.0,101.0,145.0,125.0,169.0
68,3.4000000000000004,0.0005857944488525391,-0.38681960105895996,1.919903039932251,-0.05067324638366699,-1.5660679340362549,-0.0019989013671875,0.4577160179615021,0.1697990596294403,0.6250206828117371,3.0533521622614668,-0.004405952450783163,1.5738233526614127,150.97772828507794,91.43875278396436,127.0,68.0,102.75730337078652,91.30561797752809,126.73856209150327,115.27886710239652,149.0,145.0,125.0,121.0,101.0,145.0,125.0,169.0
69,3.45,0.0005631446838378906,-0.3865489959716797,1.9197561740875244,-0.05167531967163086,-1.5660650730133057,-0.0020215511322021484,0.45795688033103943,0.16978897154331207,0.6251144409179688,3.0524740656937,-0.00440538964240242,1.573826818533968,150.8487584650113,91.7313769751693,126.93457943925233,68.19392523364486,102.7085201793722,91.54035874439462,126.7939262472885,115.5119305856833,149.0,145.0,125.0,121.0,101.0,145.0,125.0,169.0
70,3.5,0.0003974437713623047,-0.386383056640625,1.9196984767913818,-0.05271029472351074,-1.5659711360931396,-0.0021483898162841797,0.45816564559936523,0.169721320271492,0.6251981854438782,3.0515465380720985,-0.004485441054749498,1.5737999824403899,150.92045454545453,91.98636363636363,126.92161520190024,68.65558194774347,102.70361990950227,91.92986425339366,126.73856209150327,115.72113289760348,149.0,145.0,125.0,121.0,101.0,145.0,125.0,169.0
71,3.5500000000000003,0.0003757476806640625,-0.3859884738922119,1.9194667339324951,-0.053637027740478516,-1.5659644603729248,-0.002190828323364258,0.4584672451019287,0.169712096452713,0.6252845525741577,3.0507830646894862,-0.004486288092388569,1.57382505600803,150.9248291571754,92.11845102505694,126.96736596736596,68.86247086247086,102.78103837471784,92.16704288939052,126.66228070175438,116.04824561403508,149.0,145.0,125.0,121.0,101.0,145.0,125.0,169.0
72,3.6,0.000499725341796875,-0.3856673240661621,1.9193527698516846,-0.05467534065246582,-1.566056489944458,-0.0021741390228271484,0.4587104618549347,0.16976012289524078,0.6253367066383362,3.049952749450585,-0.00439363316885679,1.5739280787995424,150.90848214285714,92.53571428571429,126.9860465116279,69.02325581395348,102.72072072072072,92.36711711711712,126.7292576419214,116.30349344978166,149.0,145.0,125.0,121.0,101.0,145.0,125.0,169.0
73,3.6500000000000004,0.0004448890686035156,-0.3854176998138428,1.9192306995391846,-0.055670738220214844,-1.5660350322723389,-0.0022089481353759766,0.4589434564113617,0.16973687708377838,0.6254226565361023,3.0490839378264147,-0.004409412216541905,1.5739137727359291,150.84807256235828,92.78458049886622,126.97405660377359,69.28301886792453,102.7420814479638,92.64027149321267,126.74945533769063,116.5119825708061,149.0,145.0,125.0,121.0,101.0,145.0,125.0,169.0
74,3.7,0.00036978721618652344,-0.3851926326751709,1.9191672801971436,-0.05670309066772461,-1.566004991531372,-0.0022764205932617188,0.4591667652130127,0.1697048395872116,0.6254828572273254,3.0482128339932943,-0.004431185304687877,1.5739120957632957,150.89342403628117,92.98866213151928,126.91725768321513,69.6903073286052,102.7233560090703,92.94784580498866,126.71834061135371,116.73799126637554,149.0,145.0,125.0,121.0,101.0,145.0,125.0,169.0
75,3.75,0.0003666877746582031,-0.38480329513549805,1.91896653175354,-0.057637929916381836,-1.5660126209259033,-0.0023131370544433594,0.4594610631465912,0.16970250010490417,0.6255515217781067,3.0474674290620465,-0.004417037178028943,1.5739487990162324,150.8590909090909,93.12954545454545,126.95560747663552,69.93691588785046,102.78103837471784,93.16704288939052,126.66228070175438,117.04824561403508,149.0,145.0,125.0,121.0,101.0,145.0,125.0,169.0
76,3.8000000000000003,0.0004677772521972656,-0.3844788074493408,1.9188807010650635,-0.05867624282836914,-1.5660946369171143,-0.0023114681243896484,0.45970726013183594,0.16974101960659027,0.625582754611969,3.0466681279734673,-0.004333408576120235,1.5740436605454684,150.88366890380314,93.54586129753915,126.96252927400468,70.08899297423888,102.72686230248307,93.39277652370203,126.7292576419214,117.30349344978166,149.0,145.0,125.0,121.0,101.0,145.0,125.0,169.0
77,3.85,0.00040721893310546875,-0.3842041492462158,1.9187548160552979,-0.05964779853820801,-1.566070795059204,-0.002357006072998047,0.4599515199661255,0.16971518099308014,0.6256569623947144,3.0458446908169257,-0.004351151313165858,1.5740346890944108,150.8212669683258,93.78733031674209,126.94075829383887,70.32464454976304,102.7420814479638,93.64027149321267,126.74945533769063,117.5119825708061,149.0,145.0,125.0,121.0,101.0,145.0,125.0,169.0
78,3.9000000000000004,0.00030684471130371094,-0.3839704990386963,1.9186928272247314,-0.06065678596496582,-1.5660240650177002,-0.002444028854370117,0.4601805806159973,0.16967296600341797,0.6257098913192749,3.04500742958016,-0.004386756533959102,1.5740290274780055,150.89342403628117,93.98866213151928,126.91294117647058,70.73647058823529,102.76993166287016,93.93394077448747,126.71834061135371,117.73799126637554,149.0,145.0,125.0,121.0,101.0,145.0,125.0,169.0
79,3.95,0.0002906322479248047,-0.3835787773132324,1.918511152267456,-0.06158638000488281,-1.5660288333892822,-0.0024871826171875,0.4604761004447937,0.1696649044752121,0.6257632374763489,3.0442883884996506,-0.00437614457966168,1.5740584624312812,150.8359908883827,94.14350797266515,126.94366197183099,70.95070422535211,102.8140589569161,94.12698412698413,126.64912280701755,118.0,149.0,145.0,125.0,121.0,101.0,145.0,125.0,169.0
80,4.0,0.0003533363342285156,-0.3832569122314453,1.918450117111206,-0.0626220703125,-1.566094160079956,-0.0024938583374023438,0.46072500944137573,0.1696874052286148,0.6257782578468323,3.0435134530244756,-0.004307915959724316,1.5741247552397708,150.81838565022423,94.5067264573991,126.93661971830986,71.09859154929578,102.73076923076923,94.36651583710407,126.71834061135371,118.26200873362446,149.0,145.0,125.0,121.0,101.0,145.0,125.0,169.0
81,4.05,0.00028204917907714844,-0.38299131393432617,1.9183642864227295,-0.06360435485839844,-1.5660665035247803,-0.002556324005126953,0.4609641432762146,0.16965684294700623,0.6258301734924316,3.0427104844198096,-0.004326372302518826,1.5741225052524728,150.79458239277653,94.78329571106094,126.93301435406698,71.42344497607655,102.72108843537416,94.62358276643991,126.70152505446623,118.49019607843137,149.0,145.0,125.0,121.0,101.0,145.0,125.0,169.0
82,4.1000000000000005,0.0002067089080810547,-0.3826789855957031,1.9182541370391846,-0.06456780433654785,-1.566040277481079,-0.0026061534881591797,0.46122750639915466,0.1696242392063141,0.6258752942085266,3.041949487025141,-0.004345925225469487,1.5741023984993532,150.8733031674208,94.97058823529412,126.90094339622641,71.7122641509434,102.76993166287016,94.93394077448747,126.6951754385965,118.6907894736842,149.0,145.0,125.0,121.0,101.0,145.0,125.0,169.0
83,4.15,0.00021147727966308594,-0.38227248191833496,1.9180757999420166,-0.06548404693603516,-1.5660593509674072,-0.0026390552520751953,0.46152520179748535,0.1696244329214096,0.6259179711341858,3.041261228474834,-0.0043209681480873485,1.5741410235531859,150.81006864988558,95.1258581235698,126.94366197183099,71.95070422535211,102.8140589569161,95.12698412698413,126.6359649122807,118.91885964912281,149.0,145.0,125.0,121.0,101.0,145.0,125.0,169.0
84,4.2,0.00029587745666503906,-0.38190698623657227,1.9180023670196533,-0.0664982795715332,-1.5661418437957764,-0.0026307106018066406,0.46179094910621643,0.16965541243553162,0.6259187459945679,3.040540041461468,-0.004237427716250484,1.5742121699988112,150.74606741573032,95.51685393258427,126.92,72.12,102.72171945701358,95.31447963800905,126.67177242888403,119.19912472647702,149.0,145.0,125.0,121.0,101.0,145.0,125.0,169.0
85,4.25,0.0001964569091796875,-0.3816337585449219,1.9179413318634033,-0.06748366355895996,-1.5661051273345947,-0.002685546875,0.4620368778705597,0.16961272060871124,0.6259505152702332,3.039766573071315,-0.00426629929142337,1.5741744241623927,150.77752808988765,95.73483146067416,126.92124105011933,72.39856801909308,102.73303167420815,95.59954751131222,126.65350877192982,119.45394736842105,149.0,145.0,125.0,121.0,101.0,145.0,125.0,169.0
86,4.3,0.00016379356384277344,-0.3813142776489258,1.9178478717803955,-0.06844973564147949,-1.5661089420318604,-0.002712249755859375,0.4622952342033386,0.1695968210697174,0.6259807348251343,3.0390262234935954,-0.004257214212718602,1.5741708979921496,150.82805429864254,95.89592760180996,126.89810426540285,72.67061611374407,102.75626423690206,95.874715261959,126.6870897155361,119.63457330415756,149.0,145.0,125.0,121.0,101.0,145.0,125.0,169.0
87,4.3500000000000005,0.00017881393432617188,-0.3809082508087158,1.9176857471466064,-0.06936144828796387,-1.5661370754241943,-0.002744436264038086,0.4625893533229828,0.16960105299949646,0.6260114312171936,3.0383588365241607,-0.004224013647474034,1.5742182015436492,150.75626423690204,96.125284738041,126.89386792452831,72.88915094339623,102.74715261958998,96.00911161731207,126.61353711790393,119.8995633187773,149.0,145.0,125.0,121.0,101.0,145.0,125.0,169.0
88,4.4,0.00016689300537109375,-0.38057589530944824,1.9176061153411865,-0.07033491134643555,-1.566157579421997,-0.0027627944946289062,0.46285057067871094,0.1695932298898697,0.6260272860527039,3.0376378926302956,-0.004199491560645257,1.5742254618770333,150.72108843537416,96.37641723356009,126.86997635933807,73.096926713948,102.73015873015873,96.2358276643991,126.62008733624454,120.15065502183405,149.0,145.0,125.0,121.0,101.0,145.0,125.0,169.0
89,4.45,0.00011181831359863281,-0.38028907775878906,1.9175584316253662,-0.07131838798522949,-1.5661494731903076,-0.002811431884765625,0.4630942642688751,0.16956809163093567,0.6260432600975037,3.0368937029905516,-0.004199990504383681,1.5742225793863072,150.73076923076923,96.63348416289593,126.91904761904762,73.37142857142857,102.7155756207675,96.44018058690745,126.61842105263158,120.37061403508773,149.0,145.0,125.0,121.0,101.0,145.0,125.0,169.0
90,4.5,6.079673767089844e-05,-0.37995362281799316,1.917464017868042,-0.07226872444152832,-1.566148042678833,-0.002822399139404297,0.46336206793785095,0.169544517993927,0.6260647773742676,3.0361840700837437,-0.0041980565586095175,1.5741859816981985,150.76523702031602,96.86230248306998,126.92124105011933,73.60143198090692,102.71461187214612,96.8082191780822,126.62663755458516,120.58951965065502,149.0,145.0,125.0,121.0,101.0,145.0,125.0,169.0
91,4.55,0.0001087188720703125,-0.3795597553253174,1.9173271656036377,-0.07319259643554688,-1.5662028789520264,-0.002811431884765625,0.4636439085006714,0.16956143081188202,0.6260852217674255,3.03551859737687,-0.0041415074852529125,1.574220605989928,150.7233560090703,97.05215419501134,126.87234042553192,73.87234042553192,102.74772727272727,96.9590909090909,126.62527233115469,120.82352941176471,149.0,145.0,125.0,121.0,101.0,145.0,125.0,169.0
92,4.6000000000000005,8.654594421386719e-05,-0.3792083263397217,1.917248010635376,-0.07414460182189941,-1.5662176609039307,-0.0028476715087890625,0.46391409635543823,0.1695493757724762,0.6260891556739807,3.034838731059478,-0.004121399527056807,1.5742350743352984,150.68253968253967,97.25850340136054,126.86588235294117,74.02588235294118,102.71981776765377,97.20501138952164,126.59606986899563,121.0524017467249,149.0,145.0,125.0,121.0,101.0,145.0,125.0,169.0
93,4.65,0.00010275840759277344,-0.37889695167541504,1.9172112941741943,-0.07512879371643066,-1.5662567615509033,-0.0028772354125976562,0.46415773034095764,0.16955283284187317,0.6260865330696106,3.0341291011525877,-0.004077182417817746,1.574279506900109,150.710407239819,97.58597285067873,126.84560570071258,74.27315914489311,102.71428571428571,97.38775510204081,126.58681318681319,121.28571428571429,149.0,145.0,125.0,121.0,101.0,145.0,125.0,169.0
94,4.7,2.1696090698242188e-05,-0.37858057022094727,1.9171326160430908,-0.0760641098022461,-1.5662338733673096,-0.0029146671295166016,0.46441829204559326,0.16951698064804077,0.6261042952537537,3.033431181807315,-0.004093305792264188,1.5742414927734025,150.70361990950227,97.76923076923077,126.86666666666666,74.5,102.67272727272727,97.675,126.65350877192982,121.45394736842105,149.0,145.0,125.0,121.0,101.0,145.0,125.0,169.0
95,4.75,-1.8835067749023438e-05,-0.3781931400299072,1.9169909954071045,-0.07694840431213379,-1.566230058670044,-0.0029571056365966797,0.46470752358436584,0.16949814558029175,0.6261256337165833,3.0327934632236753,-0.004090123535094703,1.574246579854877,150.69614512471657,98.00680272108843,126.82660332541568,74.77672209026129,102.7233560090703,97.94784580498866,126.5764192139738,121.65720524017468,149.0,145.0,125.0,121.0,101.0,145.0,125.0,169.0
96,4.800000000000001,-9.775161743164062e-06,-0.37778544425964355,1.916879415512085,-0.07786393165588379,-1.566265344619751,-0.0029768943786621094,0.4649995267391205,0.16949871182441711,0.6261216402053833,3.0321740764976552,-0.0040510542276936835,1.5742731382386272,150.69772727272726,98.15454545454546,126.84160756501183,74.97872340425532,102.68878718535468,98.06178489702518,126.59606986899563,121.9475982532751,149.0,145.0,125.0,121.0,101.0,145.0,125.0,169.0
97,4.8500000000000005,-2.47955322265625e-05,-0.3774104118347168,1.916762113571167,-0.07876348495483398,-1.5662815570831299,-0.0030028820037841797,0.4652779996395111,0.16948997974395752,0.6261347532272339,3.0315322330790875,-0.0040299348339115915,1.5742849276906652,150.64172335600907,98.3922902494331,126.82033096926713,75.11347517730496,102.69703872437357,98.25284738041002,126.59518599562364,122.1597374179431,149.0,145.0,125.0,121.0,101.0,145.0,125.0,169.0
98,4.9,-0.00010037422180175781,-0.3771367073059082,1.9167397022247314,-0.07972002029418945,-1.5662615299224854,-0.003070831298828125,0.46551403403282166,0.16945615410804749,0.6261359453201294,3.030826925508669,-0.004039900544531934,1.5742820587248298,150.65237020316027,98.66365688487585,126.83054892601432,75.47016706443914,102.6575963718821,98.4625850340136,126.59299781181619,122.36323851203501,149.0,145.0,125.0,121.0,101.0,145.0,125.0,169.0
99,4.95,-0.00019788742065429688,-0.37674474716186523,1.9166018962860107,-0.08058738708496094,-1.5662291049957275,-0.003107786178588867,0.46581268310546875,0.16941358149051666,0.6261511445045471,3.0302133001894145,-0.004065929059170064,1.5742275352772541,150.66742596810934,98.86104783599089,126.80094786729858,75.63744075829383,102.6689497716895,98.80365296803653,126.58078602620087,122.61353711790393,149.0,145.0,125.0,121.0,101.0,145.0,125.0,169.0
100,5.0,-0.00020647048950195312,-0.3763720989227295,1.9164912700653076,-0.08147525787353516,-1.5662472248077393,-0.0031464099884033203,0.46608737111091614,0.16940750181674957,0.6261586546897888,3.029587853666852,-0.004041288982266535,1.574257552602791,150.70361990950227,99.07013574660634,126.82033096926713,75.88652482269504,102.69772727272728,98.95681818181818,126.56359649122807,122.77850877192982,149.0,145.0,125.0,121.0,101.0,145.0,125.0,169.0
101,5.050000000000001,-0.00022077560424804688,-0.3759458065032959,1.9163386821746826,-0.08233451843261719,-1.566267728805542,-0.003155231475830078,0.4663897454738617,0.16939881443977356,0.6261667609214783,3.029002586855513,-0.0040180316672373565,1.574252330437556,150.63718820861678,99.26303854875283,126.84198113207547,76.09669811320755,102.66970387243735,99.1867881548975,126.57205240174673,123.0349344978166,149.0,145.0,125.0,121.0,101.0,145.0,125.0,169.0
102,5.1000000000000005,-0.00021266937255859375,-0.3755636215209961,1.9162418842315674,-0.08323335647583008,-1.566303014755249,-0.003168821334838867,0.4666662812232971,0.16939881443977356,0.626162052154541,3.028389286088951,-0.003978739130307065,1.5742725000316038,150.63656884875846,99.56884875846501,126.77857142857142,76.23571428571428,102.6590909090909,99.34772727272727,126.53070175438596,123.25877192982456,149.0,145.0,125.0,121.0,101.0,145.0,125.0,169.0
103,5.15,-0.0003159046173095703,-0.37525320053100586,1.9161670207977295,-0.08412647247314453,-1.5662662982940674,-0.003213644027709961,0.46692267060279846,0.16935372352600098,0.6261746883392334,3.027731046226752,-0.004007618633624993,1.5742210357501738,150.6439909297052,99.74603174603175,126.75714285714285,76.5,102.64464692482916,99.60592255125285,126.58078602620087,123.38646288209607,149.0,145.0,125.0,121.0,101.0,145.0,125.0,169.0
104,5.2,-0.0004088878631591797,-0.37484121322631836,1.9160096645355225,-0.08495092391967773,-1.5662314891815186,-0.003274679183959961,0.4672280550003052,0.16931316256523132,0.6261882781982422,3.0271616018107865,-0.0040340677520108925,1.574194485368001,150.61047835990888,99.94533029612757,126.75059382422803,76.7624703087886,102.6492027334852,99.82232346241457,126.55555555555556,123.67320261437908,149.0,145.0,125.0,121.0,101.0,145.0,125.0,169.0
105,5.25,-0.00048351287841796875,-0.37446093559265137,1.9158985614776611,-0.08580946922302246,-1.5662109851837158,-0.0033333301544189453,0.467514306306839,0.16927988827228546,0.626189112663269,3.0265723718114046,-0.004045099337174849,1.5741832601637067,150.6439909297052,100.10204081632654,126.79196217494089,76.95981087470449,102.61047835990888,100.05466970387243,126.53930131004367,123.83842794759825,149.0,145.0,125.0,121.0,101.0,145.0,125.0,169.0
106,5.300000000000001,-0.0004508495330810547,-0.37398481369018555,1.9157001972198486,-0.08661651611328125,-1.5662562847137451,-0.003325223922729492,0.4678325355052948,0.16929060220718384,0.6261992454528809,3.026043924147033,-0.003998428334757766,1.5742050266956784,150.60180995475113,100.33031674208145,126.77304964539007,77.13475177304964,102.65454545454546,100.2090909090909,126.5,124.07894736842105,149.0,145.0,125.0,121.0,101.0,145.0,125.0,169.0
107,5.3500000000000005,-0.00046825408935546875,-0.37361621856689453,1.915616750717163,-0.08750176429748535,-1.5662777423858643,-0.003340482711791992,0.4681037366390228,0.169280007481575,0.6261894702911377,3.0254434955096747,-0.003972959187022826,1.5742025875951902,150.6108597285068,100.57692307692308,126.69212410501193,77.3508353221957,102.61085972850678,100.42307692307692,126.52516411378556,124.28446389496717,149.0,145.0,125.0,121.0,101.0,145.0,125.0,169.0
108,5.4,-0.0005738735198974609,-0.3732259273529053,1.9154679775238037,-0.08831071853637695,-1.5662319660186768,-0.0034079551696777344,0.46839818358421326,0.16923445463180542,0.6262058019638062,3.0248757845438488,-0.004008836306649159,1.5741714225195533,150.59142212189616,100.81941309255079,126.71666666666667,77.57380952380953,102.60592255125285,100.69476082004556,126.50765864332604,124.47483588621444,149.0,145.0,125.0,121.0,101.0,145.0,125.0,169.0
109,5.45,-0.0006318092346191406,-0.37281155586242676,1.9153211116790771,-0.08912777900695801,-1.566220998764038,-0.0034461021423339844,0.46869730949401855,0.16920793056488037,0.6262100338935852,3.0243262698890834,-0.004012775373819268,1.5741551515837413,150.56462585034015,100.95691609977324,126.70071258907363,77.80997624703087,102.6324200913242,100.87671232876713,126.53711790393012,124.69213973799127,149.0,145.0,125.0,121.0,101.0,145.0,125.0,169.0
110,5.5,-0.0007011890411376953,-0.3724205493927002,1.9152162075042725,-0.08996748924255371,-1.5662024021148682,-0.003519296646118164,0.46898549795150757,0.16917650401592255,0.6261988282203674,3.0237724756780087,-0.00402060801698989,1.5741630446766486,150.59318181818182,101.1590909090909,126.72511848341232,78.0,102.61872146118722,101.07990867579909,126.5,124.86899563318778,149.0,145.0,125.0,121.0,101.0,145.0,125.0,169.0
111,5.550000000000001,-0.0007152557373046875,-0.3719785213470459,1.9150631427764893,-0.09077978134155273,-1.5662214756011963,-0.0035400390625,0.46929144859313965,0.16916769742965698,0.6261938810348511,3.0232492045132604,-0.0039971082019694204,1.57416950057078,150.51136363636363,101.35909090909091,126.67535545023696,78.20142180094787,102.62045454545455,101.24090909090908,126.5,125.13100436681222,149.0,145.0,125.0,121.0,101.0,145.0,125.0,169.0
112,5.6000000000000005,-0.0008103847503662109,-0.3716464042663574,1.9150164127349854,-0.09165215492248535,-1.5661890506744385,-0.0036246776580810547,0.46955326199531555,0.16912539303302765,0.6261741518974304,3.022661774717081,-0.004016736682201015,1.5741642560917535,150.5873015873016,101.58956916099773,126.6452380952381,78.3952380952381,102.59183673469387,101.4421768707483,126.4880174291939,125.31590413943356,149.0,145.0,125.0,121.0,101.0,145.0,125.0,169.0
113,5.65,-0.0009150505065917969,-0.37123990058898926,1.9148542881011963,-0.09242916107177734,-1.566143274307251,-0.0036907196044921875,0.46985340118408203,0.16908004879951477,0.6261876225471497,3.0221290922602964,-0.004052371354769838,1.5741334476831264,150.59142212189616,101.81941309255079,126.6627078384798,78.62470308788599,102.55377574370709,101.69565217391305,126.49234135667396,125.52516411378556,149.0,145.0,125.0,121.0,101.0,145.0,125.0,169.0
114,5.7,-0.0009872913360595703,-0.37078261375427246,1.9146387577056885,-0.09316611289978027,-1.5661156177520752,-0.0037326812744140625,0.4701738953590393,0.16904814541339874,0.6262088418006897,3.0216341077594167,-0.004072423284931604,1.5741077730834925,150.56462585034015,101.95691609977324,126.67535545023696,78.79857819905213,102.59132420091325,101.86986301369863,126.47483588621444,125.71553610503283,149.0,145.0,125.0,121.0,101.0,145.0,125.0,169.0
115,5.75,-0.0010230541229248047,-0.37036681175231934,1.9144957065582275,-0.09396243095397949,-1.5661180019378662,-0.003770112991333008,0.47046810388565063,0.1690307855606079,0.6262068748474121,3.021111168118078,-0.00406365440696185,1.5741112768719532,150.5431818181818,102.15227272727273,126.69833729216153,78.99287410926365,102.59225512528474,102.08656036446469,126.47379912663756,125.90829694323143,149.0,145.0,125.0,121.0,101.0,145.0,125.0,169.0
116,5.800000000000001,-0.0010313987731933594,-0.36995577812194824,1.9143750667572021,-0.09477782249450684,-1.56614089012146,-0.003796815872192383,0.4707549512386322,0.16902416944503784,0.6261944770812988,3.0205860359200267,-0.00403526274896511,1.5741287078550124,150.51136363636363,102.35909090909091,126.64775413711584,79.20567375886525,102.60364464692483,102.26195899772209,126.47494553376906,126.13943355119825,149.0,145.0,125.0,121.0,101.0,145.0,125.0,169.0
117,5.8500000000000005,-0.00110626220703125,-0.3695993423461914,1.914302110671997,-0.0956106185913086,-1.5661194324493408,-0.0038704872131347656,0.4710238575935364,0.1689900904893875,0.6261765956878662,3.0200359109662522,-0.004044997488178366,1.5741321360329834,150.54090909090908,102.5840909090909,126.59285714285714,79.41190476190476,102.54421768707483,102.4421768707483,126.46288209606988,126.30786026200873,149.0,145.0,125.0,121.0,101.0,145.0,125.0,169.0
118,5.9,-0.0012249946594238281,-0.3691694736480713,1.9141161441802979,-0.0963449478149414,-1.5660617351531982,-0.003945112228393555,0.4713357388973236,0.16893896460533142,0.6261895298957825,3.01954553415419,-0.004091025464678095,1.5740965060579282,150.5668934240363,102.77324263038548,126.57719714964371,79.6104513064133,102.5125284738041,102.66742596810934,126.42733188720173,126.52060737527115,149.0,145.0,125.0,121.0,101.0,145.0,125.0,169.0
119,5.95,-0.0012907981872558594,-0.36869335174560547,1.913874864578247,-0.09703993797302246,-1.5660345554351807,-0.0039865970611572266,0.4716627895832062,0.16890999674797058,0.6262149810791016,3.019085764071072,-0.004110918206736703,1.574077377216988,150.56462585034015,102.95691609977324,126.64775413711584,79.79432624113475,102.5261958997722,102.86788154897495,126.46288209606988,126.69213973799127,149.0,145.0,125.0,121.0,101.0,145.0,125.0,169.0
120,6.0,-0.001325368881225586,-0.3682107925415039,1.913644552230835,-0.0977473258972168,-1.5660316944122314,-0.0040090084075927734,0.4719884991645813,0.16889356076717377,0.6262308359146118,3.018630983813949,-0.004108841716541792,1.5740671351182975,150.4331065759637,103.13378684807256,126.62380952380953,79.98571428571428,102.5840909090909,103.06136363636364,126.42919389978213,126.88671023965142,149.0,145.0,125.0,121.0,101.0,145.0,125.0,169.0
121,6.050000000000001,-0.0013768672943115234,-0.3678596019744873,1.9136126041412354,-0.0986020565032959,-1.5660312175750732,-0.004075765609741211,0.4722493588924408,0.1688685566186905,0.6261894702911377,3.0180943487366396,-0.004098683769302435,1.5740843908707718,150.4920634920635,103.34013605442176,126.58095238095238,80.16190476190476,102.55808656036446,103.26651480637813,126.42919389978213,127.11328976034858,149.0,145.0,125.0,121.0,101.0,145.0,125.0,169.0
122,6.1000000000000005,-0.0014417171478271484,-0.36748266220092773,1.9135081768035889,-0.09938859939575195,-1.5660121440887451,-0.004148960113525391,0.472524493932724,0.16883879899978638,0.6261774301528931,3.0175803355174122,-0.0041064244681034015,1.5740964039774674,150.50569476082003,103.5261958997722,126.57719714964371,80.3895486935867,102.51480637813212,103.42369020501138,126.46288209606988,127.30786026200873,149.0,145.0,125.0,121.0,101.0,145.0,125.0,169.0
123,6.15,-0.0015456676483154297,-0.36705470085144043,1.913325548171997,-0.10010361671447754,-1.5659620761871338,-0.004229068756103516,0.4728313684463501,0.16879360377788544,0.6261867880821228,3.0171104382071987,-0.004144240423420229,1.5740800656943377,150.54545454545453,103.75681818181818,126.55450236966824,80.59478672985782,102.51136363636364,103.64090909090909,126.36086956521739,127.5,149.0,145.0,125.0,121.0,101.0,145.0,125.0,169.0
124,6.2,-0.0015845298767089844,-0.36657190322875977,1.9130942821502686,-0.10079455375671387,-1.5659582614898682,-0.004243373870849609,0.47315600514411926,0.16877511143684387,0.6262010335922241,3.0166713346773006,-0.004143956751162104,1.5740575370142462,150.53846153846155,103.96380090497738,126.56028368794327,80.76832151300236,102.43310657596372,103.86621315192744,126.4235807860262,127.65720524017468,149.0,145.0,125.0,121.0,101.0,145.0,125.0,169.0
125,6.25,-0.0016453266143798828,-0.36603379249572754,1.9127776622772217,-0.10140633583068848,-1.5659301280975342,-0.004271268844604492,0.473511278629303,0.16874828934669495,0.626238226890564,3.0162813377765127,-0.004166394644263096,1.5740298315051673,150.4331065759637,104.13378684807256,126.59619952494062,80.9809976247031,102.5,104.0,126.38997821350763,127.87363834422658,149.0,145.0,125.0,121.0,101.0,145.0,125.0,169.0
126,6.300000000000001,-0.0017142295837402344,-0.3656153678894043,1.9126427173614502,-0.10216164588928223,-1.5659143924713135,-0.004308223724365234,0.4738072454929352,0.16871649026870728,0.6262236833572388,3.0158094555265236,-0.004174731357416865,1.5740015610581954,150.4431818181818,104.29318181818182,126.54523809523809,81.13095238095238,102.52054794520548,104.19634703196347,126.40087145969498,128.07843137254903,149.0,145.0,125.0,121.0,101.0,145.0,125.0,169.0
127,6.3500000000000005,-0.001802206039428711,-0.36523914337158203,1.9125373363494873,-0.10292363166809082,-1.565880537033081,-0.0043866634368896484,0.47408363223075867,0.16867715120315552,0.6262096762657166,3.0153171189163364,-0.004196371459481234,1.5739979453834811,150.47045454545454,104.48636363636363,126.55,81.38333333333334,102.51826484018265,104.3972602739726,126.4161220043573,128.2483660130719,149.0,145.0,125.0,121.0,101.0,145.0,125.0,169.0
128,6.4,-0.0018846988677978516,-0.3647880554199219,1.9123623371124268,-0.10363078117370605,-1.5658490657806396,-0.004451274871826172,0.4743969738483429,0.16864030063152313,0.6262012720108032,3.01488593607445,-0.00421730959495894,1.5739854884195037,150.50681818181818,104.68636363636364,126.56501182033097,81.56973995271868,102.48519362186788,104.57630979498862,126.35729847494554,128.4313725490196,149.0,145.0,125.0,121.0,101.0,145.0,125.0,169.0
129,6.45,-0.0019114017486572266,-0.3642723560333252,1.9121143817901611,-0.1042935848236084,-1.5658562183380127,-0.004450082778930664,0.47473472356796265,0.16862642765045166,0.6262072920799255,3.014491825003373,-0.004208489001969941,1.5739582432960462,150.43990929705217,104.90022675736961,126.54028436018957,81.69668246445498,102.44772727272728,104.79545454545455,126.37336244541484,128.58951965065503,149.0,145.0,125.0,121.0,101.0,145.0,125.0,169.0
130,6.5,-0.0019750595092773438,-0.3638031482696533,1.9119083881378174,-0.10497498512268066,-1.5658361911773682,-0.004486799240112305,0.47505396604537964,0.1685972511768341,0.6262086629867554,3.014074122850091,-0.004221136644573845,1.5739359097446903,150.43537414965985,105.04308390022676,126.54502369668246,81.9218009478673,102.4159090909091,104.93863636363636,126.37472766884531,128.8235294117647,149.0,145.0,125.0,121.0,101.0,145.0,125.0,169.0
131,6.550000000000001,-0.0020322799682617188,-0.36331629753112793,1.911672830581665,-0.10563039779663086,-1.5658185482025146,-0.0045146942138671875,0.4753805994987488,0.16857095062732697,0.6262186765670776,3.013670539221582,-0.004233237684227977,1.5739096497587426,150.4162895927602,105.20588235294117,126.53095238095239,82.08571428571429,102.4931506849315,105.11872146118722,126.40434782608696,129.0,149.0,145.0,125.0,121.0,101.0,145.0,125.0,169.0
132,6.6000000000000005,-0.002125978469848633,-0.36290931701660156,1.9115407466888428,-0.10635137557983398,-1.5657804012298584,-0.004595279693603516,0.4756718873977661,0.16852903366088867,0.6262030601501465,3.0132231520246133,-0.004258893452828002,1.57390268808041,150.3922902494331,105.39682539682539,126.5,82.26666666666667,102.50681818181818,105.31363636363636,126.36304347826086,129.2,149.0,145.0,125.0,121.0,101.0,145.0,125.0,169.0
133,6.65,-0.0022132396697998047,-0.3625366687774658,1.9114553928375244,-0.10710573196411133,-1.565748929977417,-0.004679203033447266,0.4759438633918762,0.16848956048488617,0.6261754035949707,3.012755466278565,-0.004276510047291927,1.5739046091101667,150.4467120181406,105.58276643990929,126.5,82.39336492890995,102.4738041002278,105.50797266514806,126.33624454148472,129.37772925764193,149.0,145.0,125.0,121.0,101.0,145.0,125.0,169.0
