,t,q_1,q_2,q_3,q_4,q_5,q_6,camera_x,camera_y,camera_z,camera_roll,camera_pitch,camera_yaw,f_1,f_2,f_3,f_4,f_5,f_6,f_7,f_8,desired_f_1,desired_f_2,desired_f_3,desired_f_4,desired_f_5,desired_f_6,desired_f_7,desired_f_8
0,0.0,9.298324584960938e-06,-0.39263248443603516,1.963494062423706,7.200241088867188e-05,-1.5707952976226807,2.384185791015625e-07,0.4463264048099518,0.16906212270259857,0.5921618342399597,-3.141307778251266,0.00012221750102738726,1.5708379755145234,151.4127579737336,65.55722326454034,125.41947565543072,39.58052434456929,99.43609022556392,65.56390977443608,125.41275797373358,91.55722326454034,125.0,121.0,101.0,145.0,125.0,169.0,149.0,145.0
1,0.05,-0.005064249038696289,-0.39167332649230957,1.9558379650115967,0.008013725280761719,-1.5755345821380615,0.0004925727844238281,0.44753187894821167,0.1663030982017517,0.5961059331893921,-3.1400683221571755,0.004847078466419921,1.5652729239369487,148.9650485436893,66.03495145631068,123.04423076923077,40.386538461538464,97.4088291746641,66.1919385796545,123.40847784200385,91.94412331406551,125.0,121.0,101.0,145.0,125.0,169.0,149.0,145.0
2,0.1,-0.010474443435668945,-0.39597582817077637,1.9618723392486572,0.008204460144042969,-1.5758111476898193,-0.003670215606689453,0.445766419172287,0.16384084522724152,0.5939031839370728,-3.138127575263815,0.005108335255922788,1.564034373820593,148.11259541984734,64.67175572519083,122.0,38.86832061068702,96.32509505703422,65.0,122.38049713193116,90.81070745697897,125.0,121.0,101.0,145.0,125.0,169.0,149.0,145.0
3,0.15000000000000002,-0.006627321243286133,-0.39251708984375,1.9554269313812256,0.012534618377685547,-1.5786759853363037,-0.0004410743713378906,0.4469600021839142,0.16529124975204468,0.596285879611969,-3.1367938312278256,0.00800056193394225,1.5646804980080864,148.0,65.14147286821705,122.0,39.4080459770115,96.30285714285715,65.33714285714285,122.38653846153846,91.04423076923077,125.0,121.0,101.0,145.0,125.0,169.0,149.0,145.0
4,0.2,-0.002890348434448242,-0.3886606693267822,1.947796106338501,0.018889665603637695,-1.5814316272735596,0.0016291141510009766,0.44826266169548035,0.1666986644268036,0.5990745425224304,-3.134229207302901,0.010777620353008074,1.5663912284767223,147.89941972920695,65.42940038684719,122.10058027079303,39.57059961315281,96.4657794676806,65.4657794676806,122.38446601941747,91.11844660194174,125.0,121.0,101.0,145.0,125.0,169.0,149.0,145.0
5,0.25,0.00016355514526367188,-0.3860137462615967,1.9412195682525635,0.025996685028076172,-1.584625482559204,0.002536773681640625,0.4489162564277649,0.1677490770816803,0.6016094088554382,-3.1310700312772752,0.013985366816101885,1.568604789002207,147.61673151750972,65.14591439688716,121.99806201550388,39.43023255813954,96.43907156673114,65.06769825918762,122.06876227897838,90.89587426326129,125.0,121.0,101.0,145.0,125.0,169.0,149.0,145.0
6,0.30000000000000004,0.0023741722106933594,-0.3842794895172119,1.9384510517120361,0.028690099716186523,-1.5869781970977783,0.004973649978637695,0.44935908913612366,0.1685224324464798,0.6024318933486938,-3.129453081850139,0.016371216986987434,1.5684296049259547,147.451171875,65.08984375,121.81660231660231,39.3011583011583,96.1598440545809,64.98440545808967,121.93933463796478,90.72211350293541,125.0,121.0,101.0,145.0,125.0,169.0,149.0,145.0
7,0.35000000000000003,0.005463600158691406,-0.38199567794799805,1.9346354007720947,0.032259464263916016,-1.5894830226898193,0.008153676986694336,0.44992542266845703,0.1696871668100357,0.6036237478256226,-3.1274853568432794,0.018932433955315325,1.5684081099272014,147.1972386587771,65.0,121.61434108527132,39.14922480620155,96.02529182879377,64.8171206225681,121.84765625,90.56640625,125.0,121.0,101.0,145.0,125.0,169.0,149.0,145.0
8,0.4,0.00837850570678711,-0.38036394119262695,1.932224988937378,0.03445863723754883,-1.5917584896087646,0.011732101440429688,0.45021575689315796,0.1708025336265564,0.6043006181716919,-3.1261578328477566,0.02127524763928483,1.5678068214663896,147.1304347826087,64.91106719367589,121.47868217054264,39.04457364341085,95.94197292069633,64.68278529980658,121.73972602739725,90.47553816046967,125.0,121.0,101.0,145.0,125.0,169.0,149.0,145.0
9,0.45,0.011611700057983398,-0.37876081466674805,1.9300930500030518,0.036408424377441406,-1.5942614078521729,0.015871286392211914,0.45043617486953735,0.1720452606678009,0.6048280000686646,-3.1248626139752496,0.023864782872636287,1.5669732661705962,146.9090909090909,64.70158102766798,121.3624031007752,38.88178294573643,95.85549132947978,64.52408477842003,121.50097847358121,90.18982387475538,125.0,121.0,101.0,145.0,125.0,169.0,149.0,145.0
10,0.5,0.013482809066772461,-0.37850499153137207,1.9301798343658447,0.036370038986206055,-1.5954978466033936,0.019802093505859375,0.45023536682128906,0.1727936863899231,0.6046651601791382,-3.124678077783292,0.025170716489645657,1.564940222937848,146.8294117647059,64.53529411764706,121.08155339805825,38.68349514563107,95.6455938697318,64.44827586206897,121.455078125,90.107421875,125.0,121.0,101.0,145.0,125.0,169.0,149.0,145.0
11,0.55,0.017599105834960938,-0.37697434425354004,1.9284508228302002,0.036943674087524414,-1.597461462020874,0.025830745697021484,0.4503680169582367,0.17451100051403046,0.6050933003425598,-3.124503854080363,0.027247525142986645,1.5630717223844353,146.853228962818,64.54207436399217,121.11695906432749,38.810916179337234,95.73166023166023,64.51930501930502,121.5243664717349,90.09356725146199,125.0,121.0,101.0,145.0,125.0,169.0,149.0,145.0
12,0.6000000000000001,0.023382902145385742,-0.3737494945526123,1.9242069721221924,0.038683414459228516,-1.5998170375823975,0.03359103202819824,0.45113182067871094,0.17698080837726593,0.6063319444656372,-3.1240695735780415,0.029762626063621213,1.5611564681370105,146.97410358565736,64.83864541832669,121.30724070450098,39.11350293542074,95.982421875,64.859375,121.91159135559921,90.37721021611002,125.0,121.0,101.0,145.0,125.0,169.0,149.0,145.0
13,0.65,0.027857065200805664,-0.3708460330963135,1.9197757244110107,0.04118824005126953,-1.6024105548858643,0.039073944091796875,0.45189958810806274,0.17882013320922852,0.6077622771263123,-3.123353595917025,0.03248547171666049,1.5602221831886844,146.92814371257484,65.00998003992017,121.24171539961014,39.44249512670565,96.01764705882353,65.05294117647058,121.91089108910892,90.62772277227722,125.0,121.0,101.0,145.0,125.0,169.0,149.0,145.0
14,0.7000000000000001,0.032094478607177734,-0.3676586151123047,1.9156086444854736,0.04372596740722656,-1.6053111553192139,0.04372811317443848,0.4528147280216217,0.1805269718170166,0.60887610912323,-3.1220684831528374,0.03553323527473564,1.5599099606185802,146.86,65.126,121.15369649805447,39.54669260700389,95.9706457925636,65.23483365949119,121.84661354581674,90.77290836653387,125.0,121.0,101.0,145.0,125.0,169.0,149.0,145.0
15,0.75,0.03684568405151367,-0.3645956516265869,1.9115040302276611,0.04667544364929199,-1.608764410018921,0.04818224906921387,0.4535294771194458,0.18241862952709198,0.6099616885185242,-3.120482151428749,0.03916048452816523,1.5603466484704,146.76659959758553,65.16297786720322,121.08576998050683,39.56140350877193,95.94901960784314,65.16470588235295,121.75498007968127,90.75498007968127,125.0,121.0,101.0,145.0,125.0,169.0,149.0,145.0
16,0.8,0.04151487350463867,-0.3621370792388916,1.9088938236236572,0.04878354072570801,-1.612504243850708,0.05309104919433594,0.4539129436016083,0.1842445433139801,0.6104004383087158,-3.1189125370960396,0.04310103452724645,1.5602666615320167,146.46184738955824,65.03012048192771,120.94931773879142,39.4541910331384,95.75538160469668,64.98825831702544,121.55020080321285,90.5,125.0,121.0,101.0,145.0,125.0,169.0,149.0,145.0
17,0.8500000000000001,0.04570794105529785,-0.3596987724304199,1.9063432216644287,0.04967379570007324,-1.6144359111785889,0.05877971649169922,0.454475462436676,0.1860552430152893,0.6109211444854736,-3.118492071382023,0.04520147496367464,1.5588448463812932,146.59837728194725,65.17849898580121,121.05068226120858,39.5458089668616,95.88235294117646,65.11764705882354,121.72455089820359,90.64471057884232,125.0,121.0,101.0,145.0,125.0,169.0,149.0,145.0
18,0.9,0.05012083053588867,-0.35729050636291504,1.9037182331085205,0.051021575927734375,-1.6169865131378174,0.06455802917480469,0.4549405574798584,0.18790946900844574,0.6114587187767029,-3.1177836809610016,0.047950819518034635,1.557587751609977,146.5560081466395,65.19551934826885,121.00980392156863,39.582352941176474,95.892578125,65.166015625,121.74,90.716,125.0,121.0,101.0,145.0,125.0,169.0,149.0,145.0
19,0.9500000000000001,0.05524921417236328,-0.35448479652404785,1.9008991718292236,0.052182674407958984,-1.6200792789459229,0.0709536075592041,0.4555000066757202,0.19006142020225525,0.6119637489318848,-3.1171587692454925,0.051268502597614674,1.556446315950565,146.4928716904277,65.29124236252545,120.94861660079052,39.74308300395257,95.93957115009746,65.31968810916179,121.73053892215569,90.76047904191617,125.0,121.0,101.0,145.0,125.0,169.0,149.0,145.0
20,1.0,0.060164451599121094,-0.35207200050354004,1.8985483646392822,0.053285837173461914,-1.6230766773223877,0.07703566551208496,0.4558643102645874,0.19211989641189575,0.612337589263916,-3.1165335141557957,0.05449215086335034,1.5554088627712401,146.42712550607288,65.28744939271255,120.93069306930693,39.76039603960396,95.90679611650485,65.32427184466019,121.75751503006012,90.74949899799599,125.0,121.0,101.0,145.0,125.0,169.0,149.0,145.0
21,1.05,0.06559944152832031,-0.3490917682647705,1.8955247402191162,0.0544278621673584,-1.6260817050933838,0.08379697799682617,0.45645377039909363,0.19444993138313293,0.6128931045532227,-3.116051127036995,0.0577460790538866,1.5542119853115555,146.5,65.44897959183673,120.93849206349206,39.90873015873016,95.97081712062257,65.46692607003891,121.85341365461848,90.83935742971887,125.0,121.0,101.0,145.0,125.0,169.0,149.0,145.0
22,1.1,0.07109737396240234,-0.3464505672454834,1.892747163772583,0.05628466606140137,-1.6295387744903564,0.09049510955810547,0.45676299929618835,0.19675607979297638,0.6133673191070557,-3.1150280602805283,0.06151160670176659,1.55319449094661,146.3530612244898,65.32448979591837,120.8670634920635,39.82142857142857,95.92007797270955,65.36452241715399,121.85282258064517,90.79032258064517,125.0,121.0,101.0,145.0,125.0,169.0,149.0,145.0
23,1.1500000000000001,0.0769803524017334,-0.34307026863098145,1.889561414718628,0.05681300163269043,-1.6327593326568604,0.09804320335388184,0.4575202763080597,0.19931954145431519,0.6139015555381775,-3.1150793520777693,0.06498559653073713,1.5516480065996145,146.44123711340205,65.64742268041238,120.91106719367589,40.05731225296443,95.96875,65.677734375,121.90120967741936,90.99596774193549,125.0,121.0,101.0,145.0,125.0,169.0,149.0,145.0
24,1.2000000000000002,0.08348441123962402,-0.34037280082702637,1.8866932392120361,0.05903887748718262,-1.636979341506958,0.10546326637268066,0.4576151669025421,0.20203760266304016,0.6143724918365479,-3.113950936934581,0.06958970628680208,1.5509709180398292,146.3552361396304,65.47433264887064,120.7936507936508,39.93055555555556,95.97081712062257,65.46692607003891,121.87525150905432,90.82696177062374,125.0,121.0,101.0,145.0,125.0,169.0,149.0,145.0
25,1.25,0.0894918441772461,-0.33789634704589844,1.8847596645355225,0.05938434600830078,-1.6407368183135986,0.11360740661621094,0.4577917158603668,0.20458944141864777,0.614503800868988,-3.1140527079436917,0.0736435954300172,1.5489832254061755,146.2020618556701,65.55670103092784,120.74801587301587,39.992063492063494,95.86549707602339,65.57699805068226,121.8080808080808,90.89090909090909,125.0,121.0,101.0,145.0,125.0,169.0,149.0,145.0
26,1.3,0.09671807289123535,-0.33482789993286133,1.8820126056671143,0.06013035774230957,-1.6446259021759033,0.12266206741333008,0.4580315947532654,0.20773522555828094,0.6148595809936523,-3.114124000251389,0.07787946632632309,1.5473200916321883,146.2744282744283,65.6923076923077,120.8131212723658,40.059642147117295,95.92954990215264,65.73385518590997,121.95731707317073,90.9410569105691,125.0,121.0,101.0,145.0,125.0,169.0,149.0,145.0
27,1.35,0.10367965698242188,-0.3322124481201172,1.8788654804229736,0.06180405616760254,-1.6484549045562744,0.13140606880187988,0.45802417397499084,0.21074756979942322,0.6156030297279358,-3.114166575439816,0.08205847579857276,1.5457087258542028,146.25625,65.71041666666666,120.81908548707753,40.14711729622267,95.97058823529412,65.76470588235294,122.0,91.0,125.0,121.0,101.0,145.0,125.0,169.0,149.0,145.0
28,1.4000000000000001,0.1113433837890625,-0.32892489433288574,1.8753249645233154,0.06330394744873047,-1.6528265476226807,0.14101886749267578,0.45823901891708374,0.21408618986606598,0.616308331489563,-3.1143203778169863,0.08681879992420864,1.5439531162448321,146.2651356993737,65.74947807933194,120.76143141153082,40.45129224652087,96.08267716535433,65.91732283464567,122.0838445807771,91.03476482617587,125.0,121.0,101.0,145.0,125.0,169.0,149.0,145.0
29,1.4500000000000002,0.1167151927947998,-0.32604503631591797,1.8724334239959717,0.06443333625793457,-1.6557958126068115,0.1483297348022461,0.45868465304374695,0.2164822369813919,0.6167905926704407,-3.1142743043644847,0.0901100603215919,1.542164700122017,146.25157232704402,65.89308176100629,120.77644710578842,40.63872255489022,96.11811023622047,66.06299212598425,122.15071283095723,91.15478615071284,125.0,121.0,101.0,145.0,125.0,169.0,149.0,145.0
30,1.5,0.1219024658203125,-0.3231523036956787,1.8696110248565674,0.06571316719055176,-1.6587722301483154,0.15534114837646484,0.45914319157600403,0.21879985928535461,0.6172012090682983,-3.1140183298657904,0.09344079331356848,1.5405161455617906,146.22175732217573,65.94142259414225,120.75050301810865,40.76458752515091,96.13385826771653,66.18307086614173,122.19144602851324,91.18533604887983,125.0,121.0,101.0,145.0,125.0,169.0,149.0,145.0
31,1.55,0.1269831657409668,-0.3201615810394287,1.8665039539337158,0.06717896461486816,-1.6615068912506104,0.16221070289611816,0.45966488122940063,0.22111158072948456,0.6177303791046143,-3.113756524150355,0.0965392775570495,1.5389004282742786,146.22268907563026,65.99159663865547,120.70682730923694,40.86144578313253,96.16568047337279,66.2879684418146,122.25872689938399,91.3141683778234,125.0,121.0,101.0,145.0,125.0,169.0,149.0,145.0
32,1.6,0.1323227882385254,-0.3169727325439453,1.8634626865386963,0.06834936141967773,-1.6646053791046143,0.16921687126159668,0.4602469205856323,0.22353573143482208,0.6181493401527405,-3.11364013372241,0.10000438832326636,1.5374170896598125,146.26624737945494,66.17190775681341,120.63306451612904,41.056451612903224,96.248046875,66.49609375,122.39049586776859,91.5702479338843,125.0,121.0,101.0,145.0,125.0,169.0,149.0,145.0
33,1.6500000000000001,0.1370861530303955,-0.3145105838775635,1.8617947101593018,0.0687406063079834,-1.6680786609649658,0.1752946376800537,0.46055513620376587,0.22560656070709229,0.6180753707885742,-3.113670851732285,0.10379358368125,1.536288838879152,145.91120507399577,66.27272727272727,120.46138211382114,41.11178861788618,96.04892367906066,66.64579256360078,122.24688796680498,91.63278008298755,125.0,121.0,101.0,145.0,125.0,169.0,149.0,145.0
34,1.7000000000000002,0.14360880851745605,-0.3112602233886719,1.8592417240142822,0.06923508644104004,-1.6717984676361084,0.18234014511108398,0.4609220623970032,0.22854773700237274,0.6182021498680115,-3.1138878829548147,0.10786013575126616,1.535957970374083,146.16204690831557,66.5543710021322,120.65789473684211,41.27935222672065,96.2211350293542,66.83365949119374,122.37966804979253,91.73236514522821,125.0,121.0,101.0,145.0,125.0,169.0,149.0,145.0
35,1.75,0.14951372146606445,-0.30933046340942383,1.8575289249420166,0.07134532928466797,-1.6760847568511963,0.1891179084777832,0.46052977442741394,0.23102426528930664,0.6182495355606079,-3.113116244484711,0.11268222621998807,1.5354184470298915,145.77542372881356,66.20550847457628,120.42307692307692,40.991902834008094,96.04109589041096,66.39334637964775,122.2107438016529,91.41322314049587,125.0,121.0,101.0,145.0,125.0,169.0,149.0,145.0
36,1.8,0.15421175956726074,-0.3069612979888916,1.8556029796600342,0.07139348983764648,-1.6784875392913818,0.19553160667419434,0.46081891655921936,0.23319891095161438,0.6184089779853821,-3.1138144559527112,0.1153091657839235,1.5337838795603924,145.8731182795699,66.3741935483871,120.39714867617108,41.14867617107943,96.10371819960861,66.72015655577299,122.37006237006237,91.65696465696466,125.0,121.0,101.0,145.0,125.0,169.0,149.0,145.0
37,1.85,0.16001033782958984,-0.304471492767334,1.853548288345337,0.07155346870422363,-1.6818482875823975,0.20260834693908691,0.46092188358306885,0.235812246799469,0.6185928583145142,-3.114711120279969,0.11891255980759384,1.5326201300289444,145.92656587473002,66.62203023758099,120.4949083503055,41.4745417515275,96.19646365422396,66.950884086444,122.4356846473029,91.80290456431536,125.0,121.0,101.0,145.0,125.0,169.0,149.0,145.0
38,1.9000000000000001,0.16518545150756836,-0.30205702781677246,1.8516018390655518,0.07228374481201172,-1.684927225112915,0.20908117294311523,0.46104487776756287,0.23815253376960754,0.6186766624450684,-3.1149301823882354,0.12233848536199729,1.5315011097450546,145.92857142857142,66.66233766233766,120.4969450101833,41.66802443991853,96.27504911591356,67.00196463654224,122.47390396659708,91.8517745302714,125.0,121.0,101.0,145.0,125.0,169.0,149.0,145.0
39,1.9500000000000002,0.16988420486450195,-0.2995107173919678,1.8498833179473877,0.0727546215057373,-1.6878387928009033,0.2152402400970459,0.46133702993392944,0.24030479788780212,0.6185630559921265,-3.1150170134242634,0.1256148934328504,1.5302291701540018,145.87012987012986,66.72294372294373,120.47336065573771,41.72745901639344,96.23575638506877,67.07269155206286,122.46875,91.91458333333334,125.0,121.0,101.0,145.0,125.0,169.0,149.0,145.0
40,2.0,0.17520785331726074,-0.29657983779907227,1.8478271961212158,0.07337307929992676,-1.6910154819488525,0.22199416160583496,0.46167832612991333,0.24277037382125854,0.6184705495834351,-3.1150864725968725,0.1292121951930888,1.5290164023746222,145.8852813852814,66.82251082251082,120.47736625514403,41.84362139917695,96.26232741617358,67.11439842209073,122.55114822546973,91.98956158663883,125.0,121.0,101.0,145.0,125.0,169.0,149.0,145.0
41,2.0500000000000003,0.1802058219909668,-0.2936694622039795,1.8460018634796143,0.07381391525268555,-1.6941473484039307,0.2285323143005371,0.4620712399482727,0.24509599804878235,0.6182470321655273,-3.1151314703448514,0.13277176520420678,1.5277003101762197,145.8682505399568,66.89416846652267,120.39795918367346,41.90204081632653,96.23031496062993,67.18110236220473,122.53125,92.08541666666666,125.0,121.0,101.0,145.0,125.0,169.0,149.0,145.0
42,2.1,0.18642735481262207,-0.29045557975769043,1.8446986675262451,0.07383227348327637,-1.6982662677764893,0.23636722564697266,0.4623167812824249,0.24793918430805206,0.617570698261261,-3.1152312426112365,0.1374236982672496,1.5263811715941764,145.8426724137931,66.89655172413794,120.27032520325203,41.84552845528455,96.1827111984283,67.19646365422396,122.53125,92.08541666666666,125.0,121.0,101.0,145.0,125.0,169.0,149.0,145.0
43,2.15,0.19260859489440918,-0.28815269470214844,1.844106912612915,0.07334661483764648,-1.702338457107544,0.24422216415405273,0.46209844946861267,0.2506919503211975,0.6169213056564331,-3.116088142857884,0.1418681653933746,1.5249044530539093,145.74945533769062,66.90196078431373,120.21298174442191,41.86612576064909,96.13948919449902,67.17878192534381,122.53125,92.08541666666666,125.0,121.0,101.0,145.0,125.0,169.0,149.0,145.0
44,2.2,0.19813132286071777,-0.28587913513183594,1.8432319164276123,0.07279753684997559,-1.7057092189788818,0.25143933296203613,0.46203261613845825,0.25321125984191895,0.6164712905883789,-3.11711450802971,0.14551699528454445,1.5233384053508718,145.75809935205183,66.98488120950324,120.19066937119675,41.910750507099394,96.11198428290766,67.29469548133595,122.59375,92.20208333333333,125.0,121.0,101.0,145.0,125.0,169.0,149.0,145.0
45,2.25,0.20306754112243652,-0.2838928699493408,1.8420774936676025,0.07254815101623535,-1.708620309829712,0.25784897804260254,0.46194979548454285,0.2554750442504883,0.616314709186554,-3.1182161230821834,0.14862700167100684,1.521947543795712,145.7365010799136,67.11447084233261,120.28920570264766,42.09572301425662,96.31782945736434,67.4922480620155,122.67085953878407,92.32704402515724,125.0,121.0,101.0,145.0,125.0,169.0,149.0,145.0
46,2.3000000000000003,0.2095777988433838,-0.28148937225341797,1.841482400894165,0.07169318199157715,-1.7131330966949463,0.26583313941955566,0.4617020785808563,0.2583759129047394,0.6156519651412964,-3.1196495654381304,0.153411362636126,1.5206254247978215,145.6125541125541,67.27705627705627,120.0569105691057,42.21341463414634,96.12256809338521,67.65369649805447,122.5672268907563,92.44747899159664,125.0,121.0,101.0,145.0,125.0,169.0,149.0,145.0
47,2.35,0.21594762802124023,-0.27986955642700195,1.8414719104766846,0.07103681564331055,-1.7168991565704346,0.2732698917388916,0.4610030949115753,0.26118892431259155,0.6149603724479675,-3.120875966168753,0.15744981729651344,1.5196931416298225,145.73376623376623,67.14069264069263,120.24130879345603,42.16155419222904,96.31334622823985,67.5164410058027,122.71907756813417,92.33962264150944,125.0,121.0,101.0,145.0,125.0,169.0,149.0,145.0
48,2.4000000000000004,0.22371768951416016,-0.2770524024963379,1.8407490253448486,0.06998205184936523,-1.7221062183380127,0.2829456329345703,0.4606374502182007,0.2646802067756653,0.6141998767852783,-3.1228359138901336,0.1629303644343679,1.5179274923510064,145.59429824561403,67.39035087719299,120.07786885245902,42.32172131147541,96.18375241779498,67.75822050290135,122.73949579831933,92.46428571428571,125.0,121.0,101.0,145.0,125.0,169.0,149.0,145.0
49,2.45,0.22823762893676758,-0.27579760551452637,1.8398725986480713,0.07004213333129883,-1.7245800495147705,0.2886481285095215,0.4601927697658539,0.26671504974365234,0.6141850352287292,-3.124045584046706,0.16551946207686452,1.516778510640443,145.62938596491227,67.39912280701755,120.12731006160165,42.40041067761807,96.28654970760233,67.82261208576998,122.88100208768267,92.59707724425887,125.0,121.0,101.0,145.0,125.0,169.0,149.0,145.0
50,2.5,0.2330303192138672,-0.27428603172302246,1.838932752609253,0.06981801986694336,-1.7274458408355713,0.2945282459259033,0.45983457565307617,0.26887795329093933,0.6141150593757629,-3.125513715673798,0.16845595794353105,1.5157100853552896,145.6688596491228,67.58333333333333,120.16056910569105,42.6910569105691,96.3522504892368,67.97455968688845,122.95218295218295,92.74428274428274,125.0,121.0,101.0,145.0,125.0,169.0,149.0,145.0
51,2.5500000000000003,0.23794174194335938,-0.27257370948791504,1.8382432460784912,0.06957626342773438,-1.7305233478546143,0.3005716800689697,0.45951271057128906,0.27110159397125244,0.6137756705284119,-3.1266841075289515,0.17171728842873063,1.5146655025687425,145.69026548672565,67.66592920353982,120.14081632653061,42.73673469387755,96.41325536062378,68.07212475633528,123.02286902286902,92.79625779625779,125.0,121.0,101.0,145.0,125.0,169.0,149.0,145.0
52,2.6,0.24266386032104492,-0.27127909660339355,1.8378822803497314,0.06923031806945801,-1.7336399555206299,0.3064396381378174,0.45901191234588623,0.27318161725997925,0.6134408116340637,-3.128065435962122,0.17494712604663365,1.5135723050235197,145.69026548672565,67.66592920353982,120.13292433537832,42.8118609406953,96.37621832358674,68.10331384015595,123.02092050209205,92.88912133891213,125.0,121.0,101.0,145.0,125.0,169.0,149.0,145.0
53,2.6500000000000004,0.24892020225524902,-0.2691380977630615,1.8372867107391357,0.06868290901184082,-1.7377574443817139,0.31384897232055664,0.4585559368133545,0.27599766850471497,0.61286461353302,-3.1296700115934417,0.17926533819345797,1.5125251284956127,145.69265033407572,67.71714922048997,120.14314928425358,42.92842535787321,96.40900195694717,68.18590998043052,123.02708333333334,92.95208333333333,125.0,121.0,101.0,145.0,125.0,169.0,149.0,145.0
54,2.7,0.2581291198730469,-0.26581239700317383,1.8369219303131104,0.06768655776977539,-1.7440330982208252,0.32439255714416504,0.4579092562198639,0.2801455855369568,0.6116013526916504,-3.1316679716222615,0.18595625898682752,1.5114301112643516,145.65625,67.83482142857143,120.09465020576131,42.96090534979424,96.419921875,68.208984375,123.02510460251047,92.99581589958159,125.0,121.0,101.0,145.0,125.0,169.0,149.0,145.0
55,2.75,0.26346540451049805,-0.2647099494934082,1.8375070095062256,0.06669163703918457,-1.7477600574493408,0.33118414878845215,0.45709162950515747,0.2824264168739319,0.6108048558235168,-3.133486138310085,0.18975728983776824,1.5100078584221635,145.46085011185681,67.76510067114094,119.9896480331263,42.96066252587992,96.33398058252428,68.14174757281553,122.98744769874477,92.97698744769875,125.0,121.0,101.0,145.0,125.0,169.0,149.0,145.0
56,2.8000000000000003,0.26798176765441895,-0.2633082866668701,1.8373267650604248,0.06574606895446777,-1.7505524158477783,0.33702731132507324,0.4566800594329834,0.2844684422016144,0.6103472709655762,-3.1352621973648658,0.19251676562815925,1.5086386884266172,145.5,68.0,120.03534303534303,43.08523908523909,96.40847784200385,68.39113680154142,123.0625,93.025,125.0,121.0,101.0,145.0,125.0,169.0,149.0,145.0
57,2.85,0.2723870277404785,-0.2623934745788574,1.837200403213501,0.06532859802246094,-1.7533023357391357,0.34276580810546875,0.456001877784729,0.28639116883277893,0.6100488901138306,-3.136946481655963,0.19525899971465452,1.507278212108512,145.51467268623026,68.07900677200902,119.98343685300208,43.15734989648033,96.42307692307692,68.46153846153847,123.11642411642411,93.1018711018711,125.0,121.0,101.0,145.0,125.0,169.0,149.0,145.0
58,2.9000000000000004,0.27664637565612793,-0.26170945167541504,1.8373548984527588,0.06473970413208008,-1.7560536861419678,0.3483583927154541,0.4552372992038727,0.28821349143981934,0.6096974015235901,-3.1387517142786208,0.1979505112143827,1.5058917950670798,145.46049661399547,68.15349887133183,119.92164948453608,43.24536082474227,96.42307692307692,68.46153846153847,123.11297071129707,93.14644351464435,125.0,121.0,101.0,145.0,125.0,169.0,149.0,145.0
59,2.95,0.2800712585449219,-0.26125454902648926,1.8376758098602295,0.06403350830078125,-1.7582404613494873,0.353165864944458,0.4545758366584778,0.28966960310935974,0.6093538403511047,-3.140404338549227,0.20003408862061636,1.5044282086328808,145.3882618510158,68.18058690744921,119.88796680497926,43.3402489626556,96.45173745173746,68.4980694980695,123.09243697478992,93.19117647058823,125.0,121.0,101.0,145.0,125.0,169.0,149.0,145.0
60,3.0,0.28383517265319824,-0.26085877418518066,1.8385746479034424,0.06280040740966797,-1.7607595920562744,0.35841989517211914,0.45378750562667847,0.29124191403388977,0.6087095141410828,3.140891685333428,0.2024187000769285,1.5028427028747064,145.24660633484163,68.22850678733032,119.77130977130977,43.37006237006237,96.37596899224806,68.56976744186046,123.13235294117646,93.22478991596638,125.0,121.0,101.0,145.0,125.0,169.0,149.0,145.0
61,3.0500000000000003,0.2868165969848633,-0.26043152809143066,1.838670015335083,0.062056779861450195,-1.7624781131744385,0.36262011528015137,0.4532451331615448,0.2925390303134918,0.6085267663002014,3.139208222758673,0.20394083032218355,1.5014895117606701,145.2579908675799,68.28310502283105,119.78902953586498,43.561181434599156,96.41245136186771,68.6750972762646,123.25265392781316,93.35244161358811,125.0,121.0,101.0,145.0,125.0,169.0,149.0,145.0
62,3.1,0.2899343967437744,-0.25968050956726074,1.8385975360870361,0.061281681060791016,-1.7643377780914307,0.3669002056121826,0.45283499360084534,0.29393577575683594,0.6082956790924072,3.1375630182554572,0.20563041103234173,1.5002115899666764,145.2840909090909,68.4,119.76150627615063,43.71338912133891,96.51076320939335,68.83561643835617,123.35042735042735,93.49145299145299,125.0,121.0,101.0,145.0,125.0,169.0,149.0,145.0
63,3.1500000000000004,0.29304957389831543,-0.25914597511291504,1.8390014171600342,0.0601654052734375,-1.7664105892181396,0.3711080551147461,0.45231151580810547,0.29527726769447327,0.6078941226005554,3.13576301030957,0.20748012149823145,1.4989831005543413,145.250569476082,68.48974943052391,119.77568134171908,43.84486373165618,96.48343079922027,68.98050682261209,123.35181236673775,93.5501066098081,125.0,121.0,101.0,145.0,125.0,169.0,149.0,145.0
64,3.2,0.29684019088745117,-0.25834226608276367,1.839231252670288,0.0592191219329834,-1.7688190937042236,0.3759891986846924,0.45172154903411865,0.2969365417957306,0.6074587106704712,3.133931367316223,0.20972319201397038,1.4977877166515539,145.2619589977221,68.56719817767653,119.73628691983123,43.938818565400844,96.4727626459144,69.1011673151751,123.36652542372882,93.61440677966101,125.0,121.0,101.0,145.0,125.0,169.0,149.0,145.0
65,3.25,0.3013591766357422,-0.2575082778930664,1.839677095413208,0.05818605422973633,-1.771702527999878,0.381608247756958,0.4509256184101105,0.2988855540752411,0.6068804264068604,3.131890132394912,0.21244699903081254,1.49658698513519,145.27002288329518,68.58352402745996,119.73894736842105,43.98315789473684,96.58349705304519,69.17092337917485,123.43312101910828,93.75796178343948,125.0,121.0,101.0,145.0,125.0,169.0,149.0,145.0
66,3.3000000000000003,0.3071787357330322,-0.2568778991699219,1.8416907787322998,0.05543780326843262,-1.7761576175689697,0.38835716247558594,0.44969749450683594,0.3012527823448181,0.6055551767349243,3.1286366045861045,0.21646654408554397,1.4954331480999028,145.24429223744292,68.76255707762557,119.64482029598308,44.164904862579284,96.52427184466019,69.23495145631068,123.41649048625793,93.85200845665962,125.0,121.0,101.0,145.0,125.0,169.0,149.0,145.0
67,3.35,0.3091766834259033,-0.256619930267334,1.8417885303497314,0.054880619049072266,-1.7773454189300537,0.3914477825164795,0.44930586218833923,0.3021077811717987,0.6054336428642273,3.12731065542688,0.21743692009704993,1.4942056871510923,145.25688073394497,68.84174311926606,119.60851063829787,44.317021276595746,96.55836575875486,69.34241245136187,123.44397463002115,93.89217758985201,125.0,121.0,101.0,145.0,125.0,169.0,149.0,145.0
68,3.4000000000000004,0.3111436367034912,-0.2564527988433838,1.842064619064331,0.05427289009094238,-1.7785475254058838,0.39457225799560547,0.4488660991191864,0.3029300570487976,0.605243444442749,3.1260008964113015,0.21843179014095668,1.492919413744478,145.25688073394497,68.84174311926606,119.61965811965813,44.40811965811966,96.56031128404669,69.44941634241245,123.4620253164557,93.9113924050633,125.0,121.0,101.0,145.0,125.0,169.0,149.0,145.0
69,3.45,0.3137526512145996,-0.2561802864074707,1.842590093612671,0.053464651107788086,-1.7802050113677979,0.3983910083770752,0.44828715920448303,0.304023414850235,0.6048582792282104,3.1244947901598557,0.21989605671346926,1.4915897723902325,145.26036866359448,68.8963133640553,119.5501066098081,44.43496801705757,96.53398058252426,69.51067961165049,123.48414376321352,93.97885835095137,125.0,121.0,101.0,145.0,125.0,169.0,149.0,145.0
70,3.5,0.3157212734222412,-0.2559983730316162,1.842642068862915,0.053031206130981445,-1.7813351154327393,0.4015195369720459,0.44785308837890625,0.30486270785331726,0.6047910451889038,3.1231616796401984,0.22080270391871598,1.4902917410149692,145.2811059907834,68.9447004608295,119.56652360515021,44.58583690987125,96.53307392996109,69.65953307392996,123.54334038054968,94.06342494714588,125.0,121.0,101.0,145.0,125.0,169.0,149.0,145.0
71,3.5500000000000003,0.3180882930755615,-0.2556331157684326,1.8426496982574463,0.052617788314819336,-1.782721757888794,0.40503358840942383,0.4473923146724701,0.30588728189468384,0.6046614646911621,3.1217822675539786,0.22199509616072313,1.4890237769540642,145.27146171693735,69.02320185614849,119.5936170212766,44.659574468085104,96.564453125,69.751953125,123.55602536997885,94.10782241014799,125.0,121.0,101.0,145.0,125.0,169.0,149.0,145.0
72,3.6,0.32093334197998047,-0.2553079128265381,1.8429701328277588,0.05203723907470703,-1.7844784259796143,0.409088134765625,0.4467609226703644,0.30708473920822144,0.6043652296066284,3.120222570379454,0.22355239493121845,1.487693709810357,145.2214452214452,69.08158508158508,119.57234042553192,44.67446808510638,96.5440313111546,69.76516634050881,123.55602536997885,94.10782241014799,125.0,121.0,101.0,145.0,125.0,169.0,149.0,145.0
73,3.6500000000000004,0.3232994079589844,-0.2550034523010254,1.842820405960083,0.05183053016662598,-1.7857816219329834,0.41269707679748535,0.4462611973285675,0.3081056773662567,0.6043505072593689,3.1188247481726354,0.22464564787639443,1.4863208430413863,145.21728971962617,69.15654205607477,119.5936170212766,44.808510638297875,96.63209393346379,69.89432485322897,123.59787234042552,94.1659574468085,125.0,121.0,101.0,145.0,125.0,169.0,149.0,145.0
74,3.7,0.32611918449401855,-0.2547600269317627,1.8431065082550049,0.05136394500732422,-1.7874963283538818,0.4168233871459961,0.44558578729629517,0.30927765369415283,0.604108989238739,3.117237379266132,0.22614288460506024,1.484884288967096,145.1737089201878,69.1830985915493,119.52350427350427,44.8440170940171,96.71037181996086,69.95499021526419,123.61995753715499,94.18046709129511,125.0,121.0,101.0,145.0,125.0,169.0,149.0,145.0
75,3.75,0.32897472381591797,-0.25487351417541504,1.8440449237823486,0.0504002571105957,-1.7893893718719482,0.42101550102233887,0.4447188377380371,0.3103863000869751,0.6036669015884399,3.1153587473053066,0.22771076842866622,1.4833644433519853,145.1007025761124,69.18266978922716,119.43440860215054,44.898924731182795,96.61643835616438,69.92759295499022,123.59787234042552,94.1659574468085,125.0,121.0,101.0,145.0,125.0,169.0,149.0,145.0
76,3.8000000000000003,0.331439733505249,-0.25463294982910156,1.8441107273101807,0.0499727725982666,-1.7907226085662842,0.42484450340270996,0.4441525340080261,0.3114360272884369,0.6035627722740173,3.113802008002978,0.22877291743753433,1.4818402134915059,145.1007025761124,69.18266978922716,119.45258620689656,45.0,96.72781065088758,70.02366863905326,123.67521367521367,94.2457264957265,125.0,121.0,101.0,145.0,125.0,169.0,149.0,145.0
77,3.85,0.3341693878173828,-0.25438904762268066,1.8445684909820557,0.049103736877441406,-1.7924034595489502,0.4289395809173584,0.4435169994831085,0.3125739097595215,0.603244960308075,3.1119831754114604,0.23011601612861327,1.4802856393039843,145.04895104895104,69.26806526806527,119.43103448275862,45.08405172413793,96.6990099009901,70.10891089108911,123.69164882226981,94.32119914346895,125.0,121.0,101.0,145.0,125.0,169.0,149.0,145.0
78,3.9000000000000004,0.3367307186126709,-0.25408196449279785,1.8446886539459229,0.04851794242858887,-1.7938697338104248,0.432819128036499,0.44296014308929443,0.3136674761772156,0.6030880212783813,3.110302879714424,0.23126406257760315,1.4787886502344911,145.05336426914153,69.35498839907193,119.4077253218884,45.21888412017167,96.75196850393701,70.21259842519684,123.71827956989247,94.40430107526882,125.0,121.0,101.0,145.0,125.0,169.0,149.0,145.0
79,3.95,0.3393137454986572,-0.2539098262786865,1.84517502784729,0.0477144718170166,-1.7954370975494385,0.43676066398620605,0.4423176646232605,0.3147323727607727,0.6027795076370239,3.108566252129027,0.23249768018763672,1.4772452866723498,145.0418604651163,69.37906976744186,119.34557235421167,45.31101511879049,96.73267326732673,70.27128712871287,123.73275862068965,94.42672413793103,125.0,121.0,101.0,145.0,125.0,169.0,149.0,145.0
80,4.0,0.3419382572174072,-0.25365471839904785,1.8455584049224854,0.046965599060058594,-1.796966791152954,0.440779447555542,0.44170141220092773,0.3158343434333801,0.6024909019470215,3.1068492247081703,0.2336989074981839,1.4756699041722736,145.06511627906977,69.43023255813954,119.36285097192224,45.423326133909285,96.80990099009901,70.31287128712871,123.81086956521739,94.45,125.0,121.0,101.0,145.0,125.0,169.0,149.0,145.0
81,4.05,0.3442513942718506,-0.2533581256866455,1.8457953929901123,0.046317338943481445,-1.7983372211456299,0.4445531368255615,0.4411989450454712,0.3168186545372009,0.6022656559944153,3.105245926128807,0.23475272107230047,1.4740357785565392,145.06511627906977,69.43023255813954,119.37608695652175,45.49130434782609,96.86055776892431,70.40239043824701,123.87418655097613,94.4945770065076,125.0,121.0,101.0,145.0,125.0,169.0,149.0,145.0
82,4.1000000000000005,0.34677839279174805,-0.2529482841491699,1.846003770828247,0.0455784797668457,-1.799891710281372,0.44854044914245605,0.44069620966911316,0.3179045021533966,0.6020135879516602,3.1034947007080946,0.23595419982277688,1.4723855745460257,145.05854800936768,69.52459016393442,119.31140350877193,45.56140350877193,96.858,70.7,124.03679653679653,94.56060606060606,125.0,121.0,101.0,145.0,125.0,169.0,149.0,145.0
83,4.15,0.34898948669433594,-0.2525146007537842,1.845325231552124,0.04560422897338867,-1.8010828495025635,0.45189356803894043,0.44031065702438354,0.31889069080352783,0.6022632122039795,3.101955567745492,0.23679895075502233,1.471059139485229,145.01405152224825,69.65807962529274,119.35384615384615,45.79120879120879,96.94246031746032,70.86309523809524,124.15217391304348,94.73695652173913,125.0,121.0,101.0,145.0,125.0,169.0,149.0,145.0
84,4.2,0.3511176109313965,-0.2519865036010742,1.8447163105010986,0.0455317497253418,-1.8023083209991455,0.455075740814209,0.4399949312210083,0.3198516368865967,0.6024267673492432,3.1004977299222904,0.23770405957942567,1.4698367098528253,145.02375296912115,69.82422802850357,119.40305010893246,46.01525054466231,96.97609561752988,70.99003984063745,124.15800865800865,94.9069264069264,125.0,121.0,101.0,145.0,125.0,169.0,149.0,145.0
85,4.25,0.3534712791442871,-0.25150299072265625,1.8445379734039307,0.045237064361572266,-1.803772211074829,0.45854997634887695,0.43956902623176575,0.3208770751953125,0.6023502945899963,3.0990057739922507,0.2388766877378353,1.4685640997965135,144.99521531100478,69.94736842105263,119.35087719298245,46.21271929824562,96.99801587301587,71.08928571428571,124.14750542299349,94.93058568329718,125.0,121.0,101.0,145.0,125.0,169.0,149.0,145.0
86,4.3,0.3556506633758545,-0.25106215476989746,1.8444092273712158,0.045022010803222656,-1.8050739765167236,0.46192336082458496,0.43915727734565735,0.3218271732330322,0.6022517681121826,3.097682904811703,0.23993996006308843,1.4672442758555626,145.0071942446043,69.99520383693046,119.26695842450766,46.29540481400438,96.98997995991984,71.23246492985972,124.2156862745098,95.05882352941177,125.0,121.0,101.0,145.0,125.0,169.0,149.0,145.0
87,4.3500000000000005,0.35778355598449707,-0.2506890296936035,1.8442928791046143,0.04477810859680176,-1.8063633441925049,0.4651486873626709,0.4387297034263611,0.32274556159973145,0.6021832227706909,3.096316119589291,0.24095319800824008,1.4660090906418435,145.05263157894737,70.06698564593302,119.21633554083886,46.36644591611479,97.00602409638554,71.25301204819277,124.2156862745098,95.05882352941177,125.0,121.0,101.0,145.0,125.0,169.0,149.0,145.0
88,4.4,0.3596336841583252,-0.25045132637023926,1.8441746234893799,0.044631242752075195,-1.80745530128479,0.46819186210632324,0.43831244111061096,0.3235294222831726,0.6021732687950134,3.0950399773360004,0.24177481174967522,1.464676376520019,145.0071942446043,70.12230215827338,119.21507760532151,46.5410199556541,97.02434077079107,71.34482758620689,124.2582056892779,95.14660831509846,125.0,121.0,101.0,145.0,125.0,169.0,149.0,145.0
89,4.45,0.3615572452545166,-0.25006532669067383,1.8440220355987549,0.04445171356201172,-1.8085882663726807,0.4713006019592285,0.43794548511505127,0.32437029480934143,0.6021125316619873,3.093798188606095,0.24266169400225954,1.4633644487764557,145.0071942446043,70.12230215827338,119.22566371681415,46.56637168141593,97.04056795131847,71.48073022312373,124.27947598253274,95.20524017467248,125.0,121.0,101.0,145.0,125.0,169.0,149.0,145.0
90,4.5,0.3639836311340332,-0.24963688850402832,1.8439819812774658,0.04417061805725098,-1.8100764751434326,0.47488856315612793,0.43744537234306335,0.3254096508026123,0.6019707322120667,3.092313640345505,0.2438611515535202,1.4620561024130656,144.93509615384616,70.1514423076923,119.22321428571429,46.640625,97.0784708249497,71.62374245472837,124.35964912280701,95.33991228070175,125.0,121.0,101.0,145.0,125.0,169.0,149.0,145.0
91,4.55,0.3667111396789551,-0.249131441116333,1.8440568447113037,0.043631553649902344,-1.8118393421173096,0.4786043167114258,0.4369033873081207,0.3265741765499115,0.6017442345619202,3.090596269620105,0.24525982192723575,1.4608876369151407,144.9496402877698,70.3357314148681,119.20444444444445,46.74666666666667,97.03413654618474,71.76104417670683,124.39737991266375,95.37772925764192,125.0,121.0,101.0,145.0,125.0,169.0,149.0,145.0
92,4.6000000000000005,0.368807315826416,-0.24875140190124512,1.8435900211334229,0.04378914833068848,-1.8130223751068115,0.48174500465393066,0.4364762604236603,0.32748350501060486,0.601865828037262,3.08931415503745,0.246176373962843,1.4597093874989988,144.88942307692307,70.38461538461539,119.15280898876405,46.885393258426966,97.12877263581488,71.841046277666,124.41048034934498,95.41048034934498,125.0,121.0,101.0,145.0,125.0,169.0,149.0,145.0
93,4.65,0.3708374500274658,-0.24843573570251465,1.84334397315979,0.04375004768371582,-1.8142120838165283,0.4848344326019287,0.4360351860523224,0.3283500075340271,0.6018924713134766,3.0879987479462585,0.24707755641777523,1.458506638282434,144.83213429256594,70.50119904076739,119.14253393665159,47.05429864253394,97.15322580645162,71.90322580645162,124.40262582056893,95.43544857768053,125.0,121.0,101.0,145.0,125.0,169.0,149.0,145.0
94,4.7,0.37270569801330566,-0.24811315536499023,1.8431031703948975,0.04374814033508301,-1.8152668476104736,0.48782849311828613,0.43563878536224365,0.3291569948196411,0.6019046306610107,3.086811442992265,0.24788355615900057,1.45725744373883,144.81927710843374,70.52048192771085,119.07272727272728,47.097727272727276,97.1350806451613,71.9475806451613,124.43859649122807,95.48026315789474,125.0,121.0,101.0,145.0,125.0,169.0,149.0,145.0
95,4.75,0.3745086193084717,-0.24778246879577637,1.842780351638794,0.04376363754272461,-1.8162567615509033,0.49074625968933105,0.4352706968784332,0.32994499802589417,0.6019648909568787,3.0856166923934363,0.24860505940197672,1.456009609661699,144.82766990291262,70.62135922330097,119.04954954954955,47.252252252252255,97.19433198380567,72.03036437246963,124.47692307692307,95.55164835164835,125.0,121.0,101.0,145.0,125.0,169.0,149.0,145.0
96,4.800000000000001,0.376147985458374,-0.24751687049865723,1.8425638675689697,0.0437312126159668,-1.8171794414520264,0.49353504180908203,0.434915691614151,0.3306528329849243,0.6019905209541321,3.0844776165361805,0.24926633932982148,1.4547325303066554,144.8131067961165,70.67233009708738,119.0067264573991,47.34080717488789,97.21384928716904,72.12627291242363,124.48684210526316,95.57675438596492,125.0,121.0,101.0,145.0,125.0,169.0,149.0,145.0
97,4.8500000000000005,0.3777811527252197,-0.24728751182556152,1.8423688411712646,0.04371070861816406,-1.818086862564087,0.49633336067199707,0.4345411956310272,0.33135148882865906,0.6020198464393616,3.0833354042441745,0.24990865979808416,1.4534386640096764,144.74146341463415,70.71219512195123,118.99548532731377,47.43566591422122,97.17142857142858,72.26530612244898,124.47921225382932,95.60175054704595,125.0,121.0,101.0,145.0,125.0,169.0,149.0,145.0
98,4.9,0.3796570301055908,-0.24692964553833008,1.8419973850250244,0.04383969306945801,-1.8190581798553467,0.499347448348999,0.4341503381729126,0.3321763277053833,0.6020864248275757,3.0821940531648258,0.25063953625272456,1.4521832575016214,144.72058823529412,70.75490196078431,118.97742663656885,47.48306997742664,97.14959016393442,72.35655737704919,124.57768052516411,95.61269146608315,125.0,121.0,101.0,145.0,125.0,169.0,149.0,145.0
99,4.95,0.3813614845275879,-0.2464284896850586,1.841137170791626,0.04428553581237793,-1.8198354244232178,0.5021376609802246,0.43389323353767395,0.33297640085220337,0.6023702025413513,3.081175281092456,0.2511942098599814,1.4509893245276866,144.69117647058823,70.79166666666667,119.01357466063348,47.59049773755656,97.23770491803279,72.46926229508196,124.5934065934066,95.65494505494506,125.0,121.0,101.0,145.0,125.0,169.0,149.0,145.0
100,5.0,0.3831288814544678,-0.2458934783935547,1.8402884006500244,0.04471254348754883,-1.8206779956817627,0.5049974918365479,0.4336323142051697,0.33380454778671265,0.6026315689086914,3.0801268608624675,0.25181097164967703,1.4497887148183883,144.70197044334975,70.89162561576354,119.05720823798627,47.78032036613272,97.42299794661191,72.55236139630391,124.68805309734513,95.73672566371681,125.0,121.0,101.0,145.0,125.0,169.0,149.0,145.0
101,5.050000000000001,0.38451170921325684,-0.24545621871948242,1.8396289348602295,0.044966697692871094,-1.8214051723480225,0.5075032711029053,0.43344470858573914,0.3344544470310211,0.6028322577476501,3.079149891572938,0.2523060432493207,1.4485551039579971,144.72413793103448,70.94581280788178,119.00459770114942,47.94712643678161,97.43032786885246,72.70491803278688,124.70378619153675,95.79732739420935,125.0,121.0,101.0,145.0,125.0,169.0,149.0,145.0
102,5.1000000000000005,0.385967493057251,-0.24497509002685547,1.838939905166626,0.04528164863586426,-1.822155237197876,0.5100762844085693,0.43324998021125793,0.3351415991783142,0.6030242443084717,3.0782084508789436,0.2528501558218042,1.4473402084632028,144.65024630541873,71.01477832512315,119.0,48.0,97.50306748466258,72.78527607361963,124.76769911504425,95.96460176991151,125.0,121.0,101.0,145.0,125.0,169.0,149.0,145.0
103,5.15,0.38744139671325684,-0.24463462829589844,1.8385694026947021,0.0453031063079834,-1.8230183124542236,0.5126118659973145,0.4329834580421448,0.3357989192008972,0.6031079888343811,3.0771113311024902,0.2534359874846127,1.4461498316321943,144.66004962779155,71.13151364764268,118.93271461716937,48.067285382830626,97.51434426229508,72.92008196721312,124.78619153674833,96.06681514476615,125.0,121.0,101.0,145.0,125.0,169.0,149.0,145.0
104,5.2,0.3889174461364746,-0.24447345733642578,1.8383748531341553,0.04529094696044922,-1.8239023685455322,0.5151386260986328,0.4326217770576477,0.3364158570766449,0.6031716465950012,3.075968365334557,0.2540173070722637,1.4449584691530017,144.66004962779155,71.13151364764268,118.93563218390804,48.16551724137931,97.51329243353783,73.02249488752557,124.81473214285714,96.16294642857143,125.0,121.0,101.0,145.0,125.0,169.0,149.0,145.0
105,5.25,0.39068055152893066,-0.24420666694641113,1.8382017612457275,0.045228004455566406,-1.824981927871704,0.5179276466369629,0.432220458984375,0.3371621072292328,0.6031748056411743,3.074722387127846,0.25478465631197733,1.4437891426568774,144.59950248756218,71.17661691542288,118.8919540229885,48.301149425287356,97.45884773662551,73.11316872427983,124.81473214285714,96.16294642857143,125.0,121.0,101.0,145.0,125.0,169.0,149.0,145.0
106,5.300000000000001,0.3924887180328369,-0.243757963180542,1.8377506732940674,0.045358896255493164,-1.8259785175323486,0.520761251449585,0.43189164996147156,0.3379729390144348,0.6032470464706421,3.0735909517003708,0.2555215312490742,1.4426444037510118,144.58145363408522,71.24561403508773,118.88302752293578,48.41743119266055,97.5082304526749,73.22633744855968,124.84875846501129,96.22799097065463,125.0,121.0,101.0,145.0,125.0,169.0,149.0,145.0
107,5.3500000000000005,0.39429450035095215,-0.24333596229553223,1.8373634815216064,0.0454559326171875,-1.8269951343536377,0.5235879421234131,0.43154773116111755,0.33877381682395935,0.6032942533493042,3.0724485879840984,0.2562729021673927,1.4415030145148608,144.58145363408522,71.24561403508773,118.83833718244804,48.47806004618938,97.59710743801652,73.31818181818181,124.88208616780045,96.26984126984127,125.0,121.0,101.0,145.0,125.0,169.0,149.0,145.0
108,5.4,0.39609336853027344,-0.2430112361907959,1.8371565341949463,0.045379638671875,-1.8280723094940186,0.5263946056365967,0.4311615526676178,0.33954691886901855,0.6032909154891968,3.07119384789163,0.2570282481152735,1.4403494379318948,144.57142857142858,71.29573934837093,118.87759815242494,48.64434180138568,97.6701244813278,73.42116182572614,124.93227990970655,96.34988713318285,125.0,121.0,101.0,145.0,125.0,169.0,149.0,145.0
109,5.45,0.39792919158935547,-0.2425990104675293,1.836991548538208,0.04523110389709473,-1.8292200565338135,0.5292410850524902,0.430805504322052,0.34034669399261475,0.6032216548919678,3.0699384623728014,0.25786569391358294,1.4391995356337024,144.55137844611528,71.39348370927318,118.82638888888889,48.77777777777778,97.65762004175366,73.51148225469728,124.99774774774775,96.4481981981982,125.0,121.0,101.0,145.0,125.0,169.0,149.0,145.0
110,5.5,0.39958691596984863,-0.24215149879455566,1.8366591930389404,0.0452113151550293,-1.830211877822876,0.5318882465362549,0.4305230975151062,0.34109076857566833,0.6032299995422363,3.068809451741442,0.258576437964529,1.4380843523146618,144.58438287153652,71.59949622166246,118.85314685314685,48.85314685314685,97.6875,73.625,124.99097065462755,96.47404063205417,125.0,121.0,101.0,145.0,125.0,169.0,149.0,145.0
111,5.550000000000001,0.40111804008483887,-0.24194717407226562,1.8364546298980713,0.045323848724365234,-1.8311293125152588,0.5344996452331543,0.430144727230072,0.3417299687862396,0.6032662987709045,3.067737465471049,0.2592286166015403,1.436886376382303,144.48872180451127,71.6265664160401,118.80841121495327,48.94626168224299,97.69665271966527,73.6652719665272,124.99097065462755,96.47404063205417,125.0,121.0,101.0,145.0,125.0,169.0,149.0,145.0
112,5.6000000000000005,0.4025390148162842,-0.24169182777404785,1.8361713886260986,0.04542279243469238,-1.831935167312622,0.5370054244995117,0.42983049154281616,0.3423442542552948,0.6033270955085754,3.066712593244387,0.25977004116130037,1.4356851417739909,144.4256926952141,71.70277078085643,118.76046511627906,49.0,97.70649895178197,73.68972746331237,125.0,96.5,125.0,121.0,101.0,145.0,125.0,169.0,149.0,145.0
113,5.65,0.40380263328552246,-0.24149465560913086,1.8358886241912842,0.045508384704589844,-1.8326256275177002,0.5393722057342529,0.4295397102832794,0.34289005398750305,0.6034168601036072,3.065719179375123,0.2601820110034659,1.4344598296092907,144.41854636591478,71.75438596491227,118.7139534883721,49.05813953488372,97.7050209205021,73.76569037656904,124.97278911564626,96.5578231292517,125.0,121.0,101.0,145.0,125.0,169.0,149.0,145.0
114,5.7,0.40518736839294434,-0.24139118194580078,1.83579421043396,0.045510292053222656,-1.8334009647369385,0.5418915748596191,0.4291568398475647,0.34345874190330505,0.6034400463104248,3.0646466578290936,0.2606574868612382,1.4331948774908918,144.41854636591478,71.75438596491227,118.65116279069767,49.13488372093023,97.7223382045929,73.839248434238,124.97278911564626,96.5578231292517,125.0,121.0,101.0,145.0,125.0,169.0,149.0,145.0
115,5.75,0.4066026210784912,-0.2413032054901123,1.8357341289520264,0.04548525810241699,-1.8341848850250244,0.5444657802581787,0.4287555515766144,0.3440365493297577,0.6034502387046814,3.0635447661737008,0.26112867597217904,1.4319006603737052,144.367758186398,71.75566750629723,118.55737704918033,49.21077283372365,97.6881496881497,73.87525987525987,124.97278911564626,96.5578231292517,125.0,121.0,101.0,145.0,125.0,169.0,149.0,145.0
116,5.800000000000001,0.40798449516296387,-0.24112915992736816,1.8355271816253662,0.045507192611694336,-1.8348801136016846,0.5470051765441895,0.4284103810787201,0.34462836384773254,0.6035071611404419,3.062484446616476,0.26151634649769767,1.4306111276478104,144.367758186398,71.75566750629723,118.54332552693208,49.24590163934426,97.71933471933473,73.95634095634095,124.96818181818182,96.5840909090909,125.0,121.0,101.0,145.0,125.0,169.0,149.0,145.0
117,5.8500000000000005,0.409487247467041,-0.24100065231323242,1.8354194164276123,0.04546189308166504,-1.8356678485870361,0.5496857166290283,0.4280029237270355,0.34525418281555176,0.6035305261611938,3.06132212368082,0.26196106659543134,1.4292865796843182,144.3409090909091,71.76010101010101,118.4895104895105,49.29370629370629,97.67849686847599,74.08141962421712,125.0068493150685,96.61872146118722,125.0,121.0,101.0,145.0,125.0,169.0,149.0,145.0
118,5.9,0.41111040115356445,-0.24075746536254883,1.8350541591644287,0.0455775260925293,-1.8364660739898682,0.5524184703826904,0.42761650681495667,0.34595787525177,0.6036497950553894,3.0601529268965253,0.26241520388023537,1.4280315905334575,144.33417721518987,71.7873417721519,118.53255813953488,49.43255813953488,97.75313807531381,74.2071129707113,125.09817351598174,96.6917808219178,125.0,121.0,101.0,145.0,125.0,169.0,149.0,145.0
119,5.95,0.4127192497253418,-0.24039244651794434,1.8345634937286377,0.04572248458862305,-1.8372900485992432,0.555095911026001,0.4272995889186859,0.34668025374412537,0.6037870645523071,3.0590039997557152,0.2629046157173142,1.4268224789468145,144.33333333333334,71.83969465648855,118.52680652680652,49.61072261072261,97.83716075156576,74.36116910229646,125.11845102505694,96.71070615034168,125.0,121.0,101.0,145.0,125.0,169.0,149.0,145.0
120,6.0,0.41420555114746094,-0.24001407623291016,1.8340423107147217,0.04589557647705078,-1.838043451309204,0.5576469898223877,0.42702704668045044,0.34735792875289917,0.6039336919784546,3.057934264299946,0.26334666192330114,1.4256277325816085,144.40561224489795,71.9515306122449,118.54098360655738,49.7423887587822,97.86134453781513,74.41806722689076,125.14806378132118,96.749430523918,125.0,121.0,101.0,145.0,125.0,169.0,149.0,145.0
121,6.050000000000001,0.4156365394592285,-0.2396554946899414,1.833514928817749,0.04616808891296387,-1.8387620449066162,0.5602314472198486,0.42675280570983887,0.3480072319507599,0.6040840744972229,3.056935066162836,0.26379103624002215,1.4243614900118187,144.35549872122763,72.0076726342711,118.46099290780141,49.815602836879435,97.86638830897704,74.46972860125261,125.16247139588101,96.79862700228833,125.0,121.0,101.0,145.0,125.0,169.0,149.0,145.0
122,6.1000000000000005,0.4170055389404297,-0.23935747146606445,1.8330614566802979,0.04636716842651367,-1.8394343852996826,0.562751293182373,0.426469624042511,0.34862220287323,0.60422283411026,3.0559246791341135,0.26416699961282974,1.4230895419986689,144.3299232736573,72.05626598465473,118.44655581947744,49.902612826603324,97.82526315789474,74.58315789473684,125.27816091954023,96.9448275862069,125.0,121.0,101.0,145.0,125.0,169.0,149.0,145.0
123,6.15,0.4185338020324707,-0.2389063835144043,1.8324253559112549,0.046648263931274414,-1.8401954174041748,0.5653407573699951,0.4262133240699768,0.34933239221572876,0.6043976545333862,3.0548887684406827,0.26463731856498957,1.4219094451014904,144.35805626598466,72.1074168797954,118.472553699284,49.9928400954654,97.88818565400844,74.67510548523207,125.28074245939675,97.01624129930394,125.0,121.0,101.0,145.0,125.0,169.0,149.0,145.0
124,6.2,0.42020153999328613,-0.2385110855102539,1.8319833278656006,0.04683566093444824,-1.8410966396331787,0.5681147575378418,0.42587727308273315,0.3500756025314331,0.6044835448265076,3.0537595773904487,0.26522912658597564,1.4206780407604376,144.25,72.17268041237114,118.45584725536993,50.042959427207634,97.90677966101696,74.71398305084746,125.29930394431554,97.04408352668213,125.0,121.0,101.0,145.0,125.0,169.0,149.0,145.0
125,6.25,0.4217352867126465,-0.2381594181060791,1.831543207168579,0.046977996826171875,-1.8418991565704346,0.5707509517669678,0.4255674481391907,0.35076165199279785,0.6045936346054077,3.0526434560691076,0.2656991119999504,1.4194408962370877,144.26614987080103,72.29457364341086,118.39712918660287,50.13157894736842,97.91507430997876,74.73885350318471,125.32558139534883,97.03953488372093,125.0,121.0,101.0,145.0,125.0,169.0,149.0,145.0
126,6.300000000000001,0.42301034927368164,-0.23789191246032715,1.83103346824646,0.047234296798706055,-1.842505693435669,0.5731909275054932,0.42529767751693726,0.3513348400592804,0.6047794818878174,3.0516537974997986,0.26599580181009075,1.4181534605139778,144.29427083333334,72.375,118.31353919239905,50.220902612826606,98.00849256900213,74.88110403397027,125.34965034965035,97.05361305361305,125.0,121.0,101.0,145.0,125.0,169.0,149.0,145.0
127,6.3500000000000005,0.42409515380859375,-0.23781633377075195,1.8306443691253662,0.04745912551879883,-1.843022108078003,0.575432538986206,0.4249953627586365,0.3517909646034241,0.6049870252609253,3.0506771017954084,0.2661752145644168,1.4168627049485256,144.2976501305483,72.40469973890339,118.26746987951807,50.325301204819276,98.0828025477707,75.10615711252655,125.37762237762237,97.08857808857809,125.0,121.0,101.0,145.0,125.0,169.0,149.0,145.0
128,6.4,0.42516231536865234,-0.23780059814453125,1.830242395401001,0.04771232604980469,-1.843538522720337,0.5775806903839111,0.4246712625026703,0.3522266149520874,0.6052324175834656,3.049686022811375,0.2663370750096553,1.4156411880087216,144.22251308900525,72.41884816753927,118.28057553956835,50.513189448441246,98.04264392324095,75.2452025586354,125.39302325581396,97.18372093023255,125.0,121.0,101.0,145.0,125.0,169.0,149.0,145.0
129,6.45,0.42641663551330566,-0.2375655174255371,1.8296988010406494,0.048021793365478516,-1.8441250324249268,0.5798871517181396,0.4243902564048767,0.35278522968292236,0.6054514050483704,3.0487271253515487,0.2666150610734444,1.414468594251288,144.23237597911228,72.49608355091384,118.24819277108433,50.689156626506026,98.08528784648188,75.26226012793177,125.43488372093023,97.20697674418605,125.0,121.0,101.0,145.0,125.0,169.0,149.0,145.0
130,6.5,0.42747974395751953,-0.2372903823852539,1.8291118144989014,0.04834437370300293,-1.8445875644683838,0.5820484161376953,0.4241909086704254,0.35328176617622375,0.6056750416755676,3.047885424713897,0.26680456917549517,1.4132659631862843,144.2109375,72.51302083333333,118.24759615384616,50.71634615384615,98.11727078891258,75.30063965884861,125.47222222222223,97.24537037037037,125.0,121.0,101.0,145.0,125.0,169.0,149.0,145.0
131,6.550000000000001,0.428544282913208,-0.23701834678649902,1.8285210132598877,0.04863762855529785,-1.8450663089752197,0.5842201709747314,0.4239925742149353,0.35377785563468933,0.6059056520462036,3.0469992239249226,0.2669841401408812,1.4120442322281601,144.13947368421051,72.57894736842105,118.28019323671498,50.81884057971015,98.12903225806451,75.41290322580645,125.48372093023256,97.32558139534883,125.0,121.0,101.0,145.0,125.0,169.0,149.0,145.0
132,6.6000000000000005,0.4296863079071045,-0.23672771453857422,1.827958345413208,0.04891848564147949,-1.8455922603607178,0.5864651203155518,0.4237746596336365,0.35430634021759033,0.6061100363731384,3.046092906886583,0.2672126319456707,1.4108280200101186,144.1315789473684,72.61315789473684,118.23855421686747,50.87228915662651,98.14989293361884,75.4967880085653,125.55244755244755,97.36130536130536,125.0,121.0,101.0,145.0,125.0,169.0,149.0,145.0
133,6.65,0.4307706356048584,-0.2364208698272705,1.8272807598114014,0.04925680160522461,-1.8460752964019775,0.5886216163635254,0.4235883355140686,0.3548198342323303,0.6063762903213501,3.045199223598707,0.26738785003669624,1.4096394198163724,144.1233595800525,72.64041994750656,118.23300970873787,51.00728155339806,98.18064516129033,75.58494623655913,125.6767441860465,97.52790697674419,125.0,121.0,101.0,145.0,125.0,169.0,149.0,145.0
134,6.7,0.4319174289703369,-0.23602557182312012,1.8266184329986572,0.04950356483459473,-1.8466455936431885,0.5907907485961914,0.4234294295310974,0.35537290573120117,0.6065964102745056,3.0442609480890828,0.26763967993833393,1.4084953448466089,144.06068601583112,72.71240105540898,118.20048309178743,51.16425120772947,98.2034632034632,75.74025974025975,125.68705882352941,97.66117647058823,125.0,121.0,101.0,145.0,125.0,169.0,149.0,145.0
135,6.75,0.4331533908843994,-0.2356572151184082,1.826112985610962,0.049643754959106445,-1.8472883701324463,0.5930190086364746,0.42322343587875366,0.35595038533210754,0.6067380309104919,3.043282292000999,0.26795483704435313,1.4073791544691718,144.0395778364116,72.86807387862797,118.17433414043583,51.23728813559322,98.21475054229936,75.83947939262472,125.70685579196217,97.71394799054373,125.0,121.0,101.0,145.0,125.0,169.0,149.0,145.0
