,t,q_1,q_2,q_3,q_4,q_5,q_6,camera_x,camera_y,camera_z,camera_roll,camera_pitch,camera_yaw,f_1,f_2,f_3,f_4,f_5,f_6,f_7,f_8,desired_f_1,desired_f_2,desired_f_3,desired_f_4,desired_f_5,desired_f_6,desired_f_7,desired_f_8,noise_1,noise_2,noise_3,noise_4,noise_5,noise_6,noise_7,noise_8
0,0.0,9.361875081825843e-06,-0.3926333301083327,1.9634954084936185,7.252088425691028e-05,-1.5707955582218611,2.220446049250313e-15,0.4463258536086648,0.16906234102687412,0.592161801541222,-3.141307158888575,0.00012241039484984628,1.5708380808617421,151.05680171461992,65.33125101459177,130.46644834300866,44.09022942430376,99.61686642657749,65.28622076991928,130.1131175287212,96.15853308262624,149.0,145.0,125.0,121.0,101.0,145.0,125.0,169.0,-0.3559562591136578,-0.22597224994857068,5.046972687577952,4.509705079734469,0.18077620101356612,-0.2776890045168014,4.700359554987641,4.6013098180858965
1,0.05,-0.00012812959471997232,-0.3930843863292668,1.962806406048978,-0.0001985693489050533,-1.5706347336244972,-3.1807145997486685e-05,0.446234168107407,0.1690166280728354,0.5928624752729739,3.140463510785485,-3.946542470495891e-05,1.5707324102218092,151.68374820648629,65.9530759677361,130.43881999306006,39.776718177490864,104.6140204641673,65.71152848273947,125.59044531429973,92.04123942180776,149.0,145.0,125.0,121.0,101.0,145.0,125.0,169.0,0.3159321145322776,0.039282864287828435,4.938819993060053,-0.22328182250913808,5.114020464167295,-0.28847151726053366,0.16707366679014607,0.19258041797634876
2,0.1,0.001797779966004498,-0.394681753350405,1.9649190300002717,-0.0034215574865328335,-1.5719314894339123,0.0017453938028353377,0.4452873843224442,0.1697607654200612,0.5924924312316014,3.137748246970037,0.0012557269247435612,1.57087928493279,156.81797600021693,66.37027631720373,125.8866036326132,45.02972850713402,104.71961829296306,66.32041606925988,125.06088582007837,92.0412959164302,149.0,145.0,125.0,121.0,101.0,145.0,125.0,169.0,5.41874375453553,0.2244029966662954,0.45065716989808824,4.807931183998263,5.219618292963062,0.22463062864685188,-0.3931371684273667,0.024054537119847216
3,0.15000000000000002,0.0024913619529591813,-0.3930252113012105,1.9626029697622966,-0.002689672280533184,-1.5722691783785594,0.002407894443452907,0.44610569335288897,0.17004222485189585,0.5932471672094138,3.137826751448372,0.0015899897645400213,1.5709081795253885,151.1672402258876,66.30945111463843,130.4314737949305,46.360663411468124,99.73145165373283,66.91449309713148,125.50401602700265,92.312352307938,149.0,145.0,125.0,121.0,101.0,145.0,125.0,169.0,-0.21766543448977144,-0.19054888536156117,4.941870770355834,5.7236123717705825,0.16326983555102592,0.4144930971314795,0.004016027002655349,-0.07255335243935433
4,0.2,0.004507742985746077,-0.3910186937949489,1.9605070624279133,-0.002521357215166553,-1.5734593549219849,0.004318546317806593,0.44690513834888423,0.1708407287197841,0.5937583328437067,3.1379040604432213,0.0027745865511725697,1.5710098041676546,151.34674515280486,66.7886284168732,130.2902983371028,41.41495511946224,99.96880124639816,66.56840157415014,125.85288975201483,97.80195616291857,149.0,145.0,125.0,121.0,101.0,145.0,125.0,169.0,-0.0647933087335994,-0.044063890819120134,4.766306014645981,0.42071327685187887,0.3615215529115737,-0.2208704565012044,0.3424927765894925,5.16490512322103
5,0.25,0.006360463437284913,-0.3925284429380964,1.9610825322371808,-0.00425694482398864,-1.5745531847429168,0.006087256949657949,0.44600760015904567,0.17156946570738088,0.5942400845203017,3.1352113025875026,0.003846948499864741,1.5710812895795423,151.4097356018188,71.73123915815576,125.20850995875901,41.03970496407866,104.51716042022846,66.86461860780577,130.13941455168876,92.74802922812756,149.0,145.0,125.0,121.0,101.0,145.0,125.0,169.0,-0.018835826752630243,4.605756532673142,-0.3834440642294892,-0.31470116618954014,4.885682493165124,-0.19680173768366974,4.6067222439964555,-0.22312461802627048
6,0.30000000000000004,0.0028538131758462093,-0.3954422146346692,1.9634444075709325,-0.006358969894012745,-1.5724697774910075,0.0040901647141367015,0.4451985091189783,0.1701882503159934,0.5941579158060081,3.13256829479488,0.0017541976339962146,1.5695757721431849,150.97114949334926,67.46692588389053,125.50318319147893,46.82753665203575,99.8088555603603,67.53836933585326,130.62360151072005,93.1236194378297,149.0,145.0,125.0,121.0,101.0,145.0,125.0,169.0,-0.18522116302140226,0.013257930222565594,0.11901330730904609,5.0321698566689514,0.274635028040903,0.07258986817266058,5.169755356873882,-0.03214979293952913
7,0.35000000000000003,0.000870650169960463,-0.39468447199393797,1.9617658354159122,-0.005456774998877645,-1.5711307929268914,0.0023132525279083715,0.44595725349644255,0.16942360092442751,0.5948553621618333,3.1325653095350194,0.00042828986366971706,1.5693793978942232,150.83987000637245,67.25053016170439,125.27882862208965,47.23611200226292,99.85575251626283,67.61660878192572,125.394662076298,93.85037459361084,149.0,145.0,125.0,121.0,101.0,145.0,125.0,169.0,-0.34194817544573586,-0.40711007040393277,-0.17272176550724552,5.146964715441217,0.284323944834254,-0.2579085925916612,-0.07111739138259347,0.31615406129144924
8,0.4,0.001031505307305558,-0.39350065094020126,1.9601337527835705,-0.0051455602121937005,-1.5711348451180944,0.002437869268352877,0.4466167728370973,0.16950093542416217,0.595400487264852,3.132433379628342,0.0004364630262976697,1.5694177432519572,151.38984965969223,67.98674507182112,130.30419525131387,42.30467930697791,104.63005262731123,68.48680468599508,125.44704306386464,94.04964603721437,149.0,145.0,125.0,121.0,101.0,145.0,125.0,169.0,0.16222320054825998,-0.04438333284814378,4.934964482083095,-0.06455146225286111,5.022702530599438,0.4036325389931436,-0.052956936135354626,0.20022518779351572
9,0.45,0.003204242625431064,-0.39496612782292306,1.9622795000847857,-0.00842210732750548,-1.5725861098949983,0.004231292264202491,0.44569072381641145,0.17034292950490265,0.5949583645692841,3.1298218413416268,0.0018683283507397608,1.5697835682791736,151.3042723103649,68.77105652255682,125.21700607249302,42.79503055424924,99.64634314225887,67.9577866298734,125.66727308671653,99.23256553328048,149.0,145.0,125.0,121.0,101.0,145.0,125.0,169.0,0.09026452826372375,0.4909008805334712,-0.22571237410891898,0.03774900085118083,-0.049981809385235915,-0.32461182273782785,0.21535000979345786,5.232565533280486
10,0.5,0.003128926018717948,-0.3968693778220227,1.9627407301226798,-0.009530905149463198,-1.5724273272207787,0.004284983561631428,0.44487465259748515,0.170322188660051,0.5956178125775652,3.127263791307447,0.0016947068354178996,1.5696515779777747,150.64628715822357,69.03985560417843,130.2051335539363,47.842061603127746,105.06865941848605,68.58013041003055,130.304941820417,94.0050003043096,149.0,145.0,125.0,121.0,101.0,145.0,125.0,169.0,-0.4882157657530475,0.44531369384703445,4.713905483760852,4.775784800008835,5.239533204893823,-0.03540357055197213,4.804941820417027,-0.14557884626953685
11,0.55,0.0027521125956404546,-0.3976540105873001,1.964405524408531,-0.011901022893456403,-1.572333180983068,0.004072447616258579,0.4446476540287416,0.17015874677055537,0.5950884865551753,3.1257799037806424,0.001595286418083329,1.5694848877320866,151.69294278687568,68.59735884125203,125.18269530522026,48.41062608921281,99.57220607092994,68.81216921639253,125.68576146773877,94.3835164669429,149.0,145.0,125.0,121.0,101.0,145.0,125.0,169.0,0.586852413594713,-0.219929960319682,-0.2576178063257218,5.2345008445944154,-0.06787175008172866,-0.07304479138955834,0.18576146773877178,-0.11648353305710893
12,0.6000000000000001,0.0027235564013734503,-0.39589385077144756,1.961914497935255,-0.010822155559885971,-1.572182833365975,0.004098875855093276,0.4456150774928312,0.17016332143322419,0.5958784811328515,3.1261376821887055,0.0014454395205007167,1.5694318653898576,156.14615480794754,73.74151960103708,125.30984792946987,43.38103614030647,104.42087947413863,68.89675351542922,125.4764873494884,100.16788456047475,149.0,145.0,125.0,121.0,101.0,145.0,125.0,169.0,5.045761107160125,4.623409364816613,-0.16569023099980473,-0.35868988709079286,4.66793829766804,-0.289520994374695,-0.023512650511600716,5.268659754273206
13,0.65,0.001534660113140962,-0.39813365841739845,1.9624358526232166,-0.01177038513331441,-1.5714098096121827,0.004231918702529924,0.44479798659758507,0.16971004388728475,0.5966281715173289,3.1234640909975715,0.0006561795454674539,1.568119891590596,151.2636506452247,69.08810037454354,125.48113979041565,49.390136243481415,99.99468755482572,69.94233295220492,125.22225604700587,95.09862930127858,149.0,145.0,125.0,121.0,101.0,145.0,125.0,169.0,0.2421242264379809,-0.4246197820122351,0.14322230515042525,5.287975143284956,0.2079947955302083,0.304368177253851,-0.2534721083339409,0.0034836702106107037
14,0.7000000000000001,0.0020084734771850243,-0.39645066503933535,1.9603643079313624,-0.011160345657397208,-1.5715951321928587,0.004524540618782158,0.4456485030935113,0.16990763126442074,0.5972206133088516,3.12369062534597,0.0008398158717563085,1.568298660125963,150.84565616347376,69.36184031996777,125.4834739289479,49.47978956727497,99.90564031655025,69.52451956724498,125.18610392664598,95.41016554996875,149.0,145.0,125.0,121.0,101.0,145.0,125.0,169.0,-0.18984679510612665,-0.45472772736951644,0.1297189882364333,5.112200634468651,0.08583833635222851,-0.39825270998274925,-0.313896073354009,0.09499045269248127
15,0.75,0.002222890849350012,-0.3950450018952223,1.9585890969103499,-0.010743586972620456,-1.5716382006503933,0.00477916311092752,0.44640580235302,0.1700038368366909,0.5977539442369144,3.123743878522444,0.0008800994134593111,1.5682579527000577,151.26105252713293,70.14808182700213,125.6078966465881,49.75641272001958,99.8736500632063,70.17176575091273,125.68205799770156,101.04733166609903,149.0,145.0,125.0,121.0,101.0,145.0,125.0,169.0,0.22554956855306293,0.029738631735858757,0.23978641036763068,4.943420594035328,-0.03309596853973414,0.011051465198436543,0.16743811466063088,5.292945701186754
16,0.8,0.0024096039765035826,-0.39531597682485753,1.9579357618845101,-0.01107152200980277,-1.5716519462621044,0.004948598061047527,0.4463399415943799,0.170087338618758,0.5983595101586956,3.122485839262982,0.0008843902915731425,1.5682743988123178,150.89706841278425,70.3189564933125,130.518358607792,44.996312776347054,99.65726271004044,70.374032352318,130.54743743922742,95.93138993169188,149.0,145.0,125.0,121.0,101.0,145.0,125.0,169.0,-0.11673829333013756,-0.11102378282161435,5.103676068109465,-0.08503643000215422,-0.29763925074387726,-0.19655588297613377,5.034717282671649,-0.04708364952142713
17,0.8500000000000001,0.002338070919169155,-0.3956319307339111,1.95738228152842,-0.011473071774432686,-1.5715471445182256,0.004981018169734064,0.44629259579621083,0.17006605782990097,0.5989235244769289,3.1212122687484114,0.0007721142044979089,1.5681716112643918,151.03641492190303,70.95021506027828,125.35049930345048,50.357884725568695,104.93277207899263,70.30765135706054,125.16939651191275,101.29425588135102,149.0,145.0,125.0,121.0,101.0,145.0,125.0,169.0,-0.015172379684256995,0.19227855234176913,-0.09929989333667245,4.857884725568697,4.968557367263007,-0.5790285634166044,-0.37552536308724316,5.138005881351014
18,0.9,0.0024094525902329522,-0.39767393826844755,1.9598395081534976,-0.01442534305730403,-1.5716790023877056,0.005063512834805106,0.4453800000470166,0.17008391821877458,0.5984855275319698,3.118670327753831,0.0008905379412793698,1.5681565772430155,155.78702119416354,75.90745309914546,124.9883910428489,45.631810188277726,99.97896436780013,71.09880586555506,125.88297923952301,96.3788235073016,149.0,145.0,125.0,121.0,101.0,145.0,125.0,169.0,4.78702119416353,4.990621415977145,-0.392087044800509,-0.09528144518840882,-0.003178489342728132,0.033329675078868,0.31742150958171533,0.042228595364219544
19,0.9500000000000001,0.0007163574568789244,-0.3965813043709976,1.956363552745981,-0.012045548403909478,-1.5704417109275761,0.004990620172118376,0.446258611731251,0.1694516160884307,0.6001014289914232,3.1186783529124873,-0.0003500029029822725,1.5665620484935754,151.1216643664479,71.26576943186208,125.21043135760273,45.699665406306025,99.82273148678388,76.69586708765978,125.1770384122575,96.96393592902277,149.0,145.0,125.0,121.0,101.0,145.0,125.0,169.0,0.1972110861298002,-0.008584444877481938,-0.07213377265778716,-0.534803531569732,-0.17726851321612247,5.0549940717867665,-0.34350953294797576,0.11462086052960979
20,1.0,0.0029723993165924334,-0.39612195922695825,1.9554267304336506,-0.012528083897231479,-1.571676113116367,0.005452037777696539,0.4462460005083959,0.17034138166614401,0.6005911877950199,3.117712845395299,0.0008748138021892034,1.5683306920280802,156.40364212548405,71.81070678920517,126.13134022328461,46.55378111319717,100.020949266283,71.90443841827978,125.16222642054758,96.75772027800177,149.0,145.0,125.0,121.0,101.0,145.0,125.0,169.0,5.40364212548405,0.09813193890576447,0.5805272151545379,0.0029681050670802623,-0.10905073371699922,0.0864384182797878,-0.4780897849860109,-0.2501848603381491
21,1.05,0.003798238237072482,-0.3939128348226655,1.9512315900507735,-0.010082496264804064,-1.571940627165266,0.006298498498965799,0.44729918866150903,0.17069585047275035,0.602194579419114,3.118173954950582,0.0011227300042307752,1.568304586424779,150.7100265151022,72.24214888167552,130.42956794313852,46.81190758874321,99.5540116269469,72.17586093400442,125.88440399879431,97.4038143152972,149.0,145.0,125.0,121.0,101.0,145.0,125.0,169.0,-0.31416703328491913,0.18972952683681985,4.703209794245167,-0.21223728047208332,-0.6664292548166251,0.035580372882172785,0.09712765684600334,0.05987793358745241
22,1.1,0.005506580864789612,-0.3935947355526048,1.9504551470517848,-0.010767216962350723,-1.572952029981452,0.008045217119876824,0.44730545174145864,0.17137310485368776,0.6026610764794703,3.1170194608206914,0.00208518349259028,1.5682414691414945,151.18003652288755,72.23489009157348,125.54747508518003,47.16947466401733,100.55009661506195,77.21595773238279,126.39902470434495,97.43159857911363,149.0,145.0,125.0,121.0,101.0,145.0,125.0,169.0,0.14396437859898217,-0.017614918446571832,-0.12869599424970415,-0.19305079423113766,0.20324063128912084,4.741312701956829,0.616156178448532,-0.2875249268624758
23,1.1500000000000001,0.007207767324822978,-0.3932070304200903,1.949728158498952,-0.011310731074359204,-1.5738692150456917,0.008116922873261156,0.44733086095222746,0.1720448744158076,0.6030470003150955,3.116127578532016,0.0029948110063698955,1.5698467456567469,151.4704690947574,73.00290459283117,125.98661173663503,47.8418053734579,100.41199437755682,72.48018613379442,125.80493091916532,97.54725935554718,149.0,145.0,125.0,121.0,101.0,145.0,125.0,169.0,0.3497447486809298,0.26246193689556674,0.13763214479828545,0.20915231223341163,-0.11325814769569581,-0.1238542702459875,-0.07530860179276991,-0.3369721813789639
24,1.2000000000000002,0.007250920630779145,-0.3930225080686629,1.9488098654028052,-0.011452243926088013,-1.573813562371,0.008338166003080794,0.4475082568804119,0.1720701585854895,0.6036064117622498,3.1152528503380346,0.0029226231069446455,1.5696660106709557,151.44774623235492,73.2574176805992,125.90503699458199,47.91098914295328,100.69538307228889,72.99352282656763,125.94444483310707,103.37385008525241,149.0,145.0,125.0,121.0,101.0,145.0,125.0,169.0,0.3305745151831964,0.2574176805992008,0.016598860707738142,-0.04235771303049983,0.03138307228888294,0.037522826567624165,0.03262118581248654,5.2516055962744534
25,1.25,0.007496385655548998,-0.39484490955166596,1.949555647914158,-0.012835853891767446,-1.573890639595155,0.008528083578641432,0.4466666561140457,0.1721664954761754,0.6040716883487387,3.1127842132565733,0.0029719611771359183,1.5697123869499967,150.98985269911043,78.35375194319839,125.45670411670157,48.358251017262646,100.86336189118363,73.01956054953715,126.1077477648143,98.67094147780004,149.0,145.0,125.0,121.0,101.0,145.0,125.0,169.0,-0.07492462882477637,5.173589999878553,-0.4057188812450319,0.03792247516818613,0.1482103760321058,-0.21074248076588198,0.16174776481431327,0.38294147780005183
26,1.3,0.005441936215182075,-0.3958254046901448,1.9495769880485563,-0.01332003183452457,-1.5726143038501812,0.008200192416351282,0.4465809854962291,0.17136979852143328,0.6045451188576945,3.111353493546074,0.0016889084663175345,1.5680178543749332,155.90622436180212,73.48561753304217,125.80555871994012,53.920022022420326,100.23282641992674,73.29479430590925,126.41580338574373,103.65973646603318,149.0,145.0,125.0,121.0,101.0,145.0,125.0,169.0,4.957140858747126,-0.10501383151994594,0.10802785574259395,5.238952063572592,-0.36595158414658413,-0.3528635352312752,0.5643977632537719,4.87258787165567
27,1.35,0.005523784515451879,-0.3939714706391255,1.9457746346288651,-0.010965519445749639,-1.5724393414887308,0.008424600981238761,0.4475585142474861,0.17143141671070147,0.6060451820048156,3.1117687146441613,0.0015116820836644743,1.5678811741867833,155.90555391908137,78.97688907559433,125.70787975997146,49.20828637134221,100.62159091886302,73.64945983975414,126.03703772329143,104.15613812114138,149.0,145.0,125.0,121.0,101.0,145.0,125.0,169.0,4.940318745257228,5.060733656371423,-0.10154646953672529,0.10172899429303076,-0.18125460959226397,-0.3688328431726822,0.15420944046315033,5.156138121141385
28,1.4000000000000001,0.003951012225900552,-0.39448943648315327,1.9437346315401056,-0.009654098263009114,-1.5713123532871522,0.008540870875598294,0.44761180001268386,0.17084162256043556,0.6075234506583601,3.1105282235559377,0.00036924209350541385,1.5662249131695671,151.08199266903185,74.46761379639688,125.64226811061546,50.07827865262291,100.95934745075778,74.80889087190093,130.5598067054482,99.33843013294405,149.0,145.0,125.0,121.0,101.0,145.0,125.0,169.0,0.22572983535626495,0.19656656847080045,-0.005648556051199166,0.46994531928958194,0.28785984745198906,0.24070905371911128,4.677453764271753,0.03417049805561449
29,1.4500000000000002,0.002277155935886288,-0.39497332367928006,1.9433886394859208,-0.009775879445725444,-1.5702005635093181,0.00686169471941378,0.447696755804123,0.17019076703110755,0.6079865480416711,3.1095845735055265,-0.0006969833694932587,1.5662643209457079,150.41934658449568,74.7928896411306,130.7656025600577,55.035107467883684,100.67679295842981,79.70163687493478,125.99032085642558,99.59601796766911,149.0,145.0,125.0,121.0,101.0,145.0,125.0,169.0,-0.40539568354555144,0.2403123215429797,5.037386792422826,5.060003733443849,-0.09938773972212736,4.874121474524102,0.12853223853940265,-0.0848763412739835
30,1.5,0.005712817901935896,-0.3925668408515395,1.9416938056356488,-0.01011209232962118,-1.5722778968633113,0.008800591100014632,0.4484705231101854,0.1715483825307204,0.6081018033859003,3.109951562341372,0.0013325451589824508,1.5677007549404867,150.92568785865492,80.1886699152246,131.27675327485812,49.935828493757555,101.25797066232786,75.02026551263023,126.11688254499646,100.04715920717214,149.0,145.0,125.0,121.0,101.0,145.0,125.0,169.0,-0.03954731516921782,5.272514496001689,5.388554517094163,-0.18632471535217607,0.35838049839344505,0.044855676564644814,0.12501262629727442,0.1894356299363632
31,1.55,0.005677421873882871,-0.3931490209176953,1.9418820110757444,-0.01127090739539538,-1.5723291438592701,0.010487642519806162,0.4482878666470581,0.1715403022655323,0.6083657164452663,3.108391993467269,0.0013126660255751888,1.565975337251867,151.01791513087062,80.30035980149421,130.7559015470534,55.104603482454415,100.85179298656098,75.37976894404346,130.74580313805473,99.88180409385494,149.0,145.0,125.0,121.0,101.0,145.0,125.0,169.0,0.11237098302666876,5.2510784873258265,5.023124929099334,4.628611833185104,0.05591669790118563,0.0952328615692234,4.8089395942665405,-0.1650390833344738
32,1.6,0.003613101047986511,-0.3923348459866087,1.9405426903933245,-0.010733229787995402,-1.5710873515207124,0.010281731519726556,0.449077167941732,0.1707337419589758,0.6088503480350898,3.10842051248824,7.031503471841921e-05,1.5641541047881744,150.32869600517031,74.7784411037964,125.2048044024328,50.758709268890996,100.92065495300938,75.18961962140571,131.10072596706053,105.51529445191757,149.0,145.0,125.0,121.0,101.0,145.0,125.0,169.0,-0.33590026812159873,-0.5362586891642749,-0.2951955975672031,-0.021881448408580407,0.29617362520854273,-0.45353390556523154,5.274550097939862,5.1594662310586745
33,1.6500000000000001,0.0017335693849918066,-0.3951147114448359,1.942191780281843,-0.012272903901620946,-1.5698675025487532,0.008268194086613168,0.4480580684655975,0.16999326763637757,0.6091450843718919,3.105750402552039,-0.0011066254259345775,1.5643303052942572,150.64972424011285,75.40354752880671,125.36578293761966,55.832772778324745,100.24744423799788,75.77941281514228,125.89226108133771,100.65528762668046,149.0,145.0,125.0,121.0,101.0,145.0,125.0,169.0,-0.02042189767420842,-0.19144203277993121,-0.13421706238034745,4.646332100358644,-0.5170185719194755,-0.16066982948582625,0.08283485182952341,0.03028762668045914
34,1.7000000000000002,0.0016937240450505264,-0.39354224595173193,1.9404079461488033,-0.011729562329677368,-1.5697633312682155,0.008216552819001688,0.44891996803629813,0.1699902334383398,0.6095930166356018,3.106089924949077,-0.0012017529567954692,1.5643467705996958,151.137796553327,76.01923900041989,125.79328696820512,51.610458870075156,100.76597934459981,76.48395109758268,130.9463943711279,101.2967260612465,149.0,145.0,125.0,121.0,101.0,145.0,125.0,169.0,0.4311849830790826,0.15560263678352332,0.24591854715248626,0.1936167648119995,-0.04226807808059951,0.30869336562391403,5.052516820107484,0.38244034696079277
35,1.75,-1.756672061592468e-05,-0.39411574005709493,1.940038392692614,-0.011774514709466999,-1.5686187676524685,0.006451310567365809,0.4489628353857428,0.16932343378981815,0.6101043955016212,3.105107900105825,-0.0022908993951220825,1.5644417942462892,151.3316231899253,76.42188070356289,125.34118119190865,51.555704625316025,100.83522793868795,76.77106443711315,130.94142303593463,101.18428013434193,149.0,145.0,125.0,121.0,101.0,145.0,125.0,169.0,0.65453985659196,0.24479737022955728,-0.1989031962769943,-0.14260761097088884,0.09356127202128942,0.2710644371131577,5.053897473562454,0.1372453695157522
36,1.8,-0.0019151533860566339,-0.3946577482752862,1.9395675603561253,-0.011688055280838938,-1.5673513946455113,0.004533131839165705,0.44904113339806995,0.16858360757521304,0.610657933231936,3.1041800021452537,-0.0034937757603645827,1.5645098912310837,150.79225700261935,76.61777038313791,125.60831860238623,52.28108054099542,105.82657768061873,76.60920341318469,125.75642331090313,106.48996079081743,149.0,145.0,125.0,121.0,101.0,145.0,125.0,169.0,0.194340335952692,0.2323537164712338,0.10831860238623102,0.2810805409954171,5.019046299865591,-0.12510621024626797,-0.10599968704347223,5.169632248722969
37,1.85,-0.0017302566472765513,-0.3983488166295901,1.9437210431682965,-0.015906473538516597,-1.5675956790110517,0.004455247653109229,0.44729415312657383,0.16864895622675669,0.6099484798542342,3.1004114255151034,-0.0032573968676390566,1.5647793806238834,150.8752255257826,81.32390246981424,125.75641429570987,57.1083440382963,105.48692016620724,82.0531997301746,125.75691616172594,106.2909111980586,149.0,145.0,125.0,121.0,101.0,145.0,125.0,169.0,0.20715829889183515,4.7776839824192905,0.23624444432983177,4.853566968232608,4.627706915689645,5.138085858538986,-0.05881882792210159,4.802298361619676
38,1.9000000000000001,-0.00133667018518846,-0.400006712569803,1.9461686724756886,-0.018832261953461327,-1.567940884025501,0.004441309264628934,0.44651382606196643,0.1687939915664242,0.6093425733570478,3.098274154130964,-0.002917637680217109,1.5651806173695706,150.3590055204981,76.28990451623078,125.86289020163741,52.31826698417874,100.87234777479891,81.81763557117438,126.12706774573452,101.36535246074595,149.0,145.0,125.0,121.0,101.0,145.0,125.0,169.0,-0.23974707825450273,-0.3504281241018731,0.25437956333954,-0.10088195199146537,0.0009784801931023988,4.794813994410888,0.29749895723349634,-0.2753046234429684
39,1.9500000000000002,0.00066084945990319,-0.399542249442681,1.9457974093078017,-0.0197151703688756,-1.5690737163647732,0.004614084605513824,0.4465366917880986,0.16957377915508468,0.6094875598022204,3.097486771562139,-0.0017940218218656125,1.5669588318104608,150.500965557656,76.89291132556689,125.39694338781963,57.66233860771064,106.17193509214728,81.87087895884474,126.10913106313863,101.66855971068888,149.0,145.0,125.0,121.0,101.0,145.0,125.0,169.0,-0.30234707174357905,-0.07396238043724691,-0.30644644268883536,5.079711489066569,5.258891613886401,4.738373782861295,0.1561658279648134,-0.21896585168330227
40,2.0,0.002232787196500663,-0.39937380644161546,1.9473404340164775,-0.022250487873562985,-1.5701288187649638,0.00444558542253759,0.4464858994837578,0.1701681634166019,0.6086415050287776,3.0966626029129762,-0.0007345229670436829,1.5686536276411207,150.57653362189026,81.69567565754801,126.21452050702868,58.084280640107046,101.21347337595779,82.23758490468956,126.46312681080032,102.1348415627216,149.0,145.0,125.0,121.0,101.0,145.0,125.0,169.0,-0.3530730033685296,4.650127003303707,0.3185544773046811,5.489800809958425,0.22382534283149214,5.111290908830334,0.4856677944068747,0.19631697255766836
41,2.0500000000000003,0.0022867691604497864,-0.3977968918087136,1.9459057588064885,-0.021993279387529707,-1.570122109571197,0.0044175283343999006,0.447333921614677,0.17019100877580665,0.6088867741064046,3.0970673377229403,-0.0007425393645506024,1.5687333221810753,150.99342428576438,77.29797491346713,125.57028840867449,57.553650494422854,100.86081317391117,77.3175914207605,126.00995014019728,102.2515693054196,149.0,145.0,125.0,121.0,101.0,145.0,125.0,169.0,0.13538670747626322,0.011962387371101469,-0.3305554731820573,4.754072435351127,-0.12451177367792485,-0.09121361068605473,0.04471496637314788,0.16772472464250235
42,2.1,0.002182700033339202,-0.3962417618320728,1.9441924601515188,-0.021482498606094413,-1.569994324134516,0.004397722308980612,0.44819474637839296,0.17015626871987022,0.6093036500154566,3.0974228356822873,-0.0008706948039825801,1.5686529871256045,151.07733766726102,77.68427999023574,130.54677902791678,53.398893094034555,100.9009596108496,82.53137965699092,125.85609324176106,102.15313583906573,149.0,145.0,125.0,121.0,101.0,145.0,125.0,169.0,0.1879848488894217,0.17279773553845038,4.643417683378974,0.23922922848833414,-0.1053429101588171,4.915833438503526,-0.10078560834160398,-0.1795130315708147
43,2.15,0.005645020251237476,-0.3950403912943412,1.9432606222547246,-0.022316737663070185,-1.5720746077009684,0.006307902821924838,0.44836201622775146,0.17152058244568136,0.6095032263563889,3.096843287463505,0.001127172987159689,1.5701182957668929,155.69812337474409,77.38130908724516,125.89615357799661,53.598151934246616,101.37524113649106,77.93559882147646,126.27146110289581,107.73364728175667,149.0,145.0,125.0,121.0,101.0,145.0,125.0,169.0,4.698123374744076,-0.4140980108759313,-0.14852727306721286,0.23857746616150652,0.255158320756061,0.10537107820523134,0.14956027644952896,5.200589430516993
44,2.2,0.006207286428306702,-0.39498931120058467,1.9413375346870678,-0.02147039151842023,-1.5722320978456024,0.006616312237321509,0.4483680167452961,0.17175868965692606,0.6107057959374305,3.0958099310815728,0.0012606607950482887,1.5703633919174422,150.82699391179213,78.54166061572953,126.56685335628062,53.899740874086255,106.3991987295628,82.89825768074103,131.54326436109707,107.93313511796387,149.0,145.0,125.0,121.0,101.0,145.0,125.0,169.0,-0.1646900798918632,0.4335525076214089,0.4493319887592482,0.23093745528283333,5.116179861638272,4.709578435458012,5.444498928998325,5.038073389568807
45,2.25,0.0060583190434226886,-0.39888682302739387,1.9457524517947231,-0.02564568339305362,-1.5722322762006398,0.00486300414186891,0.4465517492163323,0.17166389536816043,0.6099080997706312,3.0921431041604173,0.0013199186717685408,1.5719607686968071,150.72854553930296,78.40842100596863,130.94831563148213,53.5907878946606,101.20261161308436,77.77847321690298,126.0328861988601,103.34184201054553,149.0,145.0,125.0,121.0,101.0,145.0,125.0,169.0,-0.3071687464113192,0.06598403117871803,4.717052248184474,-0.18865536015738635,-0.12091779868034862,-0.46102258141635016,-0.06156965329596531,0.39112332471391675
46,2.3000000000000003,0.007556680096054258,-0.39903748928153293,1.945861109794321,-0.02698208697797222,-1.5731853607608004,0.006600698335422983,0.44634949254719525,0.17225174421486925,0.6100520304546435,3.090760224244873,0.0021795071748843798,1.5716744705808672,151.10640624882592,83.62546783603251,130.94877491122546,54.14661235243216,101.20352748271901,78.40556799571702,126.13436179383609,103.4256928176608,149.0,145.0,125.0,121.0,101.0,145.0,125.0,169.0,0.06438944210321808,5.119165315024106,4.691264181611729,-0.07656361323307342,-0.12136703204892316,-0.052237911455978364,0.011158508415143336,0.3127564726916016
47,2.35,0.007327763673945498,-0.3993908798696646,1.9457799198025132,-0.02783811631071398,-1.573111490383794,0.008156309613364332,0.4463040970647734,0.1721668301739934,0.6103594730032949,3.0894718653938638,0.002013396551459432,1.5698917252139493,151.05290927391246,79.24769234359646,130.87507830139126,59.35503072784722,106.18783028655308,78.62515754545474,126.30417671220098,103.30446702836721,149.0,145.0,125.0,121.0,101.0,145.0,125.0,169.0,0.0782257296086751,0.5240636516133302,4.799809484186953,4.912019975159044,4.914146076026762,-0.09905298086105284,0.17554600680679192,-0.13121761893569622
48,2.4000000000000004,0.008582170343987894,-0.3992910196779733,1.9472346220559045,-0.030402814498554864,-1.5740812846529622,0.009600911340919893,0.446271573285567,0.17264187838267178,0.6096085528904115,3.0884533287459477,0.0028992064987056936,1.5696508983021837,150.91740102754807,83.98337910526466,126.34327103038086,54.303770860199194,100.96369859462655,78.80058692516192,125.59003511036853,103.426204765918,149.0,145.0,125.0,121.0,101.0,145.0,125.0,169.0,-0.03270292255585997,5.033275155160704,0.29391480720490254,-0.25846089945746287,-0.1654680720401067,-0.09732974150473019,-0.5155549517432726,-0.12659026513788815
49,2.45,0.0070267162690256235,-0.39985800004857186,1.9470599282579117,-0.03081122409698267,-1.57313213277415,0.009767486586177654,0.4463056805087894,0.17204043329356025,0.6100262108866693,3.087310905223051,0.0019258848081140894,1.5679751885005473,155.64940788456252,79.2974075543228,126.10090473927953,55.12435350847493,101.63737134492516,79.18244764630036,130.93721046800206,103.93963110060585,149.0,145.0,125.0,121.0,101.0,145.0,125.0,169.0,4.839281302284046,0.08643709018778309,0.17996456833935956,0.31025094437237094,0.49572229629936326,-0.12199209999986053,4.937210468002068,-0.011087585225762257
50,2.5,0.0054942608222483535,-0.3986160255069642,1.9440350518116132,-0.02866524808752846,-1.5720005979112788,0.008378635063909456,0.44720170168148266,0.17145968644883908,0.6112953175898196,3.087689269894629,0.0008698481424565385,1.5678890492693218,151.03901476745875,79.8577411696103,130.74324385757143,55.11622815593956,105.99851638771486,79.38717304714483,125.68652164477346,109.03591636968382,149.0,145.0,125.0,121.0,101.0,145.0,125.0,169.0,0.3174957801169832,0.3682896928170638,4.818512674775722,-0.22785786556581494,4.824787574155537,-0.19121678336363931,-0.33816971325123535,4.980360814128265
51,2.5500000000000003,0.007184853072278674,-0.401965487790811,1.9481843615351684,-0.03327912060346572,-1.5732438992325193,0.010005301086103646,0.445402192395421,0.17209811779311268,0.6104822767926156,3.0838490191554038,0.001993725551167944,1.567885793686594,150.71515601003927,79.73448873271647,130.60413704281152,55.93647992875186,101.19056483864698,79.6259342720013,126.12341203637423,104.37462234154042,149.0,145.0,125.0,121.0,101.0,145.0,125.0,169.0,-0.02324061443332093,0.12478409136626425,4.668931859226196,0.45915811449699734,0.05314411983090881,-0.06962598169847437,0.07382525951473269,0.1452834985652022
52,2.6,0.008680807733378426,-0.40165227159529326,1.947929350358323,-0.034310517603475255,-1.5741844288603906,0.011610613149744431,0.44542195340987184,0.17268707853069548,0.6106351117415721,3.082864460948382,0.0028317629718592023,1.5677234382198681,150.70957692743113,79.4282726083624,130.8118294367883,55.42164823206429,100.85057314898869,85.2980588798287,126.09545736258487,109.74431343387555,149.0,145.0,125.0,121.0,101.0,145.0,125.0,169.0,-0.016537722250415592,-0.3615363088350444,4.861185659964252,-0.2392959739442919,-0.301005798379736,5.3191115114076535,0.057800458819174075,5.2443134338755435
53,2.6500000000000004,0.012536464306673434,-0.4025685369190417,1.9488098992476361,-0.03650846128437246,-1.576511656454331,0.013460597780414307,0.4444781813204447,0.1741808952576387,0.6106990850030539,3.080592482368686,0.00502020554424305,1.569587022574236,150.59003499082166,80.13717993797725,125.89862181616651,60.52752236144735,101.36524731064073,79.82461319435126,131.19063588338003,104.54283092442273,149.0,145.0,125.0,121.0,101.0,145.0,125.0,169.0,-0.2770536167732677,-0.059022593668310815,-0.31007383600740934,4.653609317969093,-0.05301171271383578,-0.3112679096827149,4.998969216713369,-0.05716907557726444
54,2.7,0.010480743714922358,-0.4018576984041955,1.947852588998395,-0.03609615510068398,-1.5752011674465178,0.011634342136562559,0.4452082799580661,0.17338165933474853,0.6109835121877202,3.0807912478002493,0.003815261623975862,1.569429456085292,155.7798678811452,80.59342614880886,126.20361063766461,56.69749783993419,100.95141886546453,80.37566659984962,131.16510862843668,104.91412388053865,149.0,145.0,125.0,121.0,101.0,145.0,125.0,169.0,4.911782774762241,0.25300061689396924,0.07100194201243286,0.4670630573254893,-0.3698577302801448,0.0011985147432368509,5.057670611907741,0.011231318555174417
55,2.75,0.008914073951470591,-0.4000977160507557,1.9441194212377466,-0.03334604033799371,-1.5740202806068764,0.01027948223316022,0.446363434950217,0.1727942807572607,0.6124368020557084,3.0815922670008,0.0027201143360834246,1.5692854273478944,150.87833889280822,80.53349880798974,126.04112130758053,56.22969621617318,101.22334803142205,80.57133708511924,130.69124575945492,104.92860581131197,149.0,145.0,125.0,121.0,101.0,145.0,125.0,169.0,0.0339892126376309,-0.05925172505930129,-0.06998980353059572,-0.2953582500577557,-0.18564554459507202,-0.10532244378868251,4.571162943719937,-0.24116644541680432
56,2.8000000000000003,0.007314566950095802,-0.40083415387853405,1.944235975724852,-0.0338078391269816,-1.5729896406240886,0.00869794176506522,0.4463058305407464,0.17217067893729673,0.6127381779125215,3.0805190530974706,0.0017772009107546913,1.569325172690444,155.81727465435225,81.14175066536237,125.67145055331902,56.550651865274524,101.77961448329476,80.97833065462648,131.4429751535864,105.12610794660365,149.0,145.0,125.0,121.0,101.0,145.0,125.0,169.0,5.048043885121476,0.3361951098068054,-0.4418392070295589,-0.2009821216535841,0.3043456660904661,0.038545708389911344,5.26268165253818,-0.3015650093711827
57,2.85,0.0055128377271027595,-0.39959465652135595,1.941147618081228,-0.031516660001527086,-1.5716847437138242,0.007032979479500767,0.44723162525056,0.17148915189906522,0.6140350780196702,3.0809755247274007,0.0005788211776164034,1.5692647153016612,151.12691933400794,86.50375061120073,126.21422598412678,57.4773447415941,106.60184393037865,86.43776730994419,126.22515734439813,105.59955987381967,149.0,145.0,125.0,121.0,101.0,145.0,125.0,169.0,0.3367694410743169,5.22109536494805,0.06324130141344775,0.24977362562036728,5.049155758335638,5.149595266933441,0.04831523913496807,-0.061492757759275735
58,2.9000000000000004,0.005676997963444119,-0.4014971155218672,1.9441933785461032,-0.03490302693985825,-1.5719512925238641,0.0069527832060187755,0.44636237737262185,0.17153466082025837,0.613186183862964,3.078725310960627,0.000839937961157036,1.5694940101484203,150.7743478389327,81.28777095544206,125.9677385954064,57.543243896557975,101.46903771821408,81.34996617274983,125.95346366921352,105.84821506851318,149.0,145.0,125.0,121.0,101.0,145.0,125.0,169.0,0.015286005244002102,-0.08109898059205867,-0.13683656799228494,0.157622981525295,0.005675649248565729,-0.06382693069843458,-0.16736966411981832,0.04404840184652675
59,2.95,0.0058185065837008665,-0.40156124863350096,1.9440963725278344,-0.035663793300205526,-1.572013638114849,0.0070537529712693114,0.44638647177619745,0.17159525254158273,0.6133680803860333,3.0778025053575426,0.0008915717531058181,1.5695311671605026,156.1271552229081,86.40028569803793,131.1290399052977,57.536061851460005,101.432157044027,86.8599544132873,126.52905320258729,111.05803262240613,149.0,145.0,125.0,121.0,101.0,145.0,125.0,169.0,5.3310178838522955,4.893847929797591,5.017928794186598,0.011007385229073088,-0.04096123554289678,5.229846886405586,0.4793637615935104,5.058032622406135
60,3.0,0.00791741101041854,-0.40050590193964464,1.9413978365927589,-0.034539967951713546,-1.5731587357904688,0.009041110693698506,0.44665413599384773,0.17243809612779967,0.6146216657722365,3.0772721063849406,0.0019054309243662119,1.5695740848258233,150.6902177330406,86.72533190585364,126.2644692050099,58.375251918347956,101.63292797946377,86.77367276298833,126.0405048793074,111.12717179771879,149.0,145.0,125.0,121.0,101.0,145.0,125.0,169.0,0.017728650071177337,4.882537146028308,-0.009472888531299234,0.43538554863749274,0.08314442968022129,4.877568866884437,-0.20211115444785943,4.8086063968749135
61,3.0500000000000003,0.008228368369330497,-0.402265444386376,1.9427739580232375,-0.03638617244474407,-1.5733460368119863,0.009191352215769388,0.4458121740038962,0.17255251917850756,0.6146795550782299,3.0750348423694445,0.0020609775168750227,1.5697186876369666,150.808844668746,81.98085633125362,126.63693599502784,62.864544286564325,106.86756954614188,81.84586986616603,126.06526069236095,111.08503458218449,149.0,145.0,125.0,121.0,101.0,145.0,125.0,169.0,0.1084136342632173,-0.16785056529810494,0.3391582172500621,4.731210953230994,5.280613024402761,-0.2932605686165882,-0.23009795742807232,4.667313063197154
62,3.1,0.00840445715579552,-0.4048130347683587,1.9466497738516857,-0.0404610746915024,-1.5736578349158092,0.009208832576671266,0.4446285880454485,0.1725890828783793,0.6136258795291719,3.0722821082863625,0.0023448769338861196,1.5698503773171535,150.795664018416,82.25284139361686,125.74699180958568,57.979085685169245,101.25981418215817,82.62543085722425,126.74459873617998,106.6315102423256,149.0,145.0,125.0,121.0,101.0,145.0,125.0,169.0,0.06937091496772525,0.007151738444444322,-0.5434738223433697,-0.29807617735846526,-0.31161438927040985,0.40248713428051475,0.5139907697229577,0.07176181465264811
63,3.1500000000000004,0.008309341944253035,-0.40500148204172914,1.9465450867006124,-0.041116377925281,-1.5735587243475777,0.008969632135323202,0.44462576432932777,0.172553281756887,0.6138542734669105,3.071339794724471,0.0022522004624126054,1.5699976609136614,150.96445964838415,82.84471351330367,126.6754835945466,58.27562338249394,106.35412531046525,82.16609981812219,126.65111432564275,111.61366386761901,149.0,145.0,125.0,121.0,101.0,145.0,125.0,169.0,0.13256309666003027,0.4222997202002307,0.4596245637095982,-0.22437661750606033,4.749373690594842,-0.2399476980765077,0.4347277710209007,4.909882355013962
64,3.2,0.008295966910924157,-0.40915130096058006,1.951431495490552,-0.04585764722518171,-1.5737427907622399,0.008851801251710256,0.4426790355032177,0.17251177765190734,0.6128954022361327,3.067324331831246,0.0024080812533953462,1.5700804151986665,150.87548459010577,82.54151675165812,126.30989972360037,58.35784515144582,106.67880466791902,82.59058109890007,126.12814241470026,106.96479577985714,149.0,145.0,125.0,121.0,101.0,145.0,125.0,169.0,0.13418024227967387,0.0023863168755208024,0.1090167213928688,-0.2536338772517485,5.14216673688455,0.004374202348346522,0.036475748033599965,0.07521244652380159
65,3.25,0.008531303205793872,-0.41153015853587416,1.9550136929403257,-0.04971281880235834,-1.5740686291034596,0.008809820205348817,0.4415707068250856,0.17257423947626369,0.6119342817301245,3.0646687099802037,0.0027133620539273253,1.5703270499159683,150.90566975478245,87.45253667920177,126.81994385660684,58.6517702035351,106.46905503094078,82.54969980012476,126.1011458912345,106.73753651516402,149.0,145.0,125.0,121.0,101.0,145.0,125.0,169.0,0.15458750370020724,4.803186029851115,0.5783331183518097,-0.17149601570427175,4.930093991979739,-0.07584132541636865,0.051456450240703985,-0.2624634848359745
66,3.3000000000000003,0.0071855770044702005,-0.41426033164831777,1.9586636162957207,-0.05336039573439422,-1.5734785940317737,0.00881775770598825,0.44052983444802196,0.17202806413510274,0.6110512670940119,3.0619479353193193,0.0020965438588629657,1.5690116403155612,150.37298476639813,82.50022771341443,125.66572280443125,59.205543144999886,101.686255784992,82.55255540513502,126.00664030231371,112.55154830078814,149.0,145.0,125.0,121.0,101.0,145.0,125.0,169.0,-0.19875436403666755,-0.3280331561507752,-0.2606164812830388,0.2457217164284526,0.2579949154267717,-0.2757054644301853,0.006640302313711572,5.397702146941983
67,3.35,0.007250169404585449,-0.41675877381182946,1.9608301997262094,-0.05580887641409271,-1.5735403976418896,0.008747971061477067,0.43937091586888855,0.17204133655796608,0.6109491084588814,3.0591634954054436,0.0021389437048280496,1.5691356329943416,150.6492435444319,83.03710277250845,126.08778101770629,64.07630433743584,101.54594022972552,82.95286375078959,125.52054913561588,112.20661851387544,149.0,145.0,125.0,121.0,101.0,145.0,125.0,169.0,0.07500773657165427,0.02400233582722395,0.1145667319919974,4.924518623150128,0.1189249791808677,-0.08635193548492992,-0.5026087591209532,4.8024079875596515
68,3.4000000000000004,0.007438314505024302,-0.4170675614029924,1.9610780187087915,-0.056828222086453106,-1.5736558423275806,0.009008609708566429,0.4392679298968175,0.1721144697398705,0.6110301663139833,3.058086689213403,0.002223566811116914,1.5690523418856803,150.20802025413298,88.54523274630365,125.85858271854661,59.46404213297264,101.8963475737903,83.42805390327251,130.76176057099025,108.19879724393282,149.0,145.0,125.0,121.0,101.0,145.0,125.0,169.0,-0.4006753980409329,5.2669718767384435,-0.14141728145338026,-0.035957867027365815,0.5254148189095976,0.1330430572855306,4.7197437642675615,0.6693854792269383
69,3.45,0.003895998303599768,-0.41930159593070826,1.9627730710519948,-0.05820820775668789,-1.5715518491865819,0.00714097516848522,0.4387709701645336,0.1707464938810793,0.6110009090711692,3.0561878080126075,0.00026116993914968706,1.5675428010903332,155.51507933837976,83.05062417077079,130.66954061679544,65.08113503820212,101.22741029433537,83.71026925712764,125.80215949464218,107.90386545333727,149.0,145.0,125.0,121.0,101.0,145.0,125.0,169.0,5.076901464193217,-0.35284654506435353,4.976028312544877,5.360777096367677,-0.004693827139693313,0.17013910528381798,-0.11607949906851085,0.1344734197942987
70,3.5,0.005975728275495307,-0.41417522422011066,1.956830921326521,-0.05469918007871444,-1.572657803488303,0.009329118814015658,0.4410417912368462,0.17158229377647707,0.6124162732927835,3.0588864676481182,0.0012078557564175428,1.567352558381894,150.53626492482715,83.55243582451045,126.0376869797895,60.07947340522102,106.04262282582229,84.21072860891884,125.84079734036881,113.08517788424906,149.0,145.0,125.0,121.0,101.0,145.0,125.0,169.0,0.06669970743584905,-0.11278156679390218,0.2148170246325503,0.09741062495196424,4.639572716889828,0.37412730172930164,-0.15920265963119012,5.085177884249063
71,3.5500000000000003,0.00616900761458794,-0.41922758664052395,1.9629474301996037,-0.06045113343843811,-1.573010816254019,0.008984747965946838,0.43862519066748734,0.17161944716543226,0.6111130778318783,3.0541774721587855,0.0015496805236511718,1.5678562246974848,150.23262898906748,83.75213551434254,131.00567521785396,64.95182324990502,101.81620649079441,84.01736665989617,126.20561010092206,107.96500925960244,149.0,145.0,125.0,121.0,101.0,145.0,125.0,169.0,-0.3154059454303448,-0.029523874303743952,5.2151346773134115,4.8414628895446645,0.41358067022547995,0.12896403407559606,0.2514434342553886,-0.13707407373090147
72,3.6,0.007498200623721196,-0.4179960884152685,1.9626437397123615,-0.061485933510934565,-1.5739169657628453,0.010507934718495537,0.4391153657434487,0.172128153698692,0.6109007478011657,3.054062502692124,0.0023193063100650363,1.567588848685053,150.4810929738333,84.24439635730657,125.44903845782503,60.388234668607524,101.24780848892127,83.97201539269808,125.96412940800171,108.1551702256858,149.0,145.0,125.0,121.0,101.0,145.0,125.0,169.0,-0.017817701547945087,0.27054014815624117,-0.3054660466794812,0.22607250644536117,-0.15612164208310642,-0.08038635402681955,-0.00633472701939119,-0.19504074477834057
73,3.6500000000000004,0.007271230369187531,-0.418212013855185,1.9627036759195562,-0.06226173001768043,-1.5737607202627375,0.010342359911558852,0.43912004972612156,0.17204022133183725,0.6110424875257681,3.0531369753455335,0.002165175411540809,1.5675369374155448,150.54677330212772,84.25581824532321,125.78136291073338,65.46018268881777,106.02748306208471,83.87059960924441,126.02967124576885,112.85015888651,149.0,145.0,125.0,121.0,101.0,145.0,125.0,169.0,0.11851243256251134,0.0840791148884241,0.016918466288934158,4.960182688817761,4.681162715764377,-0.4345951959503894,0.029671245768849483,4.350158886509997
74,3.7,0.006900532783665536,-0.4212241101321208,1.9669554465106485,-0.06648054924943425,-1.5737455972476857,0.009881141653117265,0.4377851043483474,0.1718648286077007,0.6099357063896942,3.050150133045178,0.0021598137366504,1.567621034982727,150.35380289960145,84.21268971103311,125.33053493532846,65.4034230848367,100.598319090761,84.2134003230311,126.19771943538568,113.61616562385018,149.0,145.0,125.0,121.0,101.0,145.0,125.0,169.0,-0.10371344026783265,-0.03131900356383915,-0.3959224637746745,4.818221291114737,-0.60211194372176,-0.1766858838654543,0.2566668038067444,5.0182708870080734
75,3.75,0.00648772189928204,-0.4223374932128259,1.9679026804507025,-0.06787440952483204,-1.5734962079711057,0.009517973486903752,0.43737072827436657,0.17170285894288695,0.6099341080395517,3.0485926740460307,0.0019284949308284096,1.5675894557555041,155.21417570733496,89.22634013016197,125.86107403746773,65.4378216478886,106.63107821226171,84.3033599791186,125.95964746387769,108.90904115952722,149.0,145.0,125.0,121.0,101.0,145.0,125.0,169.0,4.783740924726265,4.798079260596757,0.12008304647673951,4.563947774014724,5.383252125305193,-0.2575095860987887,0.05588177350110942,0.11824618044773075
76,3.8000000000000003,0.005299874619571376,-0.41973505292746704,1.9650272217463707,-0.0662180005652151,-1.5727622755850312,0.009906699951576226,0.43889473151142694,0.17126509185696356,0.610568454854781,3.049997029415992,0.0011727572336152562,1.5660819316826102,155.2340033253908,84.5831145376185,125.08065151970787,60.973324521368276,101.1810605086917,84.66817592108409,131.27568056993874,108.91575416321257,149.0,145.0,125.0,121.0,101.0,145.0,125.0,169.0,4.887682979070473,-0.11169065718670311,-0.5703551917015252,-0.08484102673016165,-0.053588614115311024,-0.1914732017229216,5.339995922635837,-0.10499272475423864
77,3.85,0.003637433012815272,-0.4176099037204719,1.9609671828205455,-0.0631183391289798,-1.5715000342530097,0.008328140974147136,0.440226349356154,0.17065232005666334,0.6120613973183973,3.051178697491994,6.684859377961166e-05,1.5661052233027812,150.41344011401472,90.2280088645394,125.49598914940326,66.43679474740443,100.97645981322144,85.29994140918696,126.35525912460281,109.62890490876526,149.0,145.0,125.0,121.0,101.0,145.0,125.0,169.0,0.02442912500373659,5.206030842561382,-0.13238922897511493,5.112470423080113,-0.3467505989260619,0.007099760596936379,0.4760218364672072,0.24331168842626832
78,3.9000000000000004,0.0015914103927117118,-0.416204976505822,1.9593189711763515,-0.0622432669160462,-1.5702486188724007,0.008105097349305979,0.4412827445028254,0.16987760451364045,0.6124698445681711,3.0518209574042543,-0.0011547174941101976,1.5643931982057282,155.64523615871667,85.18098555476311,130.19913418284702,66.74934884717341,100.64586870979545,85.47374328333312,130.69592617581569,109.47344604835996,149.0,145.0,125.0,121.0,101.0,145.0,125.0,169.0,5.355762474506156,-0.01199690137724022,4.654291133519663,5.0722188023303625,-0.501636713198032,-0.016495328380536665,4.914873544236731,-0.11602763585057357
79,3.95,0.0017225484523422097,-0.4108076109568475,1.9524965722663046,-0.057482970972649206,-1.5700951816040147,0.008694922014455653,0.4439610472691834,0.16996283746952492,0.6142146904226392,3.0551686749431166,-0.001328450404537582,1.563946562609768,149.76380858423178,85.16268861377424,125.57914852600705,67.0556949712255,100.97349573366591,85.91843889916582,125.11103884649226,110.08150403452113,149.0,145.0,125.0,121.0,101.0,145.0,125.0,169.0,-0.4101044592464683,-0.3460070383996711,0.07914852600704389,5.0556949712255,-0.3421775555173116,0.059719252366699345,-0.7904286587488222,0.21567594227794254
80,4.0,0.002157031071181148,-0.40877744731770616,1.9508393112074867,-0.05708990426191907,-1.5703282861447256,0.009056137249840113,0.4449658667001908,0.1701410697729805,0.6144069205837381,3.0559313072569485,-0.0011161964469098592,1.5640020908083374,150.00742442446364,85.77160453268932,125.60473766190715,62.1216880486281,106.61753093628266,85.86486290794582,125.64428462431923,109.92600791607875,149.0,145.0,125.0,121.0,101.0,145.0,125.0,169.0,-0.21431470597112512,0.14334366312410435,0.020467998985809914,-0.024379367102232014,5.238676310732001,-0.08888158544624211,-0.2701203861191847,-0.15958707348283532
81,4.05,0.002205340840846226,-0.41195520615276404,1.955615709270262,-0.0618491092455038,-1.5705945568924173,0.008598325489565184,0.44348178363644536,0.17013153591028443,0.6130961734024512,3.052749554790109,-0.000836483460230008,1.5644889964888027,150.42207044703426,85.72454848965275,130.53334666523097,62.401163308461996,101.24066051062925,86.11786237196004,125.65916468441736,110.15114151159004,149.0,145.0,125.0,121.0,101.0,145.0,125.0,169.0,0.17207044703426047,0.03976588095709089,4.988301620185928,0.18719934449803255,-0.006604259611448701,0.025958652047576983,-0.23623280512237793,-0.007854304309549849
82,4.1000000000000005,0.0035688926650960795,-0.4129373257047533,1.9571842488563291,-0.0642768781096903,-1.5715397619556297,0.009934689885100045,0.44287911351275555,0.17065131704181474,0.6127398803767943,3.0508951849227954,-2.973459711736916e-05,1.5644392264744704,154.8982637521355,86.25096363974384,125.38893174520723,62.10414311912121,100.55097265241818,86.076748775292,126.26465388624288,115.35771408293566,149.0,145.0,125.0,121.0,101.0,145.0,125.0,169.0,4.562000015871776,0.30151309029329687,-0.19440158812610317,-0.24946048448239197,-0.6990273475818144,-0.23846861601233454,0.45704289258537295,4.989849389489566
83,4.15,0.0037552163882019762,-0.4122390264796687,1.9543907083562155,-0.06254122886139779,-1.5714332244232212,0.010140673249072307,0.443241353368104,0.1707451479950273,0.6141497129352269,3.0505403128322865,-0.00016190121197117983,1.5644284508437962,155.39111706068826,91.23170941899674,131.0910324044944,62.90575788257034,101.13484502999644,91.34284039029737,126.17728905358994,115.31822480362604,149.0,145.0,125.0,121.0,101.0,145.0,125.0,169.0,5.084273793580075,4.995506328489011,5.4598106850373895,0.13200222646174548,-0.1846298058897685,4.756407129903487,0.26839074850519223,4.746190905320964
84,4.2,0.005745398083472075,-0.41059491989697783,1.9511244273557775,-0.060899370775795436,-1.5724991247293243,0.012207621515269107,0.4438062378294255,0.17154077572099216,0.6154776009466927,3.0505513536597673,0.0007134821515351039,1.5642638902228874,155.24787748041814,86.6119071941736,125.20877567595703,63.15621167005411,101.25356757816729,86.892895326244,130.79307595914028,110.82266192477972,149.0,145.0,125.0,121.0,101.0,145.0,125.0,169.0,5.02419326989182,0.06585456259464523,-0.49576977858842347,0.04712076096320294,-0.15871312358709203,0.028860238524698874,4.793075959140269,0.04346871883493182
85,4.25,0.004484956293684839,-0.40795364937517276,1.9464991254682387,-0.057404250855416006,-1.571460825180691,0.010991332165958934,0.44532925970116916,0.1710794311241576,0.617070986700876,3.052083219751891,-0.00019804680174625772,1.5643058116550976,150.0469231597443,92.1424230439083,130.8319983007032,68.23235638317686,106.50176982505016,87.09234092048149,131.2267740310112,111.06901796053373,149.0,145.0,125.0,121.0,101.0,145.0,125.0,169.0,-0.28863239581126116,5.240200821686068,5.185879579242001,4.809981953953116,5.001769825050166,-0.0802254511999272,5.2267740310111765,-0.15178883352148623
86,4.3,0.0016527656999301144,-0.412144369165532,1.953017468360037,-0.06316646688347971,-1.570192109042698,0.0098595818936551,0.44379112381023644,0.1699310374566075,0.6151214986425615,3.0486509669695465,-0.0013973561916385611,1.5627182998043856,150.24832738298704,86.80236468069788,125.30770128017672,63.32285255865397,101.31304213629183,87.47334853000537,130.76960342725573,111.18871516130407,149.0,145.0,125.0,121.0,101.0,145.0,125.0,169.0,0.16261309727274692,-0.07895400062080354,-0.19229871982328547,-0.17714744134602853,0.05321680878091528,0.13710398852065175,4.943701091799247,-0.09578590026704747
87,4.3500000000000005,-0.00032262659964654716,-0.41471056056278366,1.9558666144428072,-0.06574177817820726,-1.5690685453137645,0.0077039128206433105,0.44288628295519644,0.16915243366650762,0.6145986658379826,3.0463570231875607,-0.002332859253259347,1.562999781138327,149.69503861493428,87.3616717389077,129.95004656266028,63.46073658293908,106.20151405792261,87.22342071623241,125.65397981520324,116.51053865493729,149.0,145.0,125.0,121.0,101.0,145.0,125.0,169.0,-0.34708998816993614,0.35280255930680704,4.512688931680769,-0.24085795009053607,4.977829847396299,-0.2305266521886453,-0.10185882598570853,5.1432350455954605
88,4.4,-0.00018828757129796259,-0.4223053042967466,1.966040612450647,-0.07496390274078735,-1.5696781888644153,0.007806003479624124,0.4392513175124792,0.1691572306022629,0.61202788940972,3.03969258277049,-0.0017798858675419427,1.5629911232348583,149.7045703148606,87.01192288578328,125.29680039003405,63.37299892259771,105.69937299542825,87.53505277099757,130.73679121704984,116.63706979320277,149.0,145.0,125.0,121.0,101.0,145.0,125.0,169.0,-0.2268456143429611,0.016347664544339363,-0.044108700875048173,-0.31791016831137736,4.673229204578581,0.09060832655312319,5.050350539083725,5.245120640660398
89,4.45,-0.0021957376746066792,-0.430820949684823,1.976744738441389,-0.08404639804730785,-1.5689422217304223,0.005528766484083292,0.43547887603239976,0.16834059307463764,0.6094421681691644,3.0327861749439857,-0.002318798337027169,1.5633407336047964,154.62151805463108,86.90723642432522,125.1021134339349,64.03711677124974,105.85025336063171,87.7847392060928,125.59599458917596,111.58366685043413,149.0,145.0,125.0,121.0,101.0,145.0,125.0,169.0,4.873730444011613,-0.07285207124999757,-0.1335845065685257,0.288833018389334,5.049378087108733,0.3339733417601828,0.12010360385101258,0.2125976680442017
90,4.5,-0.0017720713663935683,-0.43094750479950905,1.9770500424440396,-0.08513154352534258,-1.5692265172398558,0.00546842032464534,0.4354336017778915,0.1684944506437509,0.6094061992758278,3.031895393439284,-0.0020341548670526396,1.5637943052211631,149.57297080664813,92.53123848204696,130.2822899898401,64.28782218464163,101.06286479613343,87.31331419911359,125.58823154895374,111.33928856953699,149.0,145.0,125.0,121.0,101.0,145.0,125.0,169.0,-0.27385632683109434,5.294914630843452,5.083659852853815,0.413392960897328,0.2110129442815782,-0.24659865491691285,0.13484171844527182,-0.18401651520877302
91,4.55,-0.002610197240759504,-0.43310004032060245,1.9800197023093267,-0.08838224533517547,-1.5689847843785003,0.006631077164552579,0.4346020245063847,0.16816470268384076,0.6086721582773537,3.0294717574430505,-0.0024182886576807803,1.5618322055006966,149.69392616172627,87.25851737929946,125.25961770236458,63.90301323314092,105.27894676693936,92.63647238240098,125.82626179195728,111.46465042538604,149.0,145.0,125.0,121.0,101.0,145.0,125.0,169.0,0.001786423735010739,-0.08427738052586789,0.2872674719498263,-0.14537386363327637,4.6833423713349625,4.840867986796586,0.4887090493412346,-0.18935801343252542
92,4.6000000000000005,-0.001529417907492281,-0.43686422169236616,1.9860639345379019,-0.09434553974399407,-1.5699368624476655,0.005827222282028366,0.43269551018704877,0.16853668448370854,0.6068425728891432,3.0257739701319863,-0.0013991673150714641,1.5636131265541737,149.97306936836364,87.39648344687403,125.09558303704648,64.4920311903584,100.33383342241777,87.06902820458737,130.66191840078073,111.49814189461104,149.0,145.0,125.0,121.0,101.0,145.0,125.0,169.0,0.13358997573892678,-0.00047967677022057607,0.026775697596943756,0.46909541054189535,-0.27268831671266536,-0.6222761432387284,5.303427834743002,-0.17691051629043583
93,4.65,-0.003727952118283362,-0.43919484275821885,1.9886129972047284,-0.09667893243582393,-1.5686901874664416,0.00381395225038883,0.43195174672942244,0.16769592126476493,0.6063625706323471,3.023661637562942,-0.0024181149838899377,1.5635612058082042,149.41982254814806,87.77355754593289,125.03743175022272,64.4703997256575,100.67987673746039,88.2031628578144,125.28973891656072,111.75189113636736,149.0,145.0,125.0,121.0,101.0,145.0,125.0,169.0,-0.2664519616558626,0.2877187659764621,0.09006332917008829,0.31021665929594044,0.19309259649122618,0.30007915737387325,0.09223371905553183,-0.10257871810249056
94,4.7,-0.003770284646220645,-0.440088632575522,1.9899104596403472,-0.09851187518103055,-1.5687232580039918,0.0036498188468141457,0.4315978905996057,0.1676731744060558,0.6060676743654219,3.0222356520092557,-0.0023708883311255743,1.5636812370951285,149.61617027648487,87.24572246449048,124.93653813148167,63.8909694390128,101.09592767180021,87.76308711389244,125.07957372125406,112.10661587806626,149.0,145.0,125.0,121.0,101.0,145.0,125.0,169.0,-0.04536818505361173,-0.42021160144357894,0.002447222390758851,-0.31812147007810493,0.5235592507475744,-0.3048953422479231,-0.09019853547471345,0.08384155094411959
95,4.75,-0.003850305490814776,-0.44205454360640806,1.992512942320806,-0.10141320251544705,-1.5687965252691036,0.003422363705436471,0.43072959384853704,0.16763464541871384,0.6054620597342492,3.0199679428484436,-0.0022762345824843782,1.5638247691614944,154.35740698711274,87.55760761593908,130.02308329283656,64.28501733573817,100.68352013573138,88.1939346717041,130.18328288767088,117.39913292412604,149.0,145.0,125.0,121.0,101.0,145.0,125.0,169.0,4.731856326319788,-0.27058621666003324,5.146370964069439,-0.21498266426182208,0.12115689721935446,0.049514540413072156,5.014180591219944,5.200803070263824
96,4.800000000000001,-0.004074272415275804,-0.44487336949351786,1.994568312920741,-0.10362586935805584,-1.5687267116834773,0.003194063058433283,0.4294550747136177,0.16754863079115148,0.6055194797753695,3.0169844327508613,-0.0023274003067155656,1.5638433406890717,150.02663332407704,87.66943084065383,125.18941597002845,64.39568814738293,100.5143016014146,88.15862637700529,130.3645952660306,112.09219030337863,149.0,145.0,125.0,121.0,101.0,145.0,125.0,169.0,0.4054879496277187,-0.28431365273822795,0.2696911993862477,-0.44605497188312726,0.005529671590042413,-0.2119876580824339,5.154511232417147,-0.29646515880624186
97,4.8500000000000005,-0.005815282485442719,-0.44726552965095445,1.9971991537203762,-0.10610011819595977,-1.567757272804724,0.0013198974344290626,0.4286156330990723,0.16688845325091278,0.6050178092118919,3.014746444437702,-0.0030614318091251695,1.5640881331561227,154.98922875385279,87.57520132897366,124.51578054360164,64.89360660712373,101.2134682335541,88.43232623200288,125.17551655948067,112.89151630317302,149.0,145.0,125.0,121.0,101.0,145.0,125.0,169.0,5.414007514914729,-0.5575420338581931,-0.3324953184673247,-0.08340488712915524,0.7761055961914504,-0.11492651524986144,0.041625346091555944,0.39151630317302544
