,t,q_1,q_2,q_3,q_4,q_5,q_6,camera_x,camera_y,camera_z,camera_roll,camera_pitch,camera_yaw,f_1,f_2,f_3,f_4,f_5,f_6,f_7,f_8,desired_f_1,desired_f_2,desired_f_3,desired_f_4,desired_f_5,desired_f_6,desired_f_7,desired_f_8
0,0.0,8.58306884765625e-06,0.00015425682067871094,1.570796251296997,0.0001308917999267578,-1.5707952976226807,1.1920928955078125e-06,0.6808194518089294,0.16908100247383118,0.6382140517234802,-3.1409236307315758,0.000142941057518954,1.5708374245447392,149.61725663716814,145.28982300884957,125.56984478935698,121.2350332594235,101.5,145.27631578947367,125.59823399558499,169.33112582781456,125.0,121.0,101.0,145.0,125.0,169.0,149.0,145.0
1,0.05,-0.002312183380126953,-0.0004703998565673828,1.574434518814087,-0.0028123855590820312,-1.5692713260650635,-0.0013284683227539062,0.6808088421821594,0.1676374077796936,0.6364704370498657,-3.1408455796440204,-0.001390980387396119,1.5698393855654265,149.54625550660793,145.29955947136563,125.42731277533039,121.17180616740089,101.33920704845815,145.37665198237886,125.43076923076923,169.43076923076924,125.0,121.0,101.0,145.0,125.0,169.0,149.0,145.0
2,0.1,-0.004888057708740234,-0.0008416175842285156,1.5775806903839111,-0.005408048629760742,-1.5680387020111084,-0.0026743412017822266,0.6809740662574768,0.16599158942699432,0.6348556280136108,-3.140666051376651,-0.0026316492338816972,1.568604052206645,149.35824175824175,145.35824175824175,125.16703296703297,121.3076923076923,101.0,145.45414847161572,125.2390350877193,169.5328947368421,125.0,121.0,101.0,145.0,125.0,169.0,149.0,145.0
3,0.15000000000000002,-0.008047342300415039,-0.0009298324584960938,1.580021619796753,-0.0071756839752197266,-1.5675246715545654,-0.0043866634368896484,0.6813524961471558,0.16387465596199036,0.6334444284439087,-3.140086645652343,-0.0031537411632911877,1.5671525535923334,148.84782608695653,145.38478260869564,124.5,121.18260869565218,100.35,145.54347826086956,124.66228070175438,169.625,125.0,121.0,101.0,145.0,125.0,169.0,149.0,145.0
4,0.2,-0.012399435043334961,0.00025391578674316406,1.5798194408416748,-0.006705045700073242,-1.5690796375274658,-0.006275177001953125,0.6826011538505554,0.16071899235248566,0.6327284574508667,-3.1386261214628814,-0.0016183197381381556,1.5646844837934648,147.61353711790392,145.41921397379912,123.18260869565218,121.34782608695652,99.05217391304348,145.64565217391305,123.5,169.81739130434784,125.0,121.0,101.0,145.0,125.0,169.0,149.0,145.0
5,0.25,-0.012348413467407227,-0.0014913082122802734,1.5864465236663818,-0.012657642364501953,-1.5641272068023682,-0.006882190704345703,0.6816080212593079,0.16128256916999817,0.6300387382507324,-3.139738955229717,-0.006546809856918412,1.5653447515870014,148.82543103448276,145.43965517241378,124.375,121.19827586206897,100.1038961038961,145.60173160173161,124.57758620689656,169.9094827586207,125.0,121.0,101.0,145.0,125.0,169.0,149.0,145.0
6,0.30000000000000004,-0.014704704284667969,-0.0017688274383544922,1.5889122486114502,-0.013778448104858398,-1.562624216079712,-0.008681774139404297,0.6816737055778503,0.1598227173089981,0.6286698579788208,-3.1386991488336826,-0.008062490994478743,1.5647775132181403,148.71182795698925,145.31182795698925,124.2452025586354,120.95735607675905,99.875,145.54741379310346,124.44060475161987,169.79913606911447,125.0,121.0,101.0,145.0,125.0,169.0,149.0,145.0
7,0.35000000000000003,-0.016646623611450195,-0.001764059066772461,1.590986967086792,-0.014619588851928711,-1.561208963394165,-0.010068178176879883,0.6818305253982544,0.15862807631492615,0.6273432970046997,-3.137484885910954,-0.009498270431446174,1.5642031066741124,148.64743589743588,145.13675213675214,124.06837606837607,120.65598290598291,99.76609442060087,145.40987124463518,124.35974304068523,169.7066381156317,125.0,121.0,101.0,145.0,125.0,169.0,149.0,145.0
8,0.4,-0.01818108558654785,-0.0017881393432617188,1.5928027629852295,-0.014970064163208008,-1.5600664615631104,-0.011095762252807617,0.6818829774856567,0.15769566595554352,0.6261610984802246,-3.1360676043109033,-0.0106589875173655,1.563677650219936,148.62473347547976,144.8507462686567,123.94893617021276,120.5,99.6017130620985,145.15845824411136,124.28326180257511,169.5,125.0,121.0,101.0,145.0,125.0,169.0,149.0,145.0
9,0.45,-0.019858360290527344,-0.002695798873901367,1.5958607196807861,-0.015147924423217773,-1.5592496395111084,-0.012429475784301758,0.6813526153564453,0.15664058923721313,0.6247208714485168,-3.134123845021948,-0.011506652240720458,1.563307009111205,148.56236786469344,144.36363636363637,123.70550847457628,119.90254237288136,99.42004264392324,144.64605543710022,124.12210526315789,169.0,125.0,121.0,101.0,145.0,125.0,169.0,149.0,145.0
10,0.5,-0.020948410034179688,-0.0043506622314453125,1.600069284439087,-0.015334367752075195,-1.5594074726104736,-0.0130157470703125,0.680221676826477,0.1559065878391266,0.6230089068412781,-3.1317666316449744,-0.011381699772129703,1.5627789691198588,148.38396624472574,143.54641350210971,123.47679324894514,119.09071729957806,99.0609243697479,143.9096638655462,123.87659574468086,168.3787234042553,125.0,121.0,101.0,145.0,125.0,169.0,149.0,145.0
11,0.55,-0.02078866958618164,-0.003945350646972656,1.6010234355926514,-0.01560664176940918,-1.5594322681427002,-0.011845827102661133,0.6803104281425476,0.1560259759426117,0.6221143007278442,-3.1306645930832206,-0.01135170832447207,1.5617599828221052,148.42947368421054,143.39368421052632,123.5,118.86497890295358,99.12101910828025,143.69426751592357,123.92901878914405,168.16492693110646,125.0,121.0,101.0,145.0,125.0,169.0,149.0,145.0
12,0.6000000000000001,-0.02066493034362793,-0.003017902374267578,1.6013295650482178,-0.016086578369140625,-1.5592472553253174,-0.010648965835571289,0.6807621121406555,0.15613152086734772,0.6213252544403076,-3.1298949143808112,-0.0115283967289753,1.5606771027934407,148.5,143.3613445378151,123.52,118.84842105263158,99.15822784810126,143.75738396624473,124.02521008403362,168.22899159663865,125.0,121.0,101.0,145.0,125.0,169.0,149.0,145.0
13,0.65,-0.02047109603881836,-0.0021691322326660156,1.6016242504119873,-0.016289234161376953,-1.5592014789581299,-0.009403467178344727,0.6811346411705017,0.1562700718641281,0.620570957660675,-3.1289398720939747,-0.01156832524287116,1.559614221721754,148.60587002096437,143.30607966457023,123.53556485355648,118.77824267782427,99.22105263157894,143.74526315789473,124.12108559498957,168.16283924843424,125.0,121.0,101.0,145.0,125.0,169.0,149.0,145.0
14,0.7000000000000001,-0.020226240158081055,-0.0013132095336914062,1.6019032001495361,-0.01641082763671875,-1.559295892715454,-0.00810098648071289,0.6814941763877869,0.1564299762248993,0.6198146939277649,-3.1279101255783557,-0.011465158946600855,1.5585461649316936,148.66458333333333,143.23125,123.54811715481172,118.67154811715481,99.24369747899159,143.73319327731093,124.2029288702929,168.13179916317992,125.0,121.0,101.0,145.0,125.0,169.0,149.0,145.0
15,0.75,-0.0198824405670166,-0.0003802776336669922,1.601989507675171,-0.016299962997436523,-1.5595076084136963,-0.006705760955810547,0.6818749904632568,0.15664546191692352,0.6191118359565735,-3.126762490476991,-0.011241778780961302,1.5574848963756944,148.81327800829877,143.06016597510373,123.61506276150628,118.5460251046025,99.25,143.6827731092437,124.27521008403362,168.0483193277311,125.0,121.0,101.0,145.0,125.0,169.0,149.0,145.0
16,0.8,-0.019466876983642578,0.0005452632904052734,1.6018822193145752,-0.01598358154296875,-1.559875726699829,-0.005267620086669922,0.6822417974472046,0.15689487755298615,0.6185234785079956,-3.1256092300932337,-0.010857762023063966,1.5564556664510847,148.8724279835391,142.98559670781893,123.6054279749478,118.47807933194154,99.21593291404612,143.59119496855345,124.3655462184874,168.01680672268907,125.0,121.0,101.0,145.0,125.0,169.0,149.0,145.0
17,0.8500000000000001,-0.019275426864624023,0.0021924972534179688,1.6007344722747803,-0.015945911407470703,-1.5595996379852295,-0.004193782806396484,0.6831552982330322,0.15704280138015747,0.6181754469871521,-3.1250586781904284,-0.01111978890788962,1.555562250064163,148.95051546391753,143.04948453608247,123.68257261410788,118.62448132780084,99.34033613445378,143.8109243697479,124.5,168.2689075630252,125.0,121.0,101.0,145.0,125.0,169.0,149.0,145.0
18,0.9,-0.01916980743408203,0.003968954086303711,1.5992295742034912,-0.01557016372680664,-1.559185266494751,-0.0032303333282470703,0.6841541528701782,0.15714414417743683,0.617944061756134,-3.1243998260141757,-0.011521227635999977,1.5546893771065742,149.07867494824018,143.3416149068323,123.89506172839506,118.90123456790124,99.46526315789474,144.06736842105263,124.61603375527426,168.45358649789029,125.0,121.0,101.0,145.0,125.0,169.0,149.0,145.0
19,0.9500000000000001,-0.01918196678161621,0.005729198455810547,1.5979974269866943,-0.015129566192626953,-1.5588767528533936,-0.002302408218383789,0.6851211786270142,0.1571553647518158,0.6175302863121033,-3.1234189070774434,-0.011816315512731185,1.5537317325611224,149.1871101871102,143.48440748440748,123.94444444444444,119.0246913580247,99.51572327044025,144.28930817610063,124.7016806722689,168.53991596638656,125.0,121.0,101.0,145.0,125.0,169.0,149.0,145.0
20,1.0,-0.0190584659576416,0.00719904899597168,1.5972120761871338,-0.014408349990844727,-1.5589830875396729,-0.0012803077697753906,0.6858404278755188,0.15722370147705078,0.6169826984405518,-3.122000292918888,-0.011692374446108628,1.5528190278699214,149.26141078838174,143.41286307053943,123.92197125256673,118.96303901437372,99.51565762004175,144.23799582463465,124.76939203354297,168.55974842767296,125.0,121.0,101.0,145.0,125.0,169.0,149.0,145.0
21,1.05,-0.01915597915649414,0.008863449096679688,1.595918893814087,-0.01386713981628418,-1.5586659908294678,-0.0006263256072998047,0.6867702007293701,0.157176211476326,0.616663932800293,-3.1210800282681714,-0.011997851817152539,1.5520497686100143,149.25833333333333,143.5,123.94444444444444,119.0246913580247,99.5460251046025,144.38493723849373,124.86610878661088,168.7154811715481,125.0,121.0,101.0,145.0,125.0,169.0,149.0,145.0
22,1.1,-0.019177913665771484,0.010644912719726562,1.5943195819854736,-0.012816667556762695,-1.5583951473236084,2.86102294921875e-05,0.6877304911613464,0.15717503428459167,0.6164159178733826,-3.1198380865210864,-0.012254895331754861,1.551351926716321,149.33333333333334,143.54583333333332,123.97540983606558,119.10040983606558,99.63865546218487,144.5,124.97916666666667,168.83125,125.0,121.0,101.0,145.0,125.0,169.0,149.0,145.0
23,1.1500000000000001,-0.01916790008544922,0.012418031692504883,1.5925242900848389,-0.011324405670166016,-1.5582244396209717,0.0006306171417236328,0.6886599063873291,0.15718643367290497,0.6162588596343994,-3.118359467115757,-0.012411093458077753,1.5507380043574246,149.41458333333333,143.59375,124.02459016393442,119.10040983606558,99.69037656903765,144.5,125.01452282157676,168.86721991701245,125.0,121.0,101.0,145.0,125.0,169.0,149.0,145.0
24,1.2000000000000002,-0.019396066665649414,0.014042377471923828,1.5909802913665771,-0.010293245315551758,-1.5578835010528564,0.0010428428649902344,0.6895692348480225,0.15704943239688873,0.6160802245140076,-3.117241707735437,-0.012741608576592294,1.5500749200898707,149.45228215767634,143.6576763485477,124.04684317718942,119.16089613034623,99.67154811715481,144.5481171548117,125.06404958677686,168.9297520661157,125.0,121.0,101.0,145.0,125.0,169.0,149.0,145.0
25,1.25,-0.019599437713623047,0.01551961898803711,1.5896241664886475,-0.009235858917236328,-1.5576460361480713,0.0014376640319824219,0.6903771162033081,0.15692080557346344,0.6158720254898071,-3.116057465555604,-0.012968256093958484,1.5494552675997078,149.47817047817048,143.65696465696465,124.04684317718942,119.16089613034623,99.7071129707113,144.65690376569037,125.0703933747412,168.9544513457557,125.0,121.0,101.0,145.0,125.0,169.0,149.0,145.0
26,1.3,-0.01969146728515625,0.01681995391845703,1.5884296894073486,-0.007951736450195312,-1.5576331615447998,0.0019676685333251953,0.6910366415977478,0.15685077011585236,0.6156521439552307,-3.1146607118692016,-0.012963616328703078,1.5488154035494803,149.50103950103951,143.6174636174636,124.03877551020408,119.13673469387756,99.6847599164927,144.5991649269311,125.08921161825727,168.89004149377593,125.0,121.0,101.0,145.0,125.0,169.0,149.0,145.0
27,1.35,-0.0197904109954834,0.018311500549316406,1.5870506763458252,-0.006702899932861328,-1.5575830936431885,0.0024907588958740234,0.6918179392814636,0.15677666664123535,0.6154266595840454,-3.1132913111900593,-0.012994944667411511,1.5481738628672157,149.52282157676348,143.54564315352698,123.96945010183299,119.13034623217922,99.67083333333333,144.62083333333334,125.09583333333333,168.84166666666667,125.0,121.0,101.0,145.0,125.0,169.0,149.0,145.0
28,1.4000000000000001,-0.019724607467651367,0.01980137825012207,1.585634469985962,-0.00525212287902832,-1.557727575302124,0.0031418800354003906,0.692556619644165,0.15679867565631866,0.6152055263519287,-3.1117576372952342,-0.012826382277111406,1.5475739258167343,149.5,143.5,123.97755102040816,119.10612244897959,99.67154811715481,144.5481171548117,125.11850311850311,168.82952182952184,125.0,121.0,101.0,145.0,125.0,169.0,149.0,145.0
29,1.4500000000000002,-0.019601106643676758,0.0217130184173584,1.5835883617401123,-0.0033674240112304688,-1.557842493057251,0.0038726329803466797,0.6935245990753174,0.15685953199863434,0.6150717735290527,-3.109996066255827,-0.012681763472266782,1.5469482348755816,149.5,143.5,123.98159509202453,119.04703476482618,99.7160751565762,144.50313152400835,125.21802935010483,168.72955974842768,125.0,121.0,101.0,145.0,125.0,169.0,149.0,145.0
30,1.5,-0.018885374069213867,0.025421857833862305,1.5792362689971924,0.0004220008850097656,-1.5585825443267822,0.00510716438293457,0.695367693901062,0.1572556048631668,0.615048348903656,-3.106828236929594,-0.011882194424929965,1.5464161806482242,149.47717842323652,143.45435684647302,123.98159509202453,119.04703476482618,99.7160751565762,144.50313152400835,125.20253164556962,168.6561181434599,125.0,121.0,101.0,145.0,125.0,169.0,149.0,145.0
31,1.55,-0.01723647117614746,0.030179738998413086,1.5740869045257568,0.0056078433990478516,-1.5607106685638428,0.007737874984741211,0.6975266933441162,0.15817005932331085,0.6146836876869202,-3.102006806215949,-0.009618445725696749,1.5454649675232282,149.34368530020703,143.17391304347825,123.84317718940937,118.87780040733197,99.57083333333334,144.35833333333332,125.09936575052853,168.4524312896406,125.0,121.0,101.0,145.0,125.0,169.0,149.0,145.0
32,1.6,-0.01513218879699707,0.035231590270996094,1.5680906772613525,0.009485006332397461,-1.561722993850708,0.010906457901000977,0.6999978423118591,0.15952232480049133,0.6148129105567932,-3.0990507169586463,-0.00844341181866316,1.5444200017136194,149.59751037344398,143.33402489626556,124.0,119.0,99.89308176100629,144.54297693920336,125.3678646934461,168.56659619450318,125.0,121.0,101.0,145.0,125.0,169.0,149.0,145.0
33,1.6500000000000001,-0.012219905853271484,0.0406498908996582,1.5607235431671143,0.016093969345092773,-1.5653502941131592,0.014940261840820312,0.7023897767066956,0.1611926257610321,0.6153258085250854,-3.094410612747251,-0.004573253990945728,1.5434363376648708,149.39121338912133,143.13807531380752,123.90983606557377,118.94057377049181,99.71789473684211,144.44,125.24416135881104,168.36730360934183,125.0,121.0,101.0,145.0,125.0,169.0,149.0,145.0
34,1.7000000000000002,-0.010196685791015625,0.04625511169433594,1.5541408061981201,0.020117521286010742,-1.5668771266937256,0.018213272094726562,0.705189049243927,0.16245156526565552,0.6154176592826843,-3.0913716996728366,-0.002838696568627615,1.542252195891997,149.5,143.3613445378151,123.94489795918368,119.13673469387756,99.89419087136929,144.8091286307054,125.37872340425533,168.5723404255319,125.0,121.0,101.0,145.0,125.0,169.0,149.0,145.0
35,1.75,-0.007219791412353516,0.05007791519165039,1.5497486591339111,0.024614334106445312,-1.5698845386505127,0.022432804107666016,0.7066361308097839,0.164265975356102,0.6152378916740417,-3.0875036298077805,0.00046686790714909823,1.5411687455203722,149.5,143.0,123.93456032719837,118.93456032719837,99.80293501048219,144.45702306079664,125.41452991452991,168.258547008547,125.0,121.0,101.0,145.0,125.0,169.0,149.0,145.0
36,1.8,-0.005299806594848633,0.05567169189453125,1.542743444442749,0.02884507179260254,-1.5716407299041748,0.02525949478149414,0.7094656229019165,0.1654478907585144,0.6155742406845093,-3.0847249253008378,0.0024416732531690093,1.5403660474331538,149.5,143.3613445378151,123.93877551020408,119.18163265306123,99.90248962655602,144.85684647302904,125.48394004282655,168.5203426124197,125.0,121.0,101.0,145.0,125.0,169.0,149.0,145.0
37,1.85,-0.002544403076171875,0.06098437309265137,1.5364997386932373,0.03361868858337402,-1.5744049549102783,0.02892160415649414,0.7118678092956543,0.16714289784431458,0.6155266165733337,-3.0809652795068287,0.0055201704047088745,1.5396429751508698,149.4842105263158,143.34105263157895,123.92057026476579,119.19959266802444,99.91735537190083,144.93801652892563,125.5,168.5,125.0,121.0,101.0,145.0,125.0,169.0,149.0,145.0
38,1.9000000000000001,0.00035452842712402344,0.06588077545166016,1.530773401260376,0.03812003135681152,-1.5773160457611084,0.03277468681335449,0.7139992117881775,0.1689450591802597,0.6154459714889526,-3.0774099632789964,0.008780014161665132,1.5389049648867377,149.45569620253164,143.27426160337552,123.89634146341463,119.20731707317073,99.90269151138716,144.91718426501035,125.48394004282655,168.4796573875803,125.0,121.0,101.0,145.0,125.0,169.0,149.0,145.0
39,1.9500000000000002,0.0034151077270507812,0.07121729850769043,1.5243051052093506,0.04319119453430176,-1.5802266597747803,0.03683948516845703,0.7163412570953369,0.17087695002555847,0.6154773831367493,-3.0736102653728268,0.012087284016242603,1.5381426886083376,149.46186440677965,143.1843220338983,123.92057026476579,119.19959266802444,99.9399585921325,144.9503105590062,125.5,168.37662337662337,125.0,121.0,101.0,145.0,125.0,169.0,149.0,145.0
40,2.0,0.0059545040130615234,0.07572412490844727,1.5190813541412354,0.04709625244140625,-1.5828874111175537,0.04057598114013672,0.7183307409286499,0.1724673956632614,0.6153722405433655,-3.0705731487794834,0.015118154074808604,1.537180962098107,149.40976645435245,143.19108280254778,123.84662576687117,119.24130879345603,99.94421487603306,144.97520661157026,125.5,168.37662337662337,125.0,121.0,101.0,145.0,125.0,169.0,149.0,145.0
41,2.0500000000000003,0.008915185928344727,0.08061981201171875,1.5134294033050537,0.05136990547180176,-1.5858094692230225,0.04471540451049805,0.7204458713531494,0.17435288429260254,0.6152263283729553,-3.067245263057218,0.018477546386216213,1.5362833416580175,149.40085287846483,143.16204690831557,123.8036809815951,119.32515337423312,99.9356846473029,145.0207468879668,125.48156182212581,168.35791757049893,125.0,121.0,101.0,145.0,125.0,169.0,149.0,145.0
42,2.1,0.011608123779296875,0.08518147468566895,1.5083506107330322,0.055207014083862305,-1.5884077548980713,0.04845571517944336,0.7224151492118835,0.17608654499053955,0.6149665117263794,-3.06411616356893,0.021499685930946418,1.5355090021351052,149.40085287846483,143.16204690831557,123.8036809815951,119.32515337423312,99.9356846473029,145.0207468879668,125.5,168.33913043478262,125.0,121.0,101.0,145.0,125.0,169.0,149.0,145.0
43,2.15,0.014684438705444336,0.09044432640075684,1.502549409866333,0.05948352813720703,-1.591407060623169,0.05268979072570801,0.7246947288513184,0.17807911336421967,0.614626407623291,-3.060619543516779,0.025005518330196767,1.5346871777268756,149.40085287846483,143.16204690831557,123.8036809815951,119.32515337423312,99.93139293139293,145.04573804573803,125.59694989106754,168.32897603485839,125.0,121.0,101.0,145.0,125.0,169.0,149.0,145.0
44,2.2,0.01816725730895996,0.09646129608154297,1.4956567287445068,0.06448602676391602,-1.5947625637054443,0.057053327560424805,0.727318525314331,0.18035711348056793,0.6143820881843567,-3.056782181459015,0.028927996809536664,1.5342095216670806,149.40085287846483,143.16204690831557,123.76543209876543,119.38683127572017,99.92708333333333,145.18958333333333,125.64847161572052,168.3646288209607,125.0,121.0,101.0,145.0,125.0,169.0,149.0,145.0
45,2.25,0.021747589111328125,0.10162544250488281,1.4894649982452393,0.06937026977539062,-1.5980565547943115,0.061156511306762695,0.7294243574142456,0.18271954357624054,0.6142926216125488,-3.0532414428930847,0.03277858108371265,1.5341040587824661,149.39614561027838,143.08137044967881,123.82857142857142,119.33061224489796,99.95634095634095,145.12474012474013,125.65054945054945,168.23076923076923,125.0,121.0,101.0,145.0,125.0,169.0,149.0,145.0
46,2.3000000000000003,0.024907588958740234,0.10696053504943848,1.4835526943206787,0.07353019714355469,-1.6013123989105225,0.06534576416015625,0.731722354888916,0.1847960501909256,0.6139439940452576,-3.050000212428666,0.036606389275551425,1.533503888248715,149.34978540772534,143.137339055794,123.75726141078839,119.47095435684648,99.92050209205021,145.27405857740587,125.67549668874172,168.32008830022076,125.0,121.0,101.0,145.0,125.0,169.0,149.0,145.0
47,2.35,0.028148174285888672,0.11192870140075684,1.4779636859893799,0.07787656784057617,-1.604341745376587,0.0691990852355957,0.7337604761123657,0.18696202337741852,0.613616943359375,-3.046617036334116,0.04021295799621019,1.5333290732120088,149.3978494623656,143.08172043010754,123.8045267489712,119.41358024691358,99.94339622641509,145.26205450733752,125.69315673289184,168.23620309050773,125.0,121.0,101.0,145.0,125.0,169.0,149.0,145.0
48,2.4000000000000004,0.03141164779663086,0.11705470085144043,1.4723832607269287,0.08194780349731445,-1.6076686382293701,0.07336115837097168,0.7358905673027039,0.18913690745830536,0.6131811141967773,-3.0433990710986722,0.044161989589200035,1.5329186456169763,149.3548387096774,143.11182795698926,123.74741200828157,119.49482401656314,99.88235294117646,145.35714285714286,125.67770419426049,168.27373068432672,125.0,121.0,101.0,145.0,125.0,169.0,149.0,145.0
49,2.45,0.03478407859802246,0.12206196784973145,1.4670608043670654,0.0860142707824707,-1.6108481884002686,0.07742953300476074,0.7379031777381897,0.19141942262649536,0.6126473546028137,-3.0400609309027735,0.04799058797936165,1.5327276345790062,149.4094827586207,143.00646551724137,123.8045267489712,119.41358024691358,99.90146750524109,145.33962264150944,125.69844789356985,168.23503325942352,125.0,121.0,101.0,145.0,125.0,169.0,149.0,145.0
50,2.5,0.037627458572387695,0.12656164169311523,1.4618971347808838,0.08998608589172363,-1.613673448562622,0.08116698265075684,0.7397465705871582,0.19334706664085388,0.6123846173286438,-3.0371533879955983,0.051419910268728025,1.5323010870543712,149.3952483801296,142.98488120950324,123.78053830227744,119.45962732919254,99.9142259414226,145.36192468619248,125.70509977827051,168.1330376940133,125.0,121.0,101.0,145.0,125.0,169.0,149.0,145.0
51,2.5500000000000003,0.04062390327453613,0.13127779960632324,1.4570162296295166,0.09343457221984863,-1.6167609691619873,0.08513069152832031,0.7416850328445435,0.19538141787052155,0.6118080615997314,-3.0343193906408765,0.055153764030014034,1.5318501170235657,149.3470715835141,142.99132321041213,123.70867768595042,119.54752066115702,99.88541666666667,145.42291666666668,125.70222222222222,168.20888888888888,125.0,121.0,101.0,145.0,125.0,169.0,149.0,145.0
52,2.6,0.044051170349121094,0.1363539695739746,1.4514200687408447,0.09772729873657227,-1.619960069656372,0.08931756019592285,0.7437012195587158,0.19775083661079407,0.6113461256027222,-3.0310450453958473,0.05908750616961132,1.5316708619491617,149.35886214442013,142.86652078774617,123.78189300411523,119.51028806584362,99.93096234309624,145.43096234309624,125.71269487750557,168.13140311804008,125.0,121.0,101.0,145.0,125.0,169.0,149.0,145.0
53,2.6500000000000004,0.04663658142089844,0.14048051834106445,1.4467966556549072,0.10128951072692871,-1.6225769519805908,0.09296107292175293,0.7453681826591492,0.1995352804660797,0.6110087037086487,-3.0284258432154236,0.06233985946293228,1.5311045640388419,149.33333333333334,142.8267543859649,123.73347107438016,119.51652892561984,99.90605427974948,145.4384133611691,125.71269487750557,168.13140311804008,125.0,121.0,101.0,145.0,125.0,169.0,149.0,145.0
54,2.7,0.04954171180725098,0.14494824409484863,1.4415862560272217,0.10533285140991211,-1.625361680984497,0.0968935489654541,0.7471495866775513,0.2015630602836609,0.6107499599456787,-3.025624295331302,0.06583369850022755,1.530622080315331,149.33991228070175,142.7938596491228,123.73347107438016,119.51652892561984,99.93110647181628,145.482254697286,125.76233183856502,168.09641255605382,125.0,121.0,101.0,145.0,125.0,169.0,149.0,145.0
55,2.75,0.05256843566894531,0.14939260482788086,1.4363505840301514,0.109375,-1.6283295154571533,0.10095453262329102,0.7488927245140076,0.20367935299873352,0.6105152368545532,-3.0229195770018813,0.06954091672729691,1.530173242819349,149.3208791208791,142.77582417582417,123.7432712215321,119.54037267080746,99.93110647181628,145.482254697286,125.78876404494382,168.08988764044943,125.0,121.0,101.0,145.0,125.0,169.0,149.0,145.0
56,2.8000000000000003,0.055622100830078125,0.15419387817382812,1.430633783340454,0.11377358436584473,-1.631324052810669,0.1050724983215332,0.7508124709129333,0.20583565533161163,0.6102848052978516,-3.020013701171648,0.07332325406401093,1.5297339693402072,149.27373068432672,142.77704194260485,123.74380165289256,119.56611570247934,99.94979079497908,145.5,125.76523702031602,168.04288939051918,125.0,121.0,101.0,145.0,125.0,169.0,149.0,145.0
57,2.85,0.058838844299316406,0.15927577018737793,1.4250009059906006,0.11803460121154785,-1.6345508098602295,0.10967469215393066,0.7528321743011475,0.20811723172664642,0.6097846627235413,-3.016964719589441,0.0774402643917876,1.5290444344148106,149.27373068432672,142.77704194260485,123.71694214876032,119.59710743801652,99.93736951983298,145.62630480167016,125.7918552036199,168.04751131221718,125.0,121.0,101.0,145.0,125.0,169.0,149.0,145.0
58,2.9000000000000004,0.06208205223083496,0.16366887092590332,1.4201443195343018,0.1219024658203125,-1.6377484798431396,0.1141502857208252,0.7544535994529724,0.2104119062423706,0.6093242764472961,-3.0142450957304314,0.08150478747101071,1.528503955328427,149.24061810154527,142.6953642384106,123.7184265010352,119.57142857142857,99.9125,145.61875,125.83069977426636,167.99548532731376,125.0,121.0,101.0,145.0,125.0,169.0,149.0,145.0
59,2.95,0.0650029182434082,0.16793465614318848,1.415236234664917,0.12571215629577637,-1.6405651569366455,0.11819219589233398,0.7560794353485107,0.21250483393669128,0.6089903712272644,-3.0117160621115078,0.08513130151382112,1.5280244783864325,149.26431718061673,142.636563876652,123.7184265010352,119.57142857142857,99.9625,145.63333333333333,125.96162528216705,167.91196388261852,125.0,121.0,101.0,145.0,125.0,169.0,149.0,145.0
60,3.0,0.0677342414855957,0.17211580276489258,1.41036057472229,0.1292734146118164,-1.643334150314331,0.12181210517883301,0.7577219009399414,0.2144647091627121,0.608711838722229,-3.009466488618181,0.08864075532237921,1.5277603888360944,149.22787610619469,142.67256637168143,123.69484536082474,119.61030927835051,99.99166666666666,145.675,125.88409090909092,167.99545454545455,125.0,121.0,101.0,145.0,125.0,169.0,149.0,145.0
61,3.0500000000000003,0.0714561939239502,0.1770784854888916,1.404369592666626,0.13406085968017578,-1.6469848155975342,0.1268770694732666,0.7595236301422119,0.21714237332344055,0.6084522008895874,-3.0065775337777083,0.0933344416632751,1.527269210845405,149.21238938053096,142.60619469026548,123.7184265010352,119.57142857142857,99.99166666666666,145.675,125.93891402714932,167.89819004524887,125.0,121.0,101.0,145.0,125.0,169.0,149.0,145.0
62,3.1,0.07460618019104004,0.18165898323059082,1.3990094661712646,0.13805365562438965,-1.6501924991607666,0.13129758834838867,0.7612635493278503,0.21942506730556488,0.6081284284591675,-3.00415868698357,0.09746213811587705,1.5267588992339631,149.15144766146994,142.61247216035636,123.69135802469135,119.6358024691358,100.0,145.7125,125.94784580498866,167.92290249433105,125.0,121.0,101.0,145.0,125.0,169.0,149.0,145.0
63,3.1500000000000004,0.07786393165588379,0.18641948699951172,1.3933756351470947,0.14241957664489746,-1.6534068584442139,0.1358504295349121,0.7630451321601868,0.22180652618408203,0.6078017950057983,-3.0015042548192574,0.10166654311067783,1.5262734381050682,149.1380846325167,142.5924276169265,123.67008196721312,119.67008196721312,100.01673640167364,145.7489539748954,126.00228832951944,167.86270022883295,125.0,121.0,101.0,145.0,125.0,169.0,149.0,145.0
64,3.2,0.08096480369567871,0.19103598594665527,1.3881208896636963,0.14632892608642578,-1.6565229892730713,0.14009571075439453,0.7647883892059326,0.22408516705036163,0.6073656678199768,-2.9990579608855814,0.10572567895122263,1.525923005172385,149.06741573033707,142.57977528089887,123.67008196721312,119.67008196721312,100.02494802494803,145.87110187110187,126.01605504587155,167.88532110091742,125.0,121.0,101.0,145.0,125.0,169.0,149.0,145.0
65,3.25,0.08382916450500488,0.1948080062866211,1.3836662769317627,0.14998316764831543,-1.6593339443206787,0.14416956901550293,0.7660983204841614,0.22618365287780762,0.6070735454559326,-2.996885727284075,0.10943882315090356,1.5254495300879587,149.01360544217687,142.47619047619048,123.67008196721312,119.67008196721312,100.01255230125523,145.79707112970712,126.00229357798165,167.79128440366972,125.0,121.0,101.0,145.0,125.0,169.0,149.0,145.0
66,3.3000000000000003,0.08649802207946777,0.198822021484375,1.379014253616333,0.15357589721679688,-1.6619312763214111,0.14813947677612305,0.7675874829292297,0.22817452251911163,0.6067152619361877,-2.994710379424151,0.11294158941743572,1.5248676442250932,149.01360544217687,142.47619047619048,123.67008196721312,119.67008196721312,100.02282157676349,145.89626556016597,126.03917050691244,167.81336405529953,125.0,121.0,101.0,145.0,125.0,169.0,149.0,145.0
67,3.35,0.08928918838500977,0.20257043838500977,1.3745052814483643,0.1572434902191162,-1.664646863937378,0.15224313735961914,0.7688913345336914,0.23024603724479675,0.6064581871032715,-2.9926377443292305,0.11659127179563503,1.524303383995827,149.00456621004565,142.39954337899545,123.67008196721312,119.67008196721312,100.02282157676349,145.89626556016597,126.0554272517321,167.64665127020785,125.0,121.0,101.0,145.0,125.0,169.0,149.0,145.0
68,3.4000000000000004,0.09175491333007812,0.2060837745666504,1.3707869052886963,0.15991735458374023,-1.6671769618988037,0.15600991249084473,0.7701683640480042,0.23208259046077728,0.6059419512748718,-2.990959415835455,0.11996279872486887,1.5236842039381149,149.00456621004565,142.39954337899545,123.64476386036961,119.67351129363449,100.04149377593362,145.98340248962654,126.06279069767442,167.71627906976744,125.0,121.0,101.0,145.0,125.0,169.0,149.0,145.0
69,3.45,0.09468770027160645,0.2096099853515625,1.3667047023773193,0.16315603256225586,-1.6700923442840576,0.1603684425354004,0.7713194489479065,0.23425355553627014,0.6056046485900879,-2.989215786207165,0.12384478440085141,1.5230396873457246,148.99545454545455,142.35454545454544,123.64476386036961,119.67351129363449,100.06418219461698,145.99585921325053,126.06744186046511,167.66976744186047,125.0,121.0,101.0,145.0,125.0,169.0,149.0,145.0
70,3.5,0.09773826599121094,0.21316766738891602,1.3626377582550049,0.1663365364074707,-1.6731812953948975,0.1650221347808838,0.7724568843841553,0.23651251196861267,0.6052335500717163,-2.987574120331966,0.12795418975597853,1.522258644974052,148.9502262443439,142.26470588235293,123.61934156378601,119.67078189300412,100.0703933747412,146.09316770186336,126.03720930232558,167.62790697674419,125.0,121.0,101.0,145.0,125.0,169.0,149.0,145.0
71,3.5500000000000003,0.10057544708251953,0.21580910682678223,1.3595373630523682,0.1689765453338623,-1.6759707927703857,0.16953158378601074,0.773142397403717,0.2385917454957962,0.6049925088882446,-2.986391473177938,0.13168706289823437,1.5213102270861258,148.92378752886836,142.07621247113164,123.61649484536082,119.64536082474227,100.09937888198758,146.0103519668737,126.08120649651973,167.54988399071925,125.0,121.0,101.0,145.0,125.0,169.0,149.0,145.0
72,3.6,0.1030111312866211,0.21852350234985352,1.3558752536773682,0.17193078994750977,-1.6783287525177002,0.1735062599182129,0.7739751935005188,0.24040916562080383,0.6050282120704651,-2.985272716846427,0.13489861882934748,1.520412046159531,148.9351851851852,142.05092592592592,123.59420289855072,119.61904761904762,100.14553014553015,146.03118503118503,126.15617715617715,167.36829836829835,125.0,121.0,101.0,145.0,125.0,169.0,149.0,145.0
73,3.6500000000000004,0.10542941093444824,0.22106409072875977,1.3529226779937744,0.1739177703857422,-1.6808745861053467,0.1774599552154541,0.7747583389282227,0.24219514429569244,0.6048135757446289,-2.9846277806656687,0.1382338080726338,1.5194956661153534,148.92378752886836,142.07621247113164,123.58471074380165,119.69421487603306,100.15899581589959,146.21757322175733,126.17136150234742,167.5281690140845,125.0,121.0,101.0,145.0,125.0,169.0,149.0,145.0
74,3.7,0.10796475410461426,0.22308611869812012,1.349973440170288,0.17653179168701172,-1.6833956241607666,0.1814873218536377,0.775185763835907,0.24404777586460114,0.6049553751945496,-2.983903599152208,0.1415805561661407,1.5186410272736413,148.830626450116,141.9721577726218,123.56846473029046,119.62033195020747,100.18333333333334,146.18333333333334,126.16822429906541,167.34345794392524,125.0,121.0,101.0,145.0,125.0,169.0,149.0,145.0
75,3.75,0.11027073860168457,0.22470712661743164,1.347830057144165,0.17824053764343262,-1.6857426166534424,0.18548917770385742,0.7754802703857422,0.24572241306304932,0.6049605011940002,-2.983668657942677,0.1446781072585438,1.5174887273676052,148.78240740740742,141.91666666666666,123.56846473029046,119.62033195020747,100.18371607515658,146.20876826722338,126.2196261682243,167.33878504672896,125.0,121.0,101.0,145.0,125.0,169.0,149.0,145.0
76,3.8000000000000003,0.11240696907043457,0.2263782024383545,1.3454043865203857,0.18023371696472168,-1.6878554821014404,0.18918061256408691,0.7758345007896423,0.24729037284851074,0.605080246925354,-2.9833151652994467,0.14751140099382218,1.5164492152189963,148.7953488372093,141.84651162790698,123.54488517745303,119.55949895615866,100.2029288702929,146.22594142259413,126.24882629107981,167.2018779342723,125.0,121.0,101.0,145.0,125.0,169.0,149.0,145.0
77,3.85,0.1146080493927002,0.22774577140808105,1.3434498310089111,0.18163585662841797,-1.690108060836792,0.19300150871276855,0.7760411500930786,0.2488848865032196,0.6051845550537109,-2.983444936808646,0.15043367021642154,1.5153074849408434,148.7511737089202,141.82394366197184,123.46848739495799,119.61974789915966,100.2029288702929,146.22594142259413,126.24882629107981,167.2018779342723,125.0,121.0,101.0,145.0,125.0,169.0,149.0,145.0
78,3.9000000000000004,0.11709761619567871,0.2293243408203125,1.341186285018921,0.18327832221984863,-1.6924984455108643,0.1970834732055664,0.776283860206604,0.25070881843566895,0.6053022742271423,-2.9835138755123505,0.15355795627831054,1.5142380258569257,148.7764705882353,141.81176470588235,123.46750524109015,119.64570230607967,100.25210084033614,146.2310924369748,126.30679156908666,167.18266978922716,125.0,121.0,101.0,145.0,125.0,169.0,149.0,145.0
79,3.95,0.1196742057800293,0.23105335235595703,1.338681936264038,0.18503808975219727,-1.6950795650482178,0.20125722885131836,0.7765895128250122,0.25259503722190857,0.6054491996765137,-2.9836249056810655,0.15688746084550947,1.5131983089591616,148.75,141.8066037735849,123.45073375262055,119.69392033542977,100.27672955974843,146.28511530398322,126.30679156908666,167.18266978922716,125.0,121.0,101.0,145.0,125.0,169.0,149.0,145.0
80,4.0,0.12226009368896484,0.23260951042175293,1.3363993167877197,0.18673014640808105,-1.6976687908172607,0.205519437789917,0.7767874002456665,0.25447821617126465,0.6055942177772522,-2.9837947214060336,0.16023425604439714,1.512077676573978,148.7570754716981,141.69811320754718,123.45073375262055,119.69392033542977,100.28781512605042,146.35504201680672,126.32710280373831,167.16355140186917,125.0,121.0,101.0,145.0,125.0,169.0,149.0,145.0
81,4.05,0.12470412254333496,0.2336900234222412,1.3342955112457275,0.1884315013885498,-1.700084924697876,0.2095935344696045,0.7767637372016907,0.25623685121536255,0.6060025691986084,-2.984216105451165,0.1633299986710544,1.5109284970862829,148.70352941176472,141.61176470588236,123.43697478991596,119.67226890756302,100.30105263157894,146.37684210526317,126.35362997658079,167.1545667447307,125.0,121.0,101.0,145.0,125.0,169.0,149.0,145.0
82,4.1000000000000005,0.12709784507751465,0.23455119132995605,1.3320491313934326,0.19037127494812012,-1.7023522853851318,0.21362972259521484,0.7766294479370117,0.2579573094844818,0.6066596508026123,-2.9847491266762156,0.166251531757254,1.5097221133531413,148.56769596199524,141.45368171021377,123.43008474576271,119.56991525423729,100.29894736842105,146.33052631578948,126.41258741258741,167.06526806526807,125.0,121.0,101.0,145.0,125.0,169.0,149.0,145.0
83,4.15,0.1290278434753418,0.23551201820373535,1.329591989517212,0.19237446784973145,-1.7040579319000244,0.2170403003692627,0.7766660451889038,0.25937581062316895,0.6073571443557739,-2.985134234229745,0.1685219249368537,1.5085812769627673,148.56428571428572,141.36190476190475,123.43008474576271,119.56991525423729,100.35805084745763,146.3050847457627,126.46713615023474,166.981220657277,125.0,121.0,101.0,145.0,125.0,169.0,149.0,145.0
84,4.2,0.13077998161315918,0.2364506721496582,1.3271105289459229,0.1942915916442871,-1.7056753635406494,0.22025227546691895,0.7767460346221924,0.26066455245018005,0.6080935001373291,-2.9856114178187143,0.1706511201749119,1.5074254572390178,148.49521531100478,141.26076555023923,123.43008474576271,119.56991525423729,100.43283582089552,146.317697228145,126.49411764705883,166.97411764705882,125.0,121.0,101.0,145.0,125.0,169.0,149.0,145.0
85,4.25,0.13220858573913574,0.23716259002685547,1.3246567249298096,0.196333646774292,-1.7069766521453857,0.22315335273742676,0.7767734527587891,0.26171547174453735,0.6089802980422974,-2.9860620384627867,0.1724102733507119,1.5061945973088886,148.38701923076923,141.27644230769232,123.40976645435244,119.55414012738854,100.4796573875803,146.31263383297645,126.46445497630332,166.91232227488152,125.0,121.0,101.0,145.0,125.0,169.0,149.0,145.0
86,4.3,0.13350200653076172,0.23785853385925293,1.322596788406372,0.19802093505859375,-1.7081749439239502,0.22608208656311035,0.776821494102478,0.26267167925834656,0.6096468567848206,-2.986480814183549,0.1740797124571398,1.504788712934982,148.3468899521531,141.244019138756,123.3482905982906,119.58333333333333,100.51605995717345,146.3254817987152,126.54739336492891,166.8436018957346,125.0,121.0,101.0,145.0,125.0,169.0,149.0,145.0
87,4.3500000000000005,0.1347808837890625,0.2387242317199707,1.3205068111419678,0.19962763786315918,-1.7093617916107178,0.22877073287963867,0.7769660949707031,0.26363033056259155,0.610200822353363,-2.986802255592985,0.17571433448344417,1.5036172420491725,148.27884615384616,141.11778846153845,123.32334047109208,119.59100642398288,100.57995735607676,146.36247334754796,126.61666666666666,166.77857142857144,125.0,121.0,101.0,145.0,125.0,169.0,149.0,145.0
88,4.4,0.1358168125152588,0.23943114280700684,1.3185827732086182,0.20113515853881836,-1.710313081741333,0.23108530044555664,0.7770851254463196,0.2644093930721283,0.6107810139656067,-2.9871107916691355,0.177043198903307,1.5025254905335037,148.27884615384616,141.11778846153845,123.30472103004291,119.60944206008584,100.66098081023455,146.4179104477612,126.65071770334929,166.70334928229664,125.0,121.0,101.0,145.0,125.0,169.0,149.0,145.0
89,4.45,0.13677024841308594,0.23995518684387207,1.316992998123169,0.2023482322692871,-1.711256742477417,0.23332643508911133,0.7771329879760742,0.2651122510433197,0.6113152503967285,-2.987554391211581,0.17832385672676068,1.5013970431783403,148.27884615384616,141.11778846153845,123.3125,119.65517241379311,100.68736616702355,146.46038543897217,126.7277108433735,166.70361445783132,125.0,121.0,101.0,145.0,125.0,169.0,149.0,145.0
90,4.5,0.1377251148223877,0.24053072929382324,1.3153221607208252,0.20363783836364746,-1.7122328281402588,0.23552799224853516,0.777204692363739,0.26581740379333496,0.6118533611297607,-2.98795462468072,0.17963858981237157,1.500323094021566,148.22966507177034,141.10047846889952,123.3125,119.65517241379311,100.68736616702355,146.46038543897217,126.75603864734299,166.70048309178745,125.0,121.0,101.0,145.0,125.0,169.0,149.0,145.0
91,4.55,0.138685941696167,0.24121427536010742,1.31351637840271,0.205033540725708,-1.7132017612457275,0.2377455234527588,0.7773274779319763,0.2665363550186157,0.612383246421814,-2.9882812833900805,0.18096583489272217,1.499251977766724,148.19230769230768,141.0625,123.27982646420824,119.67245119305856,100.71153846153847,146.47008547008548,126.76941747572816,166.64805825242718,125.0,121.0,101.0,145.0,125.0,169.0,149.0,145.0
92,4.6000000000000005,0.13962864875793457,0.24188804626464844,1.3117616176605225,0.20636534690856934,-1.7141497135162354,0.2399446964263916,0.7774509787559509,0.2672431468963623,0.6128926873207092,-2.9886292167758843,0.18226415012337266,1.4981727066466801,148.17349397590363,141.0433734939759,123.15800865800865,119.7965367965368,100.70235546038543,146.53961456102783,126.77372262773723,166.62043795620437,125.0,121.0,101.0,145.0,125.0,169.0,149.0,145.0
93,4.65,0.14070439338684082,0.24255013465881348,1.3100450038909912,0.20767760276794434,-1.7151515483856201,0.24217987060546875,0.7775312662124634,0.2680482864379883,0.6133891940116882,-2.988992367739721,0.18362158074256987,1.4971997111544808,148.15738498789347,141.00968523002422,123.12826086956522,119.81086956521739,100.74304068522484,146.56745182012847,126.80195599022005,166.60146699266502,125.0,121.0,101.0,145.0,125.0,169.0,149.0,145.0
94,4.7,0.14176487922668457,0.24316787719726562,1.3083384037017822,0.20899271965026855,-1.7161357402801514,0.244384765625,0.7775909304618835,0.2688397765159607,0.6139148473739624,-2.9893846820998964,0.1849494993482631,1.496232021311939,148.12408759124088,140.992700729927,123.15468409586056,119.87145969498911,100.8051391862955,146.63169164882228,126.76412776412776,166.56265356265357,125.0,121.0,101.0,145.0,125.0,169.0,149.0,145.0
95,4.75,0.14267301559448242,0.24355244636535645,1.3070123195648193,0.21006059646606445,-1.7170274257659912,0.2465348243713379,0.7775639891624451,0.269503116607666,0.6143985986709595,-2.989850091550226,0.18615606627820694,1.4951337290154896,148.12652068126522,140.94403892944038,123.15468409586056,119.87145969498911,100.82692307692308,146.64529914529913,126.76412776412776,166.56265356265357,125.0,121.0,101.0,145.0,125.0,169.0,149.0,145.0
96,4.800000000000001,0.14354944229125977,0.24383759498596191,1.3056724071502686,0.21117138862609863,-1.7178890705108643,0.24870777130126953,0.7774916887283325,0.2701372802257538,0.614967405796051,-2.9903887180795077,0.1873209679611501,1.49396203794372,148.09046454767727,140.90709046454768,123.08260869565217,119.86086956521739,100.84796573875803,146.62955032119913,126.76412776412776,166.56265356265357,125.0,121.0,101.0,145.0,125.0,169.0,149.0,145.0
97,4.8500000000000005,0.14449810981750488,0.244215726852417,1.3041326999664307,0.2124333381652832,-1.718759298324585,0.2509315013885498,0.7774477601051331,0.27083563804626465,0.6155789494514465,-2.9908984602527737,0.18851095842661528,1.4928208060083263,148.0562347188264,140.8753056234719,123.0806100217865,119.9041394335512,100.86480686695279,146.60944206008583,126.76412776412776,166.56265356265357,125.0,121.0,101.0,145.0,125.0,169.0,149.0,145.0
98,4.9,0.1454308032989502,0.24472832679748535,1.3024466037750244,0.21381568908691406,-1.7196142673492432,0.2531697750091553,0.777472734451294,0.2715325653553009,0.6161664128303528,-2.9913023342794514,0.18971220068010158,1.4916659837119581,148.0514705882353,140.84803921568627,122.98030634573304,119.91466083150985,100.89200863930886,146.6025917926566,126.83251231527093,166.51477832512316,125.0,121.0,101.0,145.0,125.0,169.0,149.0,145.0
99,4.95,0.14648699760437012,0.24541711807250977,1.3005592823028564,0.2152717113494873,-1.7205564975738525,0.25539660453796387,0.7775638103485107,0.2723321318626404,0.6167376637458801,-2.9916798479485878,0.1910062722663563,1.4906678849826624,148.0244498777506,140.8435207823961,122.92527472527472,119.97362637362637,100.95217391304348,146.6108695652174,126.89382716049383,166.45925925925926,125.0,121.0,101.0,145.0,125.0,169.0,149.0,145.0
100,5.0,0.14754462242126465,0.24623489379882812,1.298675775527954,0.2166738510131836,-1.7215282917022705,0.25754284858703613,0.7777221202850342,0.27313971519470215,0.6172075271606445,-2.9919758049210246,0.19233270483727521,1.489770379956059,147.95331695331694,140.84520884520884,122.92256637168141,120.01327433628319,100.96949891067538,146.67538126361657,126.91379310344827,166.4384236453202,125.0,121.0,101.0,145.0,125.0,169.0,149.0,145.0
101,5.050000000000001,0.14855051040649414,0.2469635009765625,1.2969586849212646,0.21798443794250488,-1.7224524021148682,0.2596597671508789,0.7778417468070984,0.27390387654304504,0.6176472902297974,-2.992274084015212,0.19360453613798606,1.488840518182471,147.91604938271604,140.8074074074074,122.9490022172949,120.01330376940133,101.00653594771242,146.69281045751634,126.91379310344827,166.4384236453202,125.0,121.0,101.0,145.0,125.0,169.0,149.0,145.0
102,5.1000000000000005,0.14947223663330078,0.2476215362548828,1.2952754497528076,0.21930837631225586,-1.7233083248138428,0.2617530822753906,0.7779413461685181,0.27460306882858276,0.6181207895278931,-2.992581052714257,0.19480189609001192,1.4878345618607234,147.8641975308642,140.7925925925926,122.91130820399113,120.03769401330376,101.03275109170306,146.69650655021834,126.91379310344827,166.4384236453202,125.0,121.0,101.0,145.0,125.0,169.0,149.0,145.0
103,5.15,0.15040183067321777,0.24834513664245605,1.2935316562652588,0.22069168090820312,-1.7241528034210205,0.2638571262359619,0.7780682444572449,0.2753148078918457,0.6185752153396606,-2.992827378057491,0.1960039870821439,1.4868359455403946,147.83622828784118,140.75434243176178,122.88839285714286,120.109375,101.14725274725275,146.74285714285713,126.96039603960396,166.34653465346534,125.0,121.0,101.0,145.0,125.0,169.0,149.0,145.0
104,5.2,0.15119504928588867,0.2489933967590332,1.2920477390289307,0.2218484878540039,-1.7249329090118408,0.2657740116119385,0.7781946659088135,0.27592000365257263,0.6189368367195129,-2.9930665845481226,0.1971076135528002,1.4858722607321597,147.77,140.7325,122.85682326621924,120.17897091722595,101.18061674008811,146.7797356828194,126.98263027295286,166.36228287841192,125.0,121.0,101.0,145.0,125.0,169.0,149.0,145.0
105,5.25,0.1519613265991211,0.24967455863952637,1.290543794631958,0.2230668067932129,-1.7256724834442139,0.2676372528076172,0.7783372402191162,0.276509553194046,0.6192793846130371,-2.9932165093028886,0.19818126286226892,1.4849430014743061,147.7070707070707,140.66666666666666,122.83035714285714,120.17633928571429,101.18061674008811,146.7797356828194,126.98263027295286,166.36228287841192,125.0,121.0,101.0,145.0,125.0,169.0,149.0,145.0
106,5.300000000000001,0.1527106761932373,0.2503688335418701,1.288959264755249,0.22437286376953125,-1.7263567447662354,0.2694857120513916,0.7784857749938965,0.2770925760269165,0.6196559071540833,-2.9933338120867754,0.19920505130669947,1.4840081537088514,147.67002518891687,140.5969773299748,122.83035714285714,120.17633928571429,101.2043956043956,146.76703296703297,127.0272952853598,166.34491315136475,125.0,121.0,101.0,145.0,125.0,169.0,149.0,145.0
107,5.3500000000000005,0.15341424942016602,0.25110721588134766,1.2872679233551025,0.22576379776000977,-1.7269952297210693,0.27127599716186523,0.7786678075790405,0.27764779329299927,0.6200587749481201,-2.9934093910019723,0.20018214020655128,1.4830843022784836,147.67171717171718,140.5681818181818,122.80846325167037,120.19153674832963,101.26106194690266,146.7920353982301,127.0525,166.285,125.0,121.0,101.0,145.0,125.0,169.0,149.0,145.0
108,5.4,0.15408778190612793,0.25179076194763184,1.2856733798980713,0.22705340385437012,-1.7276322841644287,0.27303385734558105,0.7788323760032654,0.2781760096549988,0.6204512715339661,-2.9935408617271877,0.20113915632008858,1.482150248060004,147.6886075949367,140.54430379746836,122.80444444444444,120.21777777777778,101.31263858093126,146.82926829268294,127.0525,166.285,125.0,121.0,101.0,145.0,125.0,169.0,149.0,145.0
109,5.45,0.15472817420959473,0.25239133834838867,1.2841236591339111,0.22833514213562012,-1.7282540798187256,0.27478504180908203,0.7789602279663086,0.2786731719970703,0.6208820939064026,-2.9937154650004576,0.20206944592165416,1.4811789908454598,147.66666666666666,140.52777777777777,122.77951002227171,120.20935412026726,101.31111111111112,146.85555555555555,127.02756892230576,166.2731829573935,125.0,121.0,101.0,145.0,125.0,169.0,149.0,145.0
110,5.5,0.15538883209228516,0.25292181968688965,1.2826063632965088,0.22960519790649414,-1.7288711071014404,0.27660322189331055,0.779045581817627,0.27918195724487305,0.6213493943214417,-2.993954606574162,0.20299287294711604,1.4801493482898247,147.66666666666666,140.52777777777777,122.75446428571429,120.21875,101.3207126948775,146.83073496659242,127.04020100502512,166.19346733668343,125.0,121.0,101.0,145.0,125.0,169.0,149.0,145.0
111,5.550000000000001,0.1560988426208496,0.25354433059692383,1.2810823917388916,0.23079323768615723,-1.7295582294464111,0.2784912586212158,0.7791732549667358,0.27973243594169617,0.6217532753944397,-2.9942237667336964,0.20399412063250086,1.4791089643049387,147.60152284263958,140.4720812182741,122.70535714285714,120.20982142857143,101.31111111111112,146.85555555555555,127.09045226130654,166.16331658291458,125.0,121.0,101.0,145.0,125.0,169.0,149.0,145.0
112,5.6000000000000005,0.1568279266357422,0.254169225692749,1.2795016765594482,0.2320261001586914,-1.7302162647247314,0.2803480625152588,0.779296338558197,0.28030070662498474,0.6221875548362732,-2.994491740881428,0.20496136082483002,1.4781130480994715,147.59240506329115,140.44556962025317,122.70535714285714,120.20982142857143,101.34298440979956,146.92650334075725,127.11838790931989,166.15617128463475,125.0,121.0,101.0,145.0,125.0,169.0,149.0,145.0
113,5.65,0.157517671585083,0.2546257972717285,1.2780296802520752,0.2332165241241455,-1.7308385372161865,0.2821846008300781,0.7793399691581726,0.2808273732662201,0.6226919293403625,-2.994852692766743,0.2058645569826139,1.4770714757028083,147.5699745547074,140.39440203562341,122.68232662192393,120.22371364653245,101.39149888143177,146.94854586129753,127.12280701754386,166.1002506265664,125.0,121.0,101.0,145.0,125.0,169.0,149.0,145.0
114,5.7,0.15815234184265137,0.25500988960266113,1.2766687870025635,0.23430848121643066,-1.7314198017120361,0.2839694023132324,0.7793622016906738,0.2813089191913605,0.6231896877288818,-2.99525406637573,0.20670504557256203,1.4760085071659736,147.529262086514,140.38167938931298,122.68232662192393,120.22371364653245,101.39149888143177,146.94854586129753,127.1859296482412,166.06532663316582,125.0,121.0,101.0,145.0,125.0,169.0,149.0,145.0
115,5.75,0.15879583358764648,0.25547313690185547,1.2752296924591064,0.23543167114257812,-1.7320163249969482,0.28575682640075684,0.7794247269630432,0.28180330991744995,0.6236706376075745,-2.995628863811016,0.2075689776145175,1.474960452580709,147.529262086514,140.38167938931298,122.65842696629214,120.27191011235955,101.39149888143177,146.94854586129753,127.1859296482412,166.06532663316582,125.0,121.0,101.0,145.0,125.0,169.0,149.0,145.0
116,5.800000000000001,0.15949463844299316,0.2560131549835205,1.2736952304840088,0.23662328720092773,-1.7326595783233643,0.28761935234069824,0.7795110940933228,0.28234338760375977,0.6241458654403687,-2.9959850697726957,0.20850056090966856,1.473907812135536,147.5484693877551,140.35969387755102,122.65842696629214,120.27191011235955,101.41741071428571,146.95535714285714,127.21158690176323,166.07556675062972,125.0,121.0,101.0,145.0,125.0,169.0,149.0,145.0
117,5.8500000000000005,0.1602015495300293,0.25655174255371094,1.2720520496368408,0.23790764808654785,-1.733318567276001,0.28951573371887207,0.7795925736427307,0.2828885316848755,0.624687135219574,-2.9963728793137774,0.20944692051172967,1.4728272512317733,147.48586118251927,140.33676092544988,122.65842696629214,120.27191011235955,101.40715883668904,146.9798657718121,127.25380710659898,166.0482233502538,125.0,121.0,101.0,145.0,125.0,169.0,149.0,145.0
118,5.9,0.16089510917663574,0.2570936679840088,1.2704036235809326,0.23919916152954102,-1.733952283859253,0.29140400886535645,0.7796773910522461,0.28342586755752563,0.6252274513244629,-2.996751002302865,0.21036726444431142,1.471738442677433,147.43927648578813,140.31007751937983,122.6410835214447,120.30474040632055,101.44295302013423,147.0178970917226,127.3650385604113,165.9897172236504,125.0,121.0,101.0,145.0,125.0,169.0,149.0,145.0
119,5.95,0.1615581512451172,0.2576878070831299,1.2687809467315674,0.24044513702392578,-1.7345802783966064,0.2931652069091797,0.7797988653182983,0.28394344449043274,0.6257117390632629,-2.997070846387329,0.21127263880457195,1.4707525975745124,147.43927648578813,140.31007751937983,122.59410430839003,120.31519274376417,101.48314606741573,147.05168539325842,127.37948717948719,165.96410256410257,125.0,121.0,101.0,145.0,125.0,169.0,149.0,145.0
120,6.0,0.16225218772888184,0.258242130279541,1.267197847366333,0.24165034294128418,-1.7352383136749268,0.2949559688568115,0.7798929810523987,0.28447985649108887,0.6262063384056091,-2.997447823029836,0.2121998670482499,1.4697635979480477,147.43410852713177,140.2532299741602,122.59410430839003,120.31519274376417,101.48988764044944,147.08988764044943,127.39845758354755,165.98457583547557,125.0,121.0,101.0,145.0,125.0,169.0,149.0,145.0
121,6.050000000000001,0.16292452812194824,0.25870251655578613,1.2655584812164307,0.24294757843017578,-1.735853910446167,0.2967381477355957,0.7799379825592041,0.2849949300289154,0.6268073320388794,-2.9978740960707784,0.21306910290381526,1.4687423143835916,147.4315245478036,140.21963824289406,122.55227272727272,120.38181818181818,101.55855855855856,147.1081081081081,127.45854922279793,165.86528497409327,125.0,121.0,101.0,145.0,125.0,169.0,149.0,145.0
122,6.1000000000000005,0.16356921195983887,0.2591891288757324,1.2640717029571533,0.24404692649841309,-1.7364952564239502,0.298429012298584,0.7800134420394897,0.28548887372016907,0.6273021697998047,-2.9983068498527436,0.21394337485901466,1.467785060025409,147.32987012987013,140.23116883116884,122.55227272727272,120.42954545454545,101.5665914221219,147.1331828442438,127.45854922279793,165.86528497409327,125.0,121.0,101.0,145.0,125.0,169.0,149.0,145.0
123,6.15,0.16418099403381348,0.2597219944000244,1.2626192569732666,0.24515390396118164,-1.7370960712432861,0.30011820793151855,0.7801159024238586,0.2859644591808319,0.6277340054512024,-2.998643616602677,0.21480242803239463,1.466809161641438,147.32987012987013,140.23116883116884,122.49427917620137,120.47368421052632,101.54298642533936,147.14705882352942,127.47272727272727,165.83896103896103,125.0,121.0,101.0,145.0,125.0,169.0,149.0,145.0
124,6.2,0.16489124298095703,0.26032304763793945,1.2610957622528076,0.24628877639770508,-1.737766981124878,0.30188822746276855,0.7802280187606812,0.28651756048202515,0.6281570196151733,-2.9989955004790296,0.21574577298789394,1.4658643619190967,147.31770833333334,140.20572916666666,122.49427917620137,120.47368421052632,101.57954545454545,147.1818181818182,127.47272727272727,165.83896103896103,125.0,121.0,101.0,145.0,125.0,169.0,149.0,145.0
125,6.25,0.16556596755981445,0.2608327865600586,1.2596180438995361,0.24741458892822266,-1.7384073734283447,0.30365943908691406,0.780299961566925,0.28703781962394714,0.6286245584487915,-2.99939643758878,0.21664494536432916,1.4648663322329802,147.29090909090908,140.1974025974026,122.41780821917808,120.48858447488584,101.57954545454545,147.1818181818182,127.47272727272727,165.83896103896103,125.0,121.0,101.0,145.0,125.0,169.0,149.0,145.0
126,6.300000000000001,0.16633057594299316,0.26142072677612305,1.2580187320709229,0.2486274242401123,-1.7390892505645752,0.30550098419189453,0.7803854942321777,0.28763142228126526,0.629101574420929,-2.9997844915341934,0.21760401163911672,1.46390141126315,147.29090909090908,140.1974025974026,122.4233409610984,120.51487414187643,101.60364464692483,147.16856492027335,127.45833333333333,165.81510416666666,125.0,121.0,101.0,145.0,125.0,169.0,149.0,145.0
127,6.3500000000000005,0.1670980453491211,0.2620518207550049,1.2564022541046143,0.24982976913452148,-1.7397973537445068,0.30740785598754883,0.7804940938949585,0.28822991251945496,0.6295549869537354,-3.000180384868824,0.21860101967413326,1.4628797672070284,147.1942257217848,140.24409448818898,122.41055045871559,120.59174311926606,101.64611872146119,147.22374429223746,127.45833333333333,165.81510416666666,125.0,121.0,101.0,145.0,125.0,169.0,149.0,145.0
128,6.4,0.16782283782958984,0.26268887519836426,1.2549374103546143,0.2509620189666748,-1.740473985671997,0.3092975616455078,0.7806112170219421,0.28879719972610474,0.6299082636833191,-3.0004803021612294,0.2195888944669019,1.4618465365604416,147.21052631578948,140.1657894736842,122.38390804597701,120.59540229885057,101.6590909090909,147.27272727272728,127.45833333333333,165.81510416666666,125.0,121.0,101.0,145.0,125.0,169.0,149.0,145.0
129,6.45,0.1685349941253662,0.26317882537841797,1.2534830570220947,0.2521235942840576,-1.7411110401153564,0.3111741542816162,0.7806522250175476,0.2893451452255249,0.6303737163543701,-3.0008775600265807,0.22050626024445646,1.4607837493285933,147.13829787234042,140.125,122.33025404157044,120.5958429561201,101.68564920273349,147.26651480637813,127.45833333333333,165.81510416666666,125.0,121.0,101.0,145.0,125.0,169.0,149.0,145.0
130,6.5,0.16924262046813965,0.26372575759887695,1.2519428730010986,0.25336766242980957,-1.7417042255401611,0.31302905082702637,0.7807186245918274,0.28989851474761963,0.6308408379554749,-3.0012077831726622,0.221394226068479,1.4597439839617115,147.16137566137567,140.07142857142858,122.30787037037037,120.58101851851852,101.71689497716895,147.29908675799086,127.4453125,165.76041666666666,125.0,121.0,101.0,145.0,125.0,169.0,149.0,145.0
131,6.550000000000001,0.16993069648742676,0.26412081718444824,1.250525712966919,0.2544987201690674,-1.7422816753387451,0.3148949146270752,0.7807168364524841,0.29042577743530273,0.6313607692718506,-3.0016789230920167,0.22222850674358938,1.458640098568483,147.11968085106383,140.0372340425532,122.30787037037037,120.58101851851852,101.79176201372998,147.3066361556064,127.49479166666667,165.74739583333334,125.0,121.0,101.0,145.0,125.0,169.0,149.0,145.0
132,6.6000000000000005,0.1705331802368164,0.26453232765197754,1.2490894794464111,0.25565552711486816,-1.7428057193756104,0.31666064262390137,0.7807438373565674,0.29089170694351196,0.6318759918212891,-3.002091737015137,0.22300390804890272,1.4575496590218397,147.1058201058201,139.9814814814815,122.2830626450116,120.5707656612529,101.81506849315069,147.31963470319636,127.53125,165.70833333333334,125.0,121.0,101.0,145.0,125.0,169.0,149.0,145.0
133,6.65,0.17112231254577637,0.2649202346801758,1.2476322650909424,0.25681138038635254,-1.7433130741119385,0.3183934688568115,0.7807642221450806,0.2913467288017273,0.6324236392974854,-3.0025387525609277,0.22374577296966147,1.4564662274118827,147.04266666666666,139.896,122.23720930232558,120.63255813953488,101.8675799086758,147.324200913242,127.57552083333333,165.66927083333334,125.0,121.0,101.0,145.0,125.0,169.0,149.0,145.0
134,6.7,0.17165350914001465,0.26537609100341797,1.246145486831665,0.2579951286315918,-1.7437598705291748,0.3199882507324219,0.7808324694633484,0.29176709055900574,0.632931113243103,-3.0028747906787787,0.22442978208508682,1.4554710909864885,147.04266666666666,139.896,122.2046511627907,120.66976744186047,101.95612009237875,147.39953810623555,127.60471204188482,165.61780104712042,125.0,121.0,101.0,145.0,125.0,169.0,149.0,145.0
