,t,q_1,q_2,q_3,q_4,q_5,q_6,camera_x,camera_y,camera_z,camera_roll,camera_pitch,camera_yaw,f_1,f_2,f_3,f_4,f_5,f_6,f_7,f_8,desired_f_1,desired_f_2,desired_f_3,desired_f_4,desired_f_5,desired_f_6,desired_f_7,desired_f_8
0,0.0,9.298324584960938e-06,-0.39263248443603516,1.963494062423706,7.200241088867188e-05,-1.5707952976226807,2.384185791015625e-07,0.4463264048099518,0.16906212270259857,0.5921618342399597,-3.141307778251266,0.00012221750102738726,1.5708379755145234,151.4127579737336,65.55722326454034,125.41947565543072,39.58052434456929,99.43609022556392,65.56390977443608,125.41275797373358,91.55722326454034,125.0,121.0,101.0,145.0,125.0,169.0,149.0,145.0
1,0.05,0.00379180908203125,-0.3909633159637451,1.9372875690460205,0.019928455352783203,-1.5718739032745361,0.02624058723449707,0.4468497335910797,0.1708519458770752,0.6071367263793945,3.1371203404247403,0.0010732468534580793,1.5483764007560192,149.82965931863728,67.84769539078157,123.97782258064517,43.104838709677416,99.22937625754527,68.95975855130784,125.06024096385542,93.75502008032129,125.0,121.0,101.0,145.0,125.0,169.0,149.0,145.0
2,0.1,0.007695198059082031,-0.3885929584503174,1.910426378250122,0.03945136070251465,-1.573256254196167,0.05314755439758301,0.44743186235427856,0.1726824939250946,0.6222350001335144,3.1320455947722268,0.0020685255104249773,1.5253567513751347,148.3787234042553,70.12340425531914,122.57446808510639,46.69787234042553,99.07838983050847,72.35593220338983,124.77215189873418,95.68565400843882,125.0,121.0,101.0,145.0,125.0,169.0,149.0,145.0
3,0.15000000000000002,0.011976480484008789,-0.38546156883239746,1.8831989765167236,0.058530569076538086,-1.5751287937164307,0.08093976974487305,0.4480709433555603,0.17465366423130035,0.6372652053833008,3.126842946368608,0.0032670721604120805,1.5018128179763761,146.73214285714286,72.36830357142857,121.20674157303371,50.17977528089887,98.77111111111111,75.59555555555555,124.50332594235033,97.8270509977827,125.0,121.0,101.0,145.0,125.0,169.0,149.0,145.0
4,0.2,0.01640605926513672,-0.3816092014312744,1.8556029796600342,0.07726740837097168,-1.5773627758026123,0.10942697525024414,0.4487795829772949,0.17667284607887268,0.6522295475006104,3.1215393602285344,0.0045219725417546324,1.4777016245897512,145.22823529411764,74.6,119.9,53.635714285714286,98.72641509433963,78.91745283018868,124.1355140186916,99.97429906542057,125.0,121.0,101.0,145.0,125.0,169.0,149.0,145.0
5,0.25,0.020867109298706055,-0.3772857189178467,1.8279435634613037,0.0954892635345459,-1.579918622970581,0.13854527473449707,0.4494664967060089,0.1786898821592331,0.6670428514480591,3.116001696000366,0.005763597965872718,1.4529688267040173,143.87128712871288,76.72277227722772,118.48641975308642,56.92098765432099,98.48648648648648,82.02457002457002,123.81508515815085,102.0,125.0,121.0,101.0,145.0,125.0,169.0,149.0,145.0
6,0.30000000000000004,0.025556325912475586,-0.37229037284851074,1.8000938892364502,0.11329436302185059,-1.5829112529754639,0.16831040382385254,0.4502200782299042,0.1807854026556015,0.6816795468330383,3.110366843924693,0.007106290308781802,1.4277895488976957,142.47792207792207,78.76883116883117,117.24869109947645,60.15183246073298,98.2609819121447,85.16795865633075,123.51275510204081,104.05102040816327,125.0,121.0,101.0,145.0,125.0,169.0,149.0,145.0
7,0.35000000000000003,0.030396461486816406,-0.36690831184387207,1.7724077701568604,0.1304924488067627,-1.586315393447876,0.19863367080688477,0.4509313404560089,0.18292421102523804,0.6960418224334717,3.104492270041966,0.008487242913876434,1.4021709043791228,141.1198910081744,80.96185286103542,115.97229916897507,63.3185595567867,98.0,88.13623978201635,123.22432432432433,106.0,125.0,121.0,101.0,145.0,125.0,169.0,149.0,145.0
8,0.4,0.03544116020202637,-0.3608427047729492,1.7445447444915771,0.14736509323120117,-1.5901572704315186,0.22957134246826172,0.4517557919025421,0.18513469398021698,0.7101865410804749,3.098581251800824,0.009955496916872593,1.3761082815286927,139.76770538243625,83.04532577903683,114.80635838150289,66.36127167630057,97.76966292134831,91.1067415730337,122.85915492957747,108.0,125.0,121.0,101.0,145.0,125.0,169.0,149.0,145.0
9,0.45,0.040540218353271484,-0.35446906089782715,1.716907262802124,0.16371393203735352,-1.5943634510040283,0.2609524726867676,0.452546089887619,0.1873500943183899,0.7240276336669922,3.0924606972993396,0.011394768705913267,1.3496195538828368,138.43026706231453,85.1513353115727,113.5,69.5,97.57478005865103,94.09970674486803,122.63112391930835,109.95677233429394,125.0,121.0,101.0,145.0,125.0,169.0,149.0,145.0
10,0.5,0.045697927474975586,-0.3475987911224365,1.689485788345337,0.17957282066345215,-1.5989525318145752,0.2927708625793457,0.45343536138534546,0.1895759105682373,0.7374750375747681,3.086309964638058,0.012861347922305866,1.3227159901968473,137.16615384615383,87.1876923076923,112.32298136645963,72.4472049689441,97.25679758308156,96.94259818731118,122.30211480362537,111.83987915407855,125.0,121.0,101.0,145.0,125.0,169.0,149.0,145.0
11,0.55,0.05104684829711914,-0.3403165340423584,1.6623284816741943,0.19495725631713867,-1.6039822101593018,0.3250279426574707,0.4543755054473877,0.19186797738075256,0.7505300641059875,3.0800668776921425,0.014397484197618509,1.2955230898856787,135.79611650485438,89.07766990291262,111.13592233009709,75.33333333333333,96.97777777777777,99.73650793650793,122.0,113.59748427672956,125.0,121.0,101.0,145.0,125.0,169.0,149.0,145.0
12,0.6000000000000001,0.056487321853637695,-0.33283543586730957,1.6358163356781006,0.2096691131591797,-1.6094133853912354,0.3576502799987793,0.45531439781188965,0.1941816508769989,0.7630569338798523,3.0736858702975165,0.015948703495245634,1.268014309803007,134.74172185430464,91.0,109.96938775510205,78.01360544217687,96.72025723472669,102.53054662379421,121.66019417475728,115.53074433656958,125.0,121.0,101.0,145.0,125.0,169.0,149.0,145.0
13,0.65,0.06194114685058594,-0.32526230812072754,1.6099283695220947,0.22382092475891113,-1.6151564121246338,0.3903622627258301,0.45621412992477417,0.19648471474647522,0.775107204914093,3.0671673016405694,0.017433158567951735,1.2403908229193383,133.52249134948096,92.93425605536332,108.96206896551725,80.97241379310344,96.52861952861953,105.20538720538721,121.38,117.39333333333333,125.0,121.0,101.0,145.0,125.0,169.0,149.0,145.0
14,0.7000000000000001,0.0675058364868164,-0.3175632953643799,1.5848019123077393,0.2373216152191162,-1.6213018894195557,0.42340970039367676,0.45712101459503174,0.19881851971149445,0.7865873575210571,3.060529245700629,0.01893756125329357,1.2124998279274515,132.23758865248226,94.78014184397163,107.84532374100719,83.62230215827338,96.17708333333333,107.92708333333333,121.01724137931035,119.0896551724138,125.0,121.0,101.0,145.0,125.0,169.0,149.0,145.0
15,0.75,0.07320618629455566,-0.3099637031555176,1.5607669353485107,0.2500162124633789,-1.6278374195098877,0.4566476345062256,0.45795029401779175,0.20118969678878784,0.7974064350128174,3.0537060708766486,0.020430022255534724,1.184509751631667,131.13553113553112,96.57142857142857,106.70260223048327,86.37174721189591,96.51624548736461,110.99638989169675,120.83450704225352,120.96830985915493,125.0,121.0,101.0,145.0,125.0,169.0,149.0,145.0
16,0.8,0.07838916778564453,-0.30363988876342773,1.5393860340118408,0.2610204219818115,-1.6344516277313232,0.48948121070861816,0.45828306674957275,0.2032799869775772,0.807208240032196,3.0463940419689837,0.02143746621075484,1.1563770221795622,130.04887218045113,98.39097744360902,105.51711026615969,88.83269961977186,95.68248175182482,113.02919708029196,120.5,122.65925925925926,125.0,121.0,101.0,145.0,125.0,169.0,149.0,145.0
17,0.8500000000000001,0.08363223075866699,-0.29596996307373047,1.5171611309051514,0.27256226539611816,-1.641298532485962,0.5223281383514404,0.4592819809913635,0.20543847978115082,0.816794753074646,3.039718141753507,0.022703137624865664,1.1282775857270357,128.98443579766536,100.13618677042801,104.53307392996109,91.4863813229572,95.38022813688212,115.59315589353612,120.12962962962963,124.47777777777777,125.0,121.0,101.0,145.0,125.0,169.0,149.0,145.0
18,0.9,0.08913612365722656,-0.28856515884399414,1.4962823390960693,0.28325986862182617,-1.6485426425933838,0.5552749633789062,0.460171103477478,0.20768983662128448,0.8256597518920898,3.0328486400423937,0.02399717510226348,1.100299775420949,127.86,101.884,103.56349206349206,93.91269841269842,95.19083969465649,117.98473282442748,119.82264150943396,126.03018867924528,125.0,121.0,101.0,145.0,125.0,169.0,149.0,145.0
19,0.9500000000000001,0.09444022178649902,-0.2814805507659912,1.4768002033233643,0.29315948486328125,-1.6559288501739502,0.5880568027496338,0.4610212743282318,0.2098405659198761,0.8338025808334351,3.0259423602024125,0.025145113445242753,1.072272550000405,126.81376518218623,103.53441295546558,102.5,96.304,94.75968992248062,120.34108527131782,119.5813953488372,127.6046511627907,125.0,121.0,101.0,145.0,125.0,169.0,149.0,145.0
20,1.0,0.0997323989868164,-0.2742311954498291,1.4582154750823975,0.30259227752685547,-1.663484811782837,0.6205871105194092,0.46207356452941895,0.21199950575828552,0.8412825465202332,3.019242554654652,0.026374354637505308,1.0444754359033928,125.90376569037657,105.10041841004184,101.58847736625515,98.75720164609054,94.58167330677291,122.62549800796813,119.31225296442688,129.31225296442688,125.0,121.0,101.0,145.0,125.0,169.0,149.0,145.0
21,1.05,0.10499978065490723,-0.2673323154449463,1.4410803318023682,0.3112480640411377,-1.6711976528167725,0.6528759002685547,0.4630788266658783,0.21413947641849518,0.8480351567268372,3.0125101894203437,0.02753926112766608,1.0168860170864376,124.91101694915254,106.80932203389831,100.57203389830508,101.0,94.35341365461848,125.02409638554217,119.0,130.8658536585366,125.0,121.0,101.0,145.0,125.0,169.0,149.0,145.0
22,1.1,0.10997962951660156,-0.26090574264526367,1.4254896640777588,0.31911635398864746,-1.6788952350616455,0.6846745014190674,0.46403056383132935,0.21614548563957214,0.8540707230567932,3.0058232175815887,0.028522521624466324,0.9895076282540302,123.93103448275862,108.24568965517241,99.6880341880342,103.21367521367522,94.09836065573771,127.2172131147541,118.65725806451613,132.43548387096774,125.0,121.0,101.0,145.0,125.0,169.0,149.0,145.0
23,1.1500000000000001,0.11506390571594238,-0.25517702102661133,1.4117510318756104,0.3259861469268799,-1.6867725849151611,0.7162315845489502,0.46476250886917114,0.21817047894001007,0.8593400120735168,2.9989502923365694,0.029372081614351613,0.9624662543199634,123.0,109.77682403433477,98.91304347826087,105.4304347826087,93.80566801619433,129.4251012145749,118.5,133.88429752066116,125.0,121.0,101.0,145.0,125.0,169.0,149.0,145.0
24,1.2000000000000002,0.12022137641906738,-0.24964356422424316,1.399379014968872,0.33216404914855957,-1.6947839260101318,0.747490406036377,0.4655664265155792,0.22023595869541168,0.8638826012611389,2.992161249726182,0.030281383690915913,0.9358026906672914,122.0,111.32314410480349,97.94690265486726,107.54867256637168,93.5650406504065,131.5081300813008,118.20833333333333,135.20833333333334,125.0,121.0,101.0,145.0,125.0,169.0,149.0,145.0
25,1.25,0.12490105628967285,-0.24442338943481445,1.3884384632110596,0.3376595973968506,-1.7026121616363525,0.7780735492706299,0.4664892852306366,0.22210374474525452,0.8677178621292114,2.98564186853543,0.0310727803109468,0.9093751470885041,121.10087719298245,112.72368421052632,96.98222222222222,109.53333333333333,93.28512396694215,133.56611570247935,117.94514767932489,136.7594936708861,125.0,121.0,101.0,145.0,125.0,169.0,149.0,145.0
26,1.3,0.1290595531463623,-0.2399284839630127,1.3790509700775146,0.3424253463745117,-1.7101662158966064,0.8077847957611084,0.4672648310661316,0.22372469305992126,0.8709874153137207,2.9792305866335944,0.03150925978324289,0.8833395190674325,120.25221238938053,114.07522123893806,96.03139013452915,111.5201793721973,93.7016806722689,135.92436974789916,117.75641025641026,138.07692307692307,125.0,121.0,101.0,145.0,125.0,169.0,149.0,145.0
27,1.35,0.13292670249938965,-0.23762106895446777,1.3734982013702393,0.3450131416320801,-1.7176258563995361,0.8366060256958008,0.4672369062900543,0.22510533034801483,0.8731421828269958,2.9723987987699685,0.031272344453641326,0.8579152168373382,119.36697247706422,115.37614678899082,95.14349775784753,113.51121076233184,92.8702928870293,137.5857740585774,117.46473029045643,139.32365145228215,125.0,121.0,101.0,145.0,125.0,169.0,149.0,145.0
28,1.4000000000000001,0.13663959503173828,-0.2339327335357666,1.3671238422393799,0.3482511043548584,-1.7249624729156494,0.864910364151001,0.4680870771408081,0.22653891146183014,0.8750505447387695,2.9663462786054526,0.03161324126958792,0.8329104951707679,118.63302752293578,116.62385321100918,94.36818181818182,115.47272727272727,92.51867219917013,139.39834024896265,117.13983050847457,140.76271186440678,125.0,121.0,101.0,145.0,125.0,169.0,149.0,145.0
29,1.4500000000000002,0.1405012607574463,-0.23026514053344727,1.3615663051605225,0.3511500358581543,-1.732337236404419,0.8928849697113037,0.46904751658439636,0.22806398570537567,0.8764835000038147,2.960405772380953,0.03207747349735604,0.8084125278758487,117.83555555555556,117.94222222222223,93.70588235294117,117.31221719457014,92.2510460251046,141.18828451882845,116.97916666666667,141.97083333333333,125.0,121.0,101.0,145.0,125.0,169.0,149.0,145.0
30,1.5,0.14405608177185059,-0.22675609588623047,1.3570005893707275,0.3536102771759033,-1.7394983768463135,0.9202020168304443,0.4701404273509979,0.22947897017002106,0.8774123191833496,2.9547315954029747,0.03253837431961407,0.784316289086067,117.0,119.20091324200914,92.86160714285714,119.01339285714286,92.0886075949367,143.10970464135022,116.8119658119658,143.0897435897436,125.0,121.0,101.0,145.0,125.0,169.0,149.0,145.0
31,1.55,0.14718246459960938,-0.2239077091217041,1.3539807796478271,0.3552851676940918,-1.7463343143463135,0.9465711116790771,0.47113659977912903,0.23069602251052856,0.8777767419815063,2.9492517639360774,0.032784272201697204,0.7607932396133547,116.24090909090908,120.39545454545454,92.12556053811659,120.76233183856502,91.87711864406779,144.8771186440678,116.6468085106383,144.27659574468086,125.0,121.0,101.0,145.0,125.0,169.0,149.0,145.0
32,1.6,0.15000629425048828,-0.2214069366455078,1.3520634174346924,0.3564267158508301,-1.7529079914093018,0.9721519947052002,0.47215306758880615,0.23179006576538086,0.8776735067367554,2.94399787032127,0.032955806291047315,0.7378072915803568,115.5,121.5,91.24090909090908,122.50454545454545,91.65702479338843,146.599173553719,116.35983263598327,145.46443514644352,125.0,121.0,101.0,145.0,125.0,169.0,149.0,145.0
33,1.6500000000000001,0.15259528160095215,-0.21918916702270508,1.351137399673462,0.3570852279663086,-1.7592289447784424,0.996941328048706,0.4732024669647217,0.2327953577041626,0.8771359920501709,2.938970470339572,0.03309495710457597,0.71542764684002,114.82272727272728,122.56363636363636,90.65486725663717,124.08407079646018,91.38333333333334,148.15,116.09787234042552,146.60425531914893,125.0,121.0,101.0,145.0,125.0,169.0,149.0,145.0
34,1.7000000000000002,0.15534162521362305,-0.21711230278015137,1.3509857654571533,0.35738253593444824,-1.7655360698699951,1.021418809890747,0.4742605686187744,0.2338874340057373,0.8762193322181702,2.933978410973434,0.033295770784266085,0.69355074487612,114.10810810810811,123.5945945945946,89.94690265486726,125.54867256637168,91.11934156378601,149.90946502057614,115.97033898305085,147.6228813559322,125.0,121.0,101.0,145.0,125.0,169.0,149.0,145.0
35,1.75,0.15815186500549316,-0.21523714065551758,1.3516066074371338,0.35730552673339844,-1.7717139720916748,1.0452663898468018,0.4752986431121826,0.23502345383167267,0.8749552965164185,2.9290858163307285,0.0335120959301734,0.6724050657621337,113.36697247706422,124.62385321100918,89.17180616740089,127.12775330396475,91.08677685950413,151.31404958677686,115.87916666666666,148.62083333333334,125.0,121.0,101.0,145.0,125.0,169.0,149.0,145.0
36,1.8,0.1598522663116455,-0.21416664123535156,1.3535397052764893,0.35651516914367676,-1.7771556377410889,1.0676825046539307,0.4762326180934906,0.23563911020755768,0.8733389973640442,2.9246681088828077,0.03328904642196634,0.6516550791732553,112.78733031674209,125.57918552036199,88.51327433628319,128.57079646017698,90.89539748953975,152.8744769874477,115.78600823045268,149.65020576131687,125.0,121.0,101.0,145.0,125.0,169.0,149.0,145.0
37,1.85,0.16140007972717285,-0.21320366859436035,1.355931043624878,0.3555135726928711,-1.7823536396026611,1.089364767074585,0.4771987199783325,0.23620262742042542,0.8715059161186218,2.920459544008317,0.03306106563596828,0.6315278544271725,112.09049773755656,126.56108597285068,87.8995633187773,130.07423580786025,90.65217391304348,154.34782608695653,115.53061224489795,150.5795918367347,125.0,121.0,101.0,145.0,125.0,169.0,149.0,145.0
38,1.9000000000000001,0.16296720504760742,-0.2121725082397461,1.3588240146636963,0.35425329208374023,-1.7874290943145752,1.110541582107544,0.4782993495464325,0.23681186139583588,0.8693438768386841,2.9164204920529175,0.03301078829531723,0.6119605252567615,111.5,127.5,87.21491228070175,131.4078947368421,90.54761904761905,155.71825396825398,115.38306451612904,151.4516129032258,125.0,121.0,101.0,145.0,125.0,169.0,149.0,145.0
39,1.9500000000000002,0.16402053833007812,-0.2114887237548828,1.362377405166626,0.3526313304901123,-1.7920715808868408,1.1307733058929443,0.4793713092803955,0.237189382314682,0.8669718503952026,2.9126913610647156,0.03279377912521867,0.5928723634659762,111.01777777777778,128.46666666666667,86.68376068376068,132.8034188034188,90.41269841269842,157.1706349206349,115.2326530612245,152.35102040816327,125.0,121.0,101.0,145.0,125.0,169.0,149.0,145.0
40,2.0,0.16502785682678223,-0.2105863094329834,1.3660557270050049,0.3509671688079834,-1.7965366840362549,1.1504566669464111,0.4806218147277832,0.2375873327255249,0.864406943321228,2.909180773258273,0.03277319827192952,0.5743186653482225,110.3406113537118,129.19213973799125,86.10212765957446,134.0936170212766,90.26666666666667,158.50980392156862,115.12244897959184,153.20408163265307,125.0,121.0,101.0,145.0,125.0,169.0,149.0,145.0
41,2.0500000000000003,0.1661393642425537,-0.20994877815246582,1.3704016208648682,0.3489093780517578,-1.8008906841278076,1.1695902347564697,0.48176735639572144,0.23803266882896423,0.8615922331809998,2.9057053641978987,0.0327229339781937,0.5564426952533509,109.78165938864629,130.06550218340612,85.50420168067227,135.26470588235293,90.21875,159.70703125,115.03305785123968,153.98347107438016,125.0,121.0,101.0,145.0,125.0,169.0,149.0,145.0
42,2.1,0.16664743423461914,-0.20989656448364258,1.3755199909210205,0.34638524055480957,-1.8047702312469482,1.1877577304840088,0.4827468693256378,0.23817601799964905,0.8586282134056091,2.902520735238373,0.032343969765710766,0.5389661145299043,109.22077922077922,130.82251082251082,84.957805907173,136.65400843881858,89.95785440613027,160.88505747126436,114.96385542168674,154.79518072289156,125.0,121.0,101.0,145.0,125.0,169.0,149.0,145.0
43,2.15,0.16662073135375977,-0.2094721794128418,1.3803608417510986,0.3440234661102295,-1.8081872463226318,1.2049753665924072,0.48404455184936523,0.23813210427761078,0.8556175231933594,2.8998295516072186,0.03217233312037724,0.5219421347093811,108.83620689655173,131.625,84.48535564853556,137.76987447698744,89.74712643678161,162.26053639846742,114.81027667984189,155.52173913043478,125.0,121.0,101.0,145.0,125.0,169.0,149.0,145.0
44,2.2,0.16682052612304688,-0.20839953422546387,1.384650468826294,0.3420138359069824,-1.8115570545196533,1.2218921184539795,0.485640287399292,0.23826099932193756,0.8525769710540771,2.897276719278811,0.032404607176610555,0.5054660598700645,108.17021276595744,132.23829787234044,83.89211618257261,138.85892116182572,89.73384030418251,163.35361216730038,114.73725490196078,156.2627450980392,125.0,121.0,101.0,145.0,125.0,169.0,149.0,145.0
45,2.25,0.16692399978637695,-0.20810341835021973,1.3899805545806885,0.339339017868042,-1.8147151470184326,1.2381360530853271,0.48686733841896057,0.23829522728919983,0.849341094493866,2.8947403110353345,0.03226980498976397,0.48957767585302997,107.80672268907563,132.89495798319328,83.46558704453442,140.01214574898785,89.64528301886793,164.43396226415095,114.64728682170542,156.86434108527132,125.0,121.0,101.0,145.0,125.0,169.0,149.0,145.0
46,2.3000000000000003,0.16678595542907715,-0.20730233192443848,1.3949096202850342,0.33688902854919434,-1.817582368850708,1.2537119388580322,0.4884166717529297,0.23827946186065674,0.8460635542869568,2.892545734241345,0.03245522372729384,0.4741403733016668,107.34297520661157,133.56611570247935,82.92712550607287,141.00404858299595,89.54477611940298,165.544776119403,114.55813953488372,157.46124031007753,125.0,121.0,101.0,145.0,125.0,169.0,149.0,145.0
47,2.35,0.1663968563079834,-0.20651578903198242,1.399873971939087,0.33439111709594727,-1.8201463222503662,1.268592119216919,0.4899980127811432,0.23816049098968506,0.8427647948265076,2.8905925375587893,0.032640690225166136,0.45916301213343064,106.94979079497908,134.17573221757323,82.5,142.0,89.56877323420075,166.56877323420073,114.55133079847909,158.26235741444867,125.0,121.0,101.0,145.0,125.0,169.0,149.0,145.0
48,2.4000000000000004,0.16606855392456055,-0.20614981651306152,1.4053089618682861,0.3315868377685547,-1.8226039409637451,1.2830798625946045,0.4913270175457001,0.23803895711898804,0.8394103646278381,2.888622563976708,0.03259372914688377,0.4446455094429483,106.58775510204082,134.82448979591837,82.12252964426878,142.94466403162056,89.53676470588235,167.60294117647058,114.5,158.73684210526315,125.0,121.0,101.0,145.0,125.0,169.0,149.0,145.0
49,2.45,0.1655271053314209,-0.20554661750793457,1.4105651378631592,0.3288567066192627,-1.824800729751587,1.2969486713409424,0.4928203821182251,0.23785242438316345,0.8360280990600586,2.8869100988539476,0.0327154293881741,0.4305465999509336,106.14693877551021,135.35102040816327,81.6171875,143.91796875,89.46739130434783,168.55072463768116,114.52830188679245,159.28301886792454,125.0,121.0,101.0,145.0,125.0,169.0,149.0,145.0
50,2.5,0.164536714553833,-0.20504140853881836,1.4158146381378174,0.3260812759399414,-1.826587438583374,1.309943437576294,0.4943239092826843,0.2374611496925354,0.8326934576034546,2.8855364324657824,0.03277002804107697,0.4168806132690441,105.67479674796748,135.8861788617886,81.34615384615384,144.76538461538462,89.45744680851064,169.38652482269504,114.48339483394834,159.9040590405904,125.0,121.0,101.0,145.0,125.0,169.0,149.0,145.0
51,2.5500000000000003,0.16379880905151367,-0.2048802375793457,1.421604871749878,0.3229389190673828,-1.8284122943878174,1.3227784633636475,0.4956005811691284,0.23716062307357788,0.8292261362075806,2.8840446115689984,0.03267726773723047,0.40362725029449553,105.41832669322709,136.37450199203187,80.8689138576779,145.65168539325842,89.36236933797909,170.3275261324042,114.48175182481752,160.3978102189781,125.0,121.0,101.0,145.0,125.0,169.0,149.0,145.0
52,2.6,0.16264843940734863,-0.204359769821167,1.4267776012420654,0.3201467990875244,-1.8298523426055908,1.3348486423492432,0.49709758162498474,0.2367076277732849,0.8259173035621643,2.882936257049725,0.03275230256311399,0.3907333942174097,104.94820717131473,136.91235059760956,80.5,146.5,89.4,171.16206896551725,114.55474452554745,160.8941605839416,125.0,121.0,101.0,145.0,125.0,169.0,149.0,145.0
53,2.6500000000000004,0.16124963760375977,-0.2043595314025879,1.4324982166290283,0.31694912910461426,-1.8310329914093018,1.3462598323822021,0.4983580708503723,0.23610062897205353,0.8225632905960083,2.8819835140514867,0.03254787495830152,0.37824722594174753,104.62162162162163,137.3127413127413,80.16236162361623,147.3210332103321,89.4061433447099,172.02047781569965,114.4695340501792,161.28673835125448,125.0,121.0,101.0,145.0,125.0,169.0,149.0,145.0
54,2.7,0.15997695922851562,-0.2039647102355957,1.437864065170288,0.3139338493347168,-1.8321621417999268,1.3573391437530518,0.4997895359992981,0.2355905920267105,0.81920325756073,2.8811075514111897,0.03262118120117605,0.3662162631415388,104.37837837837837,137.6872586872587,79.87132352941177,148.15073529411765,89.43389830508474,172.91186440677967,114.54642857142858,161.74285714285713,125.0,121.0,101.0,145.0,125.0,169.0,149.0,145.0
55,2.75,0.1587231159210205,-0.20318150520324707,1.4427196979522705,0.3112070560455322,-1.8331668376922607,1.3679955005645752,0.5013876557350159,0.23512445390224457,0.8159289360046387,2.880367529282472,0.03292974780910232,0.3546261698162624,103.99239543726236,138.22433460076044,79.55839416058394,148.82846715328466,89.41914191419141,173.6105610561056,114.52482269503547,162.11702127659575,125.0,121.0,101.0,145.0,125.0,169.0,149.0,145.0
56,2.8000000000000003,0.1571948528289795,-0.20273947715759277,1.4479196071624756,0.30820679664611816,-1.8339192867279053,1.3781101703643799,0.5028452277183533,0.23450522124767303,0.8126339316368103,2.8798095469867064,0.033050931009314305,0.34329963680582637,103.7175572519084,138.53053435114504,79.16187050359713,149.4928057553957,89.50974025974025,174.3603896103896,114.5909090909091,162.5174825174825,125.0,121.0,101.0,145.0,125.0,169.0,149.0,145.0
57,2.85,0.15569281578063965,-0.20244431495666504,1.4531347751617432,0.30515503883361816,-1.8345682621002197,1.3878185749053955,0.5041803121566772,0.2338855266571045,0.809407114982605,2.8793049867753964,0.03306876565754272,0.3323976685983445,103.5056603773585,138.96603773584906,78.95744680851064,150.24113475177305,89.6038961038961,175.10714285714286,114.68070175438596,162.89473684210526,125.0,121.0,101.0,145.0,125.0,169.0,149.0,145.0
58,2.9000000000000004,0.1540219783782959,-0.20206665992736816,1.4581983089447021,0.3021526336669922,-1.8350193500518799,1.397033452987671,0.5055701732635498,0.23319697380065918,0.8062204122543335,2.8789849773861134,0.03315792487572901,0.3218156458381263,103.20074349442379,139.37546468401487,78.72377622377623,150.93006993006992,89.57234726688102,175.66237942122186,114.73972602739725,163.17465753424656,125.0,121.0,101.0,145.0,125.0,169.0,149.0,145.0
59,2.95,0.15181183815002441,-0.20181727409362793,1.463294267654419,0.29906439781188965,-1.8350708484649658,1.405501127243042,0.5069786310195923,0.23224987089633942,0.8030787706375122,2.8790337193277478,0.03319496189984091,0.3114321502191158,102.99632352941177,139.5625,78.34965034965035,151.71678321678323,89.61587301587302,176.42222222222222,114.74829931972789,163.58503401360545,125.0,121.0,101.0,145.0,125.0,169.0,149.0,145.0
60,3.0,0.14966225624084473,-0.20108366012573242,1.4677069187164307,0.2963829040527344,-1.8350346088409424,1.413602590560913,0.5085867643356323,0.2313685417175293,0.8000744581222534,2.879192596852753,0.03352359439882055,0.3014683730340346,102.74007220216606,139.9494584837545,78.13148788927336,152.20415224913495,89.71383647798743,176.9811320754717,114.84406779661018,163.9186440677966,125.0,121.0,101.0,145.0,125.0,169.0,149.0,145.0
61,3.0500000000000003,0.14750051498413086,-0.20082879066467285,1.472569227218628,0.29337143898010254,-1.8349153995513916,1.4214208126068115,0.5099225640296936,0.23044276237487793,0.7970642447471619,2.8793680733867917,0.033559758947815425,0.2917658066214079,102.49632352941177,140.29044117647058,77.9795918367347,152.7891156462585,89.74375,177.609375,114.88590604026845,164.11409395973155,125.0,121.0,101.0,145.0,125.0,169.0,149.0,145.0
62,3.1,0.14517951011657715,-0.20032906532287598,1.4771268367767334,0.2905092239379883,-1.8346178531646729,1.428797960281372,0.5113991498947144,0.2294618785381317,0.7940987944602966,2.879732341818052,0.03378024188980295,0.2823368851477224,102.26258992805755,140.44604316546761,77.79530201342281,153.33892617449663,89.81733746130031,178.23219814241486,114.92786885245901,164.44262295081967,125.0,121.0,101.0,145.0,125.0,169.0,149.0,145.0
63,3.1500000000000004,0.1432650089263916,-0.19947338104248047,1.481273889541626,0.28789496421813965,-1.834465742111206,1.4361903667449951,0.5129578113555908,0.2286951094865799,0.7911820411682129,2.879957324804816,0.034216987488511784,0.2732938177313796,102.08960573476702,140.84587813620072,77.53198653198653,153.989898989899,89.91331269349845,178.72445820433435,115.0326797385621,164.66666666666666,125.0,121.0,101.0,145.0,125.0,169.0,149.0,145.0
64,3.2,0.14063167572021484,-0.19900989532470703,1.4856584072113037,0.28505492210388184,-1.8338134288787842,1.442683458328247,0.5144245624542236,0.22756193578243256,0.7883340120315552,2.880645766267664,0.03444776016730275,0.26441368164249357,101.93006993006993,141.0034965034965,77.33224755700326,154.442996742671,90.14848484848486,179.27575757575758,115.06312292358804,164.8405315614618,125.0,121.0,101.0,145.0,125.0,169.0,149.0,145.0
65,3.25,0.1383194923400879,-0.19839072227478027,1.4898788928985596,0.2822892665863037,-1.8332698345184326,1.449098825454712,0.5158909559249878,0.22658726572990417,0.78550124168396,2.881221216920497,0.034786978963818764,0.25592456859144425,101.76388888888889,141.29861111111111,77.14144736842105,154.93421052631578,90.20597014925373,179.78805970149253,115.0909090909091,165.23376623376623,125.0,121.0,101.0,145.0,125.0,169.0,149.0,145.0
66,3.3000000000000003,0.1361701488494873,-0.19786787033081055,1.4941356182098389,0.2794809341430664,-1.8327577114105225,1.4554564952850342,0.5172510147094727,0.2256806194782257,0.782697856426239,2.8817403547825777,0.03505143495113553,0.24765162825661535,101.53125,141.53819444444446,76.97385620915033,155.44444444444446,90.31927710843374,180.1987951807229,115.1624203821656,165.36942675159236,125.0,121.0,101.0,145.0,125.0,169.0,149.0,145.0
67,3.35,0.13380146026611328,-0.19750690460205078,1.4985191822052002,0.276531457901001,-1.8320505619049072,1.4613244533538818,0.5185538530349731,0.22465693950653076,0.7799079418182373,2.8824395091846116,0.035252565361232197,0.23963535185364468,101.33447098976109,141.75767918088738,76.81612903225806,155.9774193548387,90.37278106508876,180.77810650887574,115.26433121019109,165.5859872611465,125.0,121.0,101.0,145.0,125.0,169.0,149.0,145.0
68,3.4000000000000004,0.1313643455505371,-0.19691085815429688,1.5025150775909424,0.2738053798675537,-1.8312265872955322,1.4668476581573486,0.5199642181396484,0.22361496090888977,0.7772165536880493,2.883263946491109,0.03561087846235211,0.2318835949336604,101.20136518771331,141.96587030716722,76.60828025477707,156.39171974522293,90.5,181.1094674556213,115.44339622641509,165.72955974842768,125.0,121.0,101.0,145.0,125.0,169.0,149.0,145.0
69,3.45,0.1285405158996582,-0.19684219360351562,1.5068938732147217,0.27077507972717285,-1.8301136493682861,1.471785306930542,0.5211442708969116,0.22235125303268433,0.7745864391326904,2.884343098626117,0.0356508962306379,0.22431506762991762,101.0582191780822,142.0445205479452,76.6,156.7111111111111,90.57434402332362,181.63556851311952,115.45625,165.9,125.0,121.0,101.0,145.0,125.0,169.0,149.0,145.0
70,3.5,0.12624478340148926,-0.1959850788116455,1.5104377269744873,0.26830315589904785,-1.8292524814605713,1.4769761562347412,0.522615909576416,0.2213880568742752,0.772017240524292,2.8851992494857575,0.03617521484088742,0.21702386223809958,100.90169491525424,142.20338983050848,76.40880503144655,157.26100628930817,90.68011527377521,182.05475504322766,115.54347826086956,166.03726708074535,125.0,121.0,101.0,145.0,125.0,169.0,149.0,145.0
71,3.5500000000000003,0.1235959529876709,-0.19510483741760254,1.513810396194458,0.2658989429473877,-1.8281114101409912,1.4815762042999268,0.5241444110870361,0.22025707364082336,0.7695342302322388,2.886338407302107,0.03675370994651665,0.20995386857240197,100.86622073578596,142.35785953177256,76.41744548286604,157.52959501557632,90.84285714285714,182.30857142857144,115.66666666666667,166.24382716049382,125.0,121.0,101.0,145.0,125.0,169.0,149.0,145.0
72,3.6,0.12112188339233398,-0.1943356990814209,1.5173017978668213,0.2634000778198242,-1.8270342350006104,1.486196756362915,0.5255659818649292,0.21919624507427216,0.7670443654060364,2.887395361009736,0.03725387322995219,0.20303261942296466,100.74834437086092,142.50331125827816,76.27554179566563,157.89783281733747,90.94632768361582,182.80225988700565,115.70212765957447,166.37993920972644,125.0,121.0,101.0,145.0,125.0,169.0,149.0,145.0
73,3.6500000000000004,0.11871981620788574,-0.1932218074798584,1.520320177078247,0.2612011432647705,-1.8259379863739014,1.490659475326538,0.5271300673484802,0.2181888371706009,0.7646428346633911,2.888480392939653,0.03797538882625769,0.19633646525858717,100.59803921568627,142.7450980392157,76.09480122324159,158.37003058103974,91.0532212885154,183.02240896358543,115.85365853658537,166.45426829268294,125.0,121.0,101.0,145.0,125.0,169.0,149.0,145.0
74,3.7,0.11563324928283691,-0.19282793998718262,1.5239717960357666,0.25850963592529297,-1.8243820667266846,1.4942796230316162,0.5284301042556763,0.21680651605129242,0.7622621655464172,2.8900047726259785,0.038300627140397725,0.18977518881055028,100.49025974025975,142.85714285714286,76.009009009009,158.55855855855856,91.1551246537396,183.42936288088643,115.99096385542168,166.59638554216866,125.0,121.0,101.0,145.0,125.0,169.0,149.0,145.0
75,3.75,0.11284756660461426,-0.19235849380493164,1.5274393558502197,0.255939245223999,-1.8229587078094482,1.497992753982544,0.5296854376792908,0.21556821465492249,0.7599490880966187,2.891385787106128,0.038637649394535074,0.18342023361200363,100.42394822006473,142.94822006472492,75.86011904761905,158.98214285714286,91.30532212885154,183.73949579831933,116.17159763313609,166.73076923076923,125.0,121.0,101.0,145.0,125.0,169.0,149.0,145.0
76,3.8000000000000003,0.10979151725769043,-0.19213318824768066,1.5309951305389404,0.2532768249511719,-1.8213202953338623,1.501234769821167,0.5308389663696289,0.21418416500091553,0.7577167749404907,2.892977312733674,0.038838520302875414,0.17725143867544,100.37299035369774,143.03536977491962,75.80415430267063,159.3353115727003,91.44903581267218,184.05785123966942,116.26331360946746,166.77514792899407,125.0,121.0,101.0,145.0,125.0,169.0,149.0,145.0
77,3.85,0.10651254653930664,-0.19176435470581055,1.534303903579712,0.25075650215148926,-1.8195006847381592,1.504089117050171,0.532090961933136,0.21269819140434265,0.7555491328239441,2.8947639834781413,0.03917309362726745,0.1712353104966404,100.29523809523809,143.1238095238095,75.81194029850747,159.53731343283582,91.71428571428571,184.4065934065934,116.35588235294118,166.84411764705882,125.0,121.0,101.0,145.0,125.0,169.0,149.0,145.0
78,3.9000000000000004,0.10369586944580078,-0.19113826751708984,1.537369966506958,0.24839115142822266,-1.8179223537445068,1.5071418285369873,0.5333808064460754,0.21144574880599976,0.7533859014511108,2.8963058701334554,0.03965578328943811,0.16548462540422884,100.25867507886436,143.2334384858044,75.67448680351906,159.9325513196481,91.79347826086956,184.6413043478261,116.47953216374269,166.9093567251462,125.0,121.0,101.0,145.0,125.0,169.0,149.0,145.0
79,3.95,0.10029792785644531,-0.19082331657409668,1.5405981540679932,0.2458808422088623,-1.815946340560913,1.509507417678833,0.5345923900604248,0.20989303290843964,0.7512961626052856,2.8982522089374942,0.0399932443310538,0.15982020539021943,100.165625,143.31875,75.64035087719299,160.13742690058479,91.95135135135135,184.76216216216216,116.60349854227405,166.95626822157433,125.0,121.0,101.0,145.0,125.0,169.0,149.0,145.0
80,4.0,0.09694552421569824,-0.1908740997314453,1.544220209121704,0.2430722713470459,-1.8139698505401611,1.5117404460906982,0.5355933308601379,0.20833900570869446,0.7491783499717712,2.900184747502176,0.04010035310757723,0.15432878541394157,100.08385093167702,143.3975155279503,75.61046511627907,160.38953488372093,92.04864864864865,185.23783783783784,116.78840579710145,167.04347826086956,125.0,121.0,101.0,145.0,125.0,169.0,149.0,145.0
81,4.05,0.09365272521972656,-0.19057512283325195,1.5473015308380127,0.24063801765441895,-1.8119828701019287,1.5138604640960693,0.5367385745048523,0.20682989060878754,0.7471844553947449,2.9021400283625685,0.04042834083151538,0.1490051665593742,99.984520123839,143.43343653250773,75.52011494252874,160.70114942528735,92.16085790884719,185.36997319034853,116.89971346704871,167.04297994269342,125.0,121.0,101.0,145.0,125.0,169.0,149.0,145.0
82,4.1000000000000005,0.09004712104797363,-0.19061017036437988,1.5506675243377686,0.23797392845153809,-1.8097708225250244,1.5155055522918701,0.5377519130706787,0.20514972507953644,0.7452066540718079,2.904323123580758,0.04058408772273284,0.14383024955646337,99.91743119266054,143.5137614678899,75.432664756447,160.945558739255,92.38786279683377,185.58047493403694,116.97435897435898,167.07977207977208,125.0,121.0,101.0,145.0,125.0,169.0,149.0,145.0
83,4.15,0.08656644821166992,-0.190826416015625,1.554215669631958,0.23515892028808594,-1.8076059818267822,1.5170562267303467,0.5386355519294739,0.2035190612077713,0.7432249784469604,2.906452398545723,0.04062094373544947,0.13886890808071012,99.86585365853658,143.59146341463415,75.40226628895184,161.1586402266289,92.51047120418848,185.81151832460733,117.03682719546742,167.17847025495752,125.0,121.0,101.0,145.0,125.0,169.0,149.0,145.0
84,4.2,0.08320426940917969,-0.19098496437072754,1.5576746463775635,0.23239827156066895,-1.8054859638214111,1.5185930728912354,0.539514422416687,0.20194706320762634,0.7412635087966919,2.9085365288627285,0.04069289549911958,0.13403804275154588,99.83685800604229,143.6132930513595,75.3781512605042,161.34453781512605,92.640625,186.0859375,117.24011299435028,167.20056497175142,125.0,121.0,101.0,145.0,125.0,169.0,149.0,145.0
85,4.25,0.07979869842529297,-0.19115948677062988,1.5610158443450928,0.22971463203430176,-1.8033063411712646,1.5199434757232666,0.5403704047203064,0.20035067200660706,0.7393804788589478,2.910685274013114,0.040755465775420434,0.1293442772424317,99.80722891566265,143.6234939759036,75.33798882681565,161.60614525139664,92.80678851174935,186.3159268929504,117.3172804532578,167.1728045325779,125.0,121.0,101.0,145.0,125.0,169.0,149.0,145.0
86,4.3,0.07618355751037598,-0.1912546157836914,1.5641968250274658,0.2271270751953125,-1.8009650707244873,1.5209429264068604,0.5412898063659668,0.19865307211875916,0.7375462055206299,2.9130099630032156,0.04091064107727211,0.12478174791983217,99.80722891566265,143.6234939759036,75.30555555555556,161.8361111111111,93.0,186.5,117.46218487394958,167.17927170868347,125.0,121.0,101.0,145.0,125.0,169.0,149.0,145.0
87,4.3500000000000005,0.07248091697692871,-0.19146013259887695,1.5674183368682861,0.22449946403503418,-1.798541784286499,1.5217020511627197,0.5421497225761414,0.19690656661987305,0.7357497215270996,2.9154212992183957,0.041009721149772034,0.12036735547938537,99.78378378378379,143.6036036036036,75.28531855955679,162.0831024930748,93.12144702842377,186.55297157622738,117.6927374301676,167.20670391061452,125.0,121.0,101.0,145.0,125.0,169.0,149.0,145.0
88,4.4,0.06861376762390137,-0.19218921661376953,1.5711205005645752,0.22151589393615723,-1.7959926128387451,1.5221445560455322,0.5427475571632385,0.19505897164344788,0.7339605093002319,2.917951243416892,0.040775720873753425,0.11609553883456905,99.7603550295858,143.698224852071,75.30958904109589,162.16712328767125,93.29411764705883,186.7826086956522,117.83379501385042,167.2409972299169,125.0,121.0,101.0,145.0,125.0,169.0,149.0,145.0
89,4.45,0.06504011154174805,-0.19290494918823242,1.5747849941253662,0.21855592727661133,-1.7936060428619385,1.522737741470337,0.5432877540588379,0.19335496425628662,0.7321869134902954,2.920311325863198,0.04051909315037094,0.11196817042520317,99.7603550295858,143.698224852071,75.26145552560646,162.33692722371967,93.40759493670886,186.9367088607595,117.9475138121547,167.30662983425415,125.0,121.0,101.0,145.0,125.0,169.0,149.0,145.0
90,4.5,0.06152033805847168,-0.19371294975280762,1.5784742832183838,0.2155771255493164,-1.7912323474884033,1.5232770442962646,0.5437551140785217,0.19167396426200867,0.7304483652114868,2.922656998788602,0.04019163508219331,0.10794727962067661,99.67543859649123,143.7514619883041,75.30540540540541,162.5162162162162,93.58040201005025,187.12311557788945,117.97245179063361,167.32231404958677,125.0,121.0,101.0,145.0,125.0,169.0,149.0,145.0
91,4.55,0.05818819999694824,-0.19425606727600098,1.5819170475006104,0.21275973320007324,-1.7889573574066162,1.5238606929779053,0.5443227291107178,0.1900923252105713,0.7287112474441528,2.924910371871438,0.040042629769206396,0.10406839411183148,99.67930029154519,143.78134110787173,75.26756756756757,162.66216216216216,93.69113924050633,187.27848101265823,118.06849315068493,167.27945205479452,125.0,121.0,101.0,145.0,125.0,169.0,149.0,145.0
92,4.6000000000000005,0.0546877384185791,-0.19496822357177734,1.5854756832122803,0.2098534107208252,-1.7865569591522217,1.524181604385376,0.5448167324066162,0.1884227693080902,0.7269977927207947,2.9272940038137962,0.03980394070678158,0.10027799219386095,99.60982658959537,143.8063583815029,75.3475935828877,162.82620320855614,93.77918781725889,187.3223350253807,118.16304347826087,167.29076086956522,125.0,121.0,101.0,145.0,125.0,169.0,149.0,145.0
93,4.65,0.05122208595275879,-0.19576311111450195,1.589160680770874,0.20684266090393066,-1.7841646671295166,1.524432897567749,0.5452550649642944,0.18676751852035522,0.7252574563026428,2.9296698361583946,0.039520236571491105,0.09658989384388748,99.63112391930835,143.8270893371758,75.3048128342246,163.00802139037432,94.03553299492386,187.53807106598984,118.32975871313673,167.2573726541555,125.0,121.0,101.0,145.0,125.0,169.0,149.0,145.0
94,4.7,0.047838449478149414,-0.19666075706481934,1.5928690433502197,0.20380568504333496,-1.7818024158477783,1.5245773792266846,0.5456100106239319,0.1851501166820526,0.7235602140426636,2.932014710349651,0.039154883280109395,0.09308742346412303,99.51420454545455,143.7755681818182,75.26790450928382,163.19098143236073,94.26130653266331,187.7110552763819,118.48533333333333,167.26933333333332,125.0,121.0,101.0,145.0,125.0,169.0,149.0,145.0
95,4.75,0.044854164123535156,-0.19741058349609375,1.5963499546051025,0.20091629028320312,-1.7796709537506104,1.5248830318450928,0.5459621548652649,0.1837323158979416,0.7219201326370239,2.9341239883834818,0.03883678213208313,0.08982495784961073,99.5070821529745,143.80453257790367,75.24137931034483,163.24137931034483,94.31094527363184,187.7860696517413,118.58090185676393,167.3236074270557,125.0,121.0,101.0,145.0,125.0,169.0,149.0,145.0
96,4.800000000000001,0.04205632209777832,-0.1982734203338623,1.5999109745025635,0.1979684829711914,-1.7776458263397217,1.5253055095672607,0.5462138652801514,0.18240264058113098,0.7202966213226318,2.9361190664886725,0.03840815428723203,0.0866323166773949,99.5070821529745,143.80453257790367,75.24607329842932,163.3979057591623,94.43283582089552,187.86069651741295,118.67733333333334,167.26933333333332,125.0,121.0,101.0,145.0,125.0,169.0,149.0,145.0
97,4.8500000000000005,0.039139747619628906,-0.1993095874786377,1.6036288738250732,0.19489717483520508,-1.7755320072174072,1.5255067348480225,0.546386182308197,0.18101118505001068,0.7186751961708069,2.938206622642795,0.037882747088327756,0.08353757715254828,99.5070821529745,143.80453257790367,75.29242819843343,163.4621409921671,94.5,188.0,118.80533333333334,167.17066666666668,125.0,121.0,101.0,145.0,125.0,169.0,149.0,145.0
98,4.9,0.036034584045410156,-0.20038843154907227,1.6073343753814697,0.19183683395385742,-1.7732856273651123,1.5254695415496826,0.5465549826622009,0.17952725291252136,0.7170811295509338,2.94043449028825,0.03735567413645524,0.08048763687276932,99.54084507042253,143.7549295774648,75.32987012987013,163.55584415584417,94.62745098039215,188.0343137254902,118.96296296296296,167.18783068783068,125.0,121.0,101.0,145.0,125.0,169.0,149.0,145.0
99,4.95,0.03305196762084961,-0.20154261589050293,1.6110742092132568,0.1887497901916504,-1.7711069583892822,1.5254671573638916,0.5466538071632385,0.1781039983034134,0.7155090570449829,2.9425898967191646,0.03675699040260494,0.07752654651287232,99.50837988826815,143.71787709497207,75.31524547803618,163.65116279069767,94.74264705882354,188.07843137254903,119.01058201058201,167.18783068783068,125.0,121.0,101.0,145.0,125.0,169.0,149.0,145.0
100,5.0,0.03022170066833496,-0.20264840126037598,1.6147444248199463,0.18570518493652344,-1.769014596939087,1.5255177021026611,0.5467457175254822,0.1767578274011612,0.7139525413513184,2.9446567114270326,0.036172915152030506,0.07466556462348246,99.52066115702479,143.65840220385675,75.32474226804123,163.6778350515464,94.9247572815534,188.14563106796118,119.1522309711286,167.16797900262466,125.0,121.0,101.0,145.0,125.0,169.0,149.0,145.0
101,5.050000000000001,0.02767181396484375,-0.20364856719970703,1.6182386875152588,0.18278241157531738,-1.7670905590057373,1.5257322788238525,0.5468373894691467,0.17555122077465057,0.7124435901641846,2.9465515097464325,0.035617205642961614,0.07192174436282939,99.55342465753425,143.62191780821917,75.36923076923077,163.76410256410256,95.1138014527845,188.20338983050848,119.29015544041451,167.0777202072539,125.0,121.0,101.0,145.0,125.0,169.0,149.0,145.0
102,5.1000000000000005,0.025133848190307617,-0.20470023155212402,1.6217529773712158,0.17983746528625488,-1.7651636600494385,1.5258452892303467,0.5468925833702087,0.17435038089752197,0.7109519243240356,2.948451156490391,0.03502684222379383,0.06928915940196484,99.53678474114442,143.56675749318802,75.35805626598466,163.89514066496164,95.20913461538461,188.3125,119.38501291989664,167.02325581395348,125.0,121.0,101.0,145.0,125.0,169.0,149.0,145.0
103,5.15,0.022489070892333984,-0.20577096939086914,1.6252210140228271,0.1769251823425293,-1.7631561756134033,1.5257704257965088,0.5469439625740051,0.17309799790382385,0.7094966173171997,2.9504372656215336,0.034437496947552375,0.06673431369730548,99.54471544715447,143.5528455284553,75.34526854219949,163.97953964194375,95.36319612590799,188.37530266343825,119.5,167.0,125.0,121.0,101.0,145.0,125.0,169.0,149.0,145.0
104,5.2,0.01999974250793457,-0.20688939094543457,1.6286909580230713,0.17400288581848145,-1.7612388134002686,1.5257351398468018,0.5469379425048828,0.17192259430885315,0.7080673575401306,2.952328799847401,0.033787572417280316,0.06429562545212095,99.52830188679245,143.5067385444744,75.36132315521628,164.03307888040712,95.46153846153847,188.46153846153845,119.51653944020356,167.0229007633588,125.0,121.0,101.0,145.0,125.0,169.0,149.0,145.0
105,5.25,0.017601490020751953,-0.207749605178833,1.6318590641021729,0.17130184173583984,-1.7593719959259033,1.525758981704712,0.547045111656189,0.17079570889472961,0.7066749334335327,2.954175448917102,0.03330769826437899,0.06188927180070713,99.53619302949062,143.46916890080428,75.38324873096447,164.1776649746193,95.53237410071942,188.56594724220622,119.70769230769231,166.92564102564103,125.0,121.0,101.0,145.0,125.0,169.0,149.0,145.0
106,5.300000000000001,0.014988422393798828,-0.2088623046875,1.6352155208587646,0.16846537590026855,-1.7573554515838623,1.5254781246185303,0.5470432043075562,0.1695626676082611,0.7053076028823853,2.956174263855421,0.03267674075676341,0.05956833522110352,99.52266666666667,143.38133333333334,75.42025316455697,164.25063291139242,95.66746411483254,188.64114832535884,119.79539641943734,166.91815856777492,125.0,121.0,101.0,145.0,125.0,169.0,149.0,145.0
107,5.3500000000000005,0.01245737075805664,-0.20976853370666504,1.6383025646209717,0.16582655906677246,-1.755382776260376,1.525216817855835,0.5471274852752686,0.16837263107299805,0.703987181186676,2.9581332902505206,0.032177812048985704,0.05731019960527271,99.55053191489361,143.37234042553192,75.45843828715365,164.28967254408062,95.80997624703087,188.65083135391924,119.90537084398977,166.84910485933503,125.0,121.0,101.0,145.0,125.0,169.0,149.0,145.0
108,5.4,0.010016202926635742,-0.2107558250427246,1.6414620876312256,0.16312527656555176,-1.7534611225128174,1.5249521732330322,0.5471504926681519,0.16722756624221802,0.7026689648628235,2.9600380145797587,0.031610193594561915,0.05514457004060823,99.55968169761273,143.3448275862069,75.45340050377834,164.34256926952142,95.89598108747045,188.66903073286053,120.09113924050632,166.77721518987343,125.0,121.0,101.0,145.0,125.0,169.0,149.0,145.0
109,5.45,0.0076673030853271484,-0.21197199821472168,1.6447961330413818,0.16028904914855957,-1.7515900135040283,1.5246670246124268,0.547031581401825,0.16612780094146729,0.7013744115829468,2.9618831927409057,0.03085690890423253,0.053091094173656296,99.55968169761273,143.3448275862069,75.45340050377834,164.34256926952142,95.94588235294118,188.6870588235294,120.2258883248731,166.76395939086294,125.0,121.0,101.0,145.0,125.0,169.0,149.0,145.0
110,5.5,0.005507946014404297,-0.2132704257965088,1.6481640338897705,0.1574230194091797,-1.7498362064361572,1.524501085281372,0.5468347072601318,0.16512171924114227,0.7001046538352966,2.9636035743629012,0.030008763831290586,0.05110854960571738,99.53562005277045,143.29287598944592,75.49246231155779,164.38442211055278,96.096018735363,188.7377049180328,120.29367088607594,166.6886075949367,125.0,121.0,101.0,145.0,125.0,169.0,149.0,145.0
111,5.550000000000001,0.003415822982788086,-0.21442365646362305,1.6513526439666748,0.15468239784240723,-1.748119592666626,1.5243237018585205,0.5466985702514648,0.1641504168510437,0.6988620758056641,2.9652911094009147,0.029256405654714237,0.04920546929825153,99.5774278215223,143.251968503937,75.51371571072319,164.45137157107231,96.21545667447307,188.80093676814988,120.37721518987341,166.62025316455697,125.0,121.0,101.0,145.0,125.0,169.0,149.0,145.0
112,5.6000000000000005,0.0012526512145996094,-0.21559977531433105,1.6545288562774658,0.15195345878601074,-1.7463500499725342,1.5240232944488525,0.5465555191040039,0.16314557194709778,0.697637677192688,2.9670341003150114,0.02849830753816116,0.0473516653482169,99.58947368421053,143.16842105263157,75.5,164.5,96.3035294117647,188.76705882352942,120.44810126582279,166.56708860759494,125.0,121.0,101.0,145.0,125.0,169.0,149.0,145.0
113,5.65,-0.0008640289306640625,-0.21684002876281738,1.6577379703521729,0.14919495582580566,-1.7446057796478271,1.5236990451812744,0.5463659763336182,0.1621648669242859,0.6964291334152222,2.968749790813144,0.02768409935626847,0.04556739240060001,99.5984251968504,143.10761154855643,75.5,164.5,96.52941176470588,188.8729411764706,120.54060913705584,166.502538071066,125.0,121.0,101.0,145.0,125.0,169.0,149.0,145.0
114,5.7,-0.0028007030487060547,-0.21782851219177246,1.6606037616729736,0.1466841697692871,-1.7429721355438232,1.5234649181365967,0.5462740659713745,0.16127341985702515,0.6952878832817078,2.9703580802480327,0.027015576132226184,0.04387391012643641,99.64921465968587,143.0523560209424,75.5,164.5,96.64622641509433,188.87028301886792,120.61868686868686,166.48232323232324,125.0,121.0,101.0,145.0,125.0,169.0,149.0,145.0
115,5.75,-0.004622697830200195,-0.21878695487976074,1.663395643234253,0.1442263126373291,-1.7414090633392334,1.5232994556427002,0.5461760759353638,0.16043870151042938,0.6941750049591064,2.9718941459962327,0.02634593498794641,0.04222705664362468,99.70418848167539,142.9109947643979,75.5,164.5,96.72,188.84941176470588,120.7375,166.405,125.0,121.0,101.0,145.0,125.0,169.0,149.0,145.0
116,5.800000000000001,-0.006479501724243164,-0.21979713439941406,1.666172742843628,0.14178681373596191,-1.7398197650909424,1.5230662822723389,0.5460482239723206,0.15958817303180695,0.6930983662605286,2.9734566493348518,0.025637276206015087,0.04061253883162356,99.72559366754618,142.83641160949867,75.5,164.5,96.82476635514018,188.84112149532712,120.86913580246913,166.34814814814814,125.0,121.0,101.0,145.0,125.0,169.0,149.0,145.0
117,5.8500000000000005,-0.008214712142944336,-0.22082829475402832,1.6689064502716064,0.1393747329711914,-1.7383053302764893,1.5228826999664307,0.5458865761756897,0.15879735350608826,0.6920593976974487,2.974940213685181,0.02488682847859319,0.03906970369724457,99.72845953002611,142.7284595300261,75.63118811881188,164.509900990099,96.91879350348027,188.85614849187934,120.9753086419753,166.35308641975308,125.0,121.0,101.0,145.0,125.0,169.0,149.0,145.0
118,5.9,-0.009929656982421875,-0.2216191291809082,1.6713626384735107,0.1371746063232422,-1.736802339553833,1.5227224826812744,0.5458430647850037,0.15801659226417542,0.6910526156425476,2.976419921641484,0.024307756670607035,0.0375239084346024,99.72845953002611,142.7284595300261,75.72303921568627,164.5563725490196,97.01616628175519,188.86143187066975,121.0909090909091,166.2211302211302,125.0,121.0,101.0,145.0,125.0,169.0,149.0,145.0
119,5.95,-0.01170659065246582,-0.22252249717712402,1.6739466190338135,0.1348726749420166,-1.7352526187896729,1.5224230289459229,0.545747697353363,0.15720723569393158,0.690031886100769,2.977945812337991,0.023662197459402196,0.03605408277183088,99.77662337662338,142.71948051948053,75.73414634146341,164.609756097561,97.08735632183908,188.83448275862068,121.19756097560976,166.13658536585365,125.0,121.0,101.0,145.0,125.0,169.0,149.0,145.0
120,6.0,-0.01349782943725586,-0.22365140914916992,1.676750898361206,0.1324021816253662,-1.7336885929107666,1.5220363140106201,0.5455331802368164,0.15639369189739227,0.6890035271644592,2.9794801357492138,0.022853570936574554,0.03465680642514712,99.83120204603581,142.61125319693096,75.78536585365853,164.62682926829268,97.16781609195402,188.83448275862068,121.33088235294117,166.07107843137254,125.0,121.0,101.0,145.0,125.0,169.0,149.0,145.0
121,6.050000000000001,-0.015338659286499023,-0.22480463981628418,1.6795294284820557,0.1299588680267334,-1.732088327407837,1.5215752124786377,0.5453073382377625,0.15555769205093384,0.6880013346672058,2.9810497068329718,0.022031379198742446,0.033282739679720424,99.84478371501272,142.55725190839695,75.85956416464892,164.62227602905568,97.25512528473804,188.81548974943053,121.45232273838631,166.04156479217605,125.0,121.0,101.0,145.0,125.0,169.0,149.0,145.0
122,6.1000000000000005,-0.017081737518310547,-0.22590327262878418,1.6822216510772705,0.12757587432861328,-1.7305495738983154,1.5211718082427979,0.5450928211212158,0.15477047860622406,0.687020480632782,2.982556614102532,0.021231730260915446,0.031948651606907685,99.87817258883248,142.51522842639594,75.88968824940048,164.56354916067147,97.36529680365297,188.79680365296804,121.5,166.0,125.0,121.0,101.0,145.0,125.0,169.0,149.0,145.0
123,6.15,-0.018703222274780273,-0.22689270973205566,1.6847813129425049,0.1252880096435547,-1.7290894985198975,1.5208652019500732,0.5449156761169434,0.15404196083545685,0.6860600709915161,2.983985276582756,0.020490862176923263,0.030641731145518505,99.95674300254453,142.40712468193385,75.91626794258373,164.5693779904306,97.52631578947368,188.7574370709382,121.51338199513383,165.9221411192214,125.0,121.0,101.0,145.0,125.0,169.0,149.0,145.0
124,6.2,-0.02036309242248535,-0.22782158851623535,1.6872732639312744,0.12305188179016113,-1.7276017665863037,1.520493745803833,0.5447725057601929,0.1532955914735794,0.6851063966751099,2.9854455035033887,0.01980266755845623,0.02935952474413788,99.98477157360406,142.41116751269035,75.93809523809524,164.57619047619048,97.67667436489607,188.76674364896073,121.5873786407767,165.89320388349515,125.0,121.0,101.0,145.0,125.0,169.0,149.0,145.0
125,6.25,-0.021871566772460938,-0.22869586944580078,1.689683198928833,0.1208653450012207,-1.7262098789215088,1.5202052593231201,0.5446341037750244,0.15262262523174286,0.684174120426178,2.9868082950456185,0.019127587612898615,0.028147070896155077,99.98740554156171,142.3551637279597,75.96437054631829,164.56769596199524,97.82151029748283,188.7254004576659,121.76144578313253,165.85060240963855,125.0,121.0,101.0,145.0,125.0,169.0,149.0,145.0
126,6.300000000000001,-0.023133039474487305,-0.22954511642456055,1.6919963359832764,0.11873435974121094,-1.7249772548675537,1.520056962966919,0.5444706082344055,0.15206947922706604,0.6832886338233948,2.9880080355600467,0.018421767782211728,0.027042026473195577,100.00503778337531,142.3148614609572,76.01654846335697,164.4775413711584,97.86926605504587,188.75229357798165,121.84210526315789,165.76315789473685,125.0,121.0,101.0,145.0,125.0,169.0,149.0,145.0
127,6.3500000000000005,-0.024385929107666016,-0.23032164573669434,1.6942031383514404,0.11668777465820312,-1.723750352859497,1.51991868019104,0.5443407297134399,0.15151990950107574,0.6824259757995605,2.9892050042518905,0.017765305788414867,0.02593482358379615,100.06030150753769,142.19346733668343,76.04255319148936,164.43262411347519,97.9590909090909,188.74772727272727,121.98076923076923,165.73557692307693,125.0,121.0,101.0,145.0,125.0,169.0,149.0,145.0
128,6.4,-0.025569438934326172,-0.23102355003356934,1.6962530612945557,0.11476445198059082,-1.7225687503814697,1.519836187362671,0.5442347526550293,0.15100276470184326,0.6816161274909973,2.9903569869940814,0.01714306863984403,0.024841598893233008,100.1125,142.11,76.08571428571429,164.3761904761905,98.0204081632653,188.71655328798187,122.01201923076923,165.64903846153845,125.0,121.0,101.0,145.0,125.0,169.0,149.0,145.0
129,6.45,-0.026814699172973633,-0.23169875144958496,1.6982710361480713,0.11287140846252441,-1.7213466167449951,1.5197021961212158,0.5441491603851318,0.1504559963941574,0.6808095574378967,2.9915524337823283,0.016551671566854054,0.023737360934163013,100.285,142.015,76.13270142180095,164.37440758293837,98.12925170068027,188.68934240362813,122.11270983213429,165.4748201438849,125.0,121.0,101.0,145.0,125.0,169.0,149.0,145.0
130,6.5,-0.028296709060668945,-0.2326056957244873,1.7005226612091064,0.11082029342651367,-1.7199642658233643,1.519322156906128,0.5439718961715698,0.1497991532087326,0.6799866557121277,2.9929047429017923,0.01583116457273489,0.02264117279718717,100.3142144638404,141.95760598503742,76.21698113207547,164.35141509433961,98.21348314606742,188.7258426966292,122.21342925659472,165.38129496402877,125.0,121.0,101.0,145.0,125.0,169.0,149.0,145.0
131,6.550000000000001,-0.02983999252319336,-0.23346686363220215,1.7027041912078857,0.10882925987243652,-1.7185394763946533,1.5188710689544678,0.5438230037689209,0.149113267660141,0.6791789531707764,2.9943010263709664,0.015153893091872216,0.021554170225246045,100.3575,141.89,76.22931442080379,164.32624113475177,98.31531531531532,188.6689189189189,122.22248803827752,165.30382775119617,125.0,121.0,101.0,145.0,125.0,169.0,149.0,145.0
132,6.6000000000000005,-0.03136873245239258,-0.2343142032623291,1.70487380027771,0.10684347152709961,-1.7171223163604736,1.5184061527252197,0.5436780452728271,0.14843547344207764,0.6783705949783325,2.9956895121540676,0.014486052896947344,0.020495745041931992,100.3975,141.7775,76.25355450236967,164.3127962085308,98.42696629213484,188.63370786516853,122.37320574162679,165.22727272727272,125.0,121.0,101.0,145.0,125.0,169.0,149.0,145.0
133,6.65,-0.03282618522644043,-0.23517370223999023,1.7069885730743408,0.10489773750305176,-1.7157495021820068,1.5179531574249268,0.543512761592865,0.14779353141784668,0.6776021718978882,2.9970305506839168,0.013789503269763205,0.01949664178768473,100.38190954773869,141.7286432160804,76.29691211401425,164.2541567695962,98.50224215246637,188.60986547085201,122.55502392344498,165.19617224880383,125.0,121.0,101.0,145.0,125.0,169.0,149.0,145.0
134,6.7,-0.034065961837768555,-0.23597335815429688,1.708965539932251,0.1030435562133789,-1.7145206928253174,1.5176537036895752,0.5433467626571655,0.14725616574287415,0.6768854260444641,2.9982254098072327,0.013091759847195277,0.01856239858258346,100.38095238095238,141.64661654135338,76.32380952380953,164.25714285714287,98.64044943820225,188.52134831460674,122.65947242206235,165.1294964028777,125.0,121.0,101.0,145.0,125.0,169.0,149.0,145.0
135,6.75,-0.035153865814208984,-0.23675322532653809,1.7108871936798096,0.10121488571166992,-1.7133891582489014,1.5174143314361572,0.5431690216064453,0.14679203927516937,0.6761932969093323,2.9993213717443554,0.012379364992841006,0.017720420612533944,100.40350877192982,141.59899749373434,76.34597156398104,164.22985781990522,98.8018018018018,188.50675675675674,122.7517730496454,165.04728132387706,125.0,121.0,101.0,145.0,125.0,169.0,149.0,145.0
136,6.800000000000001,-0.03612518310546875,-0.23746895790100098,1.712700605392456,0.0994572639465332,-1.7123324871063232,1.517218828201294,0.5430077314376831,0.14638255536556244,0.6755324602127075,3.0003435138277728,0.011691036221712489,0.01695035437275051,100.51507537688443,141.51507537688443,76.48235294117647,164.13882352941175,98.87837837837837,188.50225225225225,122.82863849765258,165.0093896713615,125.0,121.0,101.0,145.0,125.0,169.0,149.0,145.0
